{"region": "anseong", "data": [{"name": "#1", "category": "other", "outputcat": "의류", "telephone": "031-676-3617", "longitude": "127.27079318", "latitude": "37.008249982"}, {"name": "&BEIGE(앤베이지)", "category": "food", "outputcat": "식품/음료", "telephone": "031-677-1118", "longitude": "127.24978967", "latitude": "37.013855105"}, {"name": "(A)유니실버요양원", "category": "med", "outputcat": "의료", "telephone": "031-674-6763", "longitude": "127.43119256", "latitude": "37.096569524"}, {"name": "(ART.C)아트씨", "category": "med", "outputcat": "의료", "telephone": "031-677-0518", "longitude": "127.27004135", "latitude": "37.008521996"}, {"name": "(사)경기도 시각장애인연합회 안성시지회", "category": "car", "outputcat": "자동차 정비/주유", "telephone": "031-672-3555", "longitude": "127.27642822", "latitude": "37.006804435"}, {"name": "(사)경기도장애인복지회 안성시지부", "category": "car", "outputcat": "자동차 정비/주유", "telephone": "031-674-8050", "longitude": "127.27304578", "latitude": "37.00980372"}, {"name": "(사)경기자동차검사정비사업조합 안성지역", "category": "car", "outputcat": "자동차 정비/주유", "telephone": "031-672-5635", "longitude": "127.27106511", "latitude": "36.999301777"}, {"name": "(사)대의왕불회", "category": "other", "outputcat": "기타", "longitude": "127.37969265", "latitude": "37.100240408"}, {"name": "(사)안성청년회의소", "category": "other", "outputcat": "기타", "telephone": "031-675-4709", "longitude": "127.23438204", "latitude": "37.012994101"}, {"name": "(사)안성청년회의소", "category": "other", "outputcat": "기타", "telephone": "031-675-4709", "longitude": "127.23438204", "latitude": "37.012994101"}, {"name": "(사)워치타워성서책자협회", "category": "edu", "outputcat": "교육", "telephone": "031-690-0033", "longitude": "127.19574403", "latitude": "37.000970847"}, {"name": "(사)한국정보기술전략혁신학회", "category": "other", "outputcat": "용역 서비스", "telephone": "02-338-2096", "longitude": "127.20393921", "latitude": "37.015770791"}, {"name": "(사)한국풍공학회", "category": "other", "outputcat": "용역 서비스", "telephone": "031-658-5406", "longitude": "127.15561024", "latitude": "36.987576293"}, {"name": "(신)가장맛있는족발", "category": "food", "outputcat": "식품/음료", "telephone": "031-658-0008", "longitude": "127.16916124", "latitude": "37.000019882"}, {"name": "(자)비봉관광여행사", "category": "trip", "outputcat": "숙박업", "telephone": "031-676-5945", "longitude": "127.2690417", "latitude": "37.005388532"}, {"name": "(자)효원관광", "category": "trip", "outputcat": "숙박업", "telephone": "031-635-7321"}, {"name": "(재) 천주교수원교구유지재단안성추모공원", "category": "other", "outputcat": "용역 서비스", "telephone": "031-672-4276", "longitude": "127.34694774", "latitude": "37.09798819"}, {"name": "(재)미리내천주성삼성직수도회", "category": "other", "outputcat": "신변잡화", "telephone": "031-674-7302", "longitude": "127.25543222", "latitude": "37.139900921"}, {"name": "(재)아름다운가게안성점", "category": "other", "outputcat": "기타", "telephone": "031-676-0676", "longitude": "127.27353985", "latitude": "37.006549747"}, {"name": "(재)우성공원묘원", "category": "other", "outputcat": "회원제형태", "telephone": "031-672-5008", "longitude": "127.45733012", "latitude": "37.126044544"}, {"name": "(재)천주교수원교구유지재단 안법유치원[아", "category": "edu", "outputcat": "교육", "telephone": "031-627-0703", "longitude": "127.27420759", "latitude": "37.011080583"}, {"name": "(재)천주교수원교구유지재단안성추모공원", "category": "food", "outputcat": "식품/음료", "telephone": "031-672-4276", "longitude": "127.34694774", "latitude": "37.09798819"}, {"name": "(주)", "category": "food", "outputcat": "식품/음료", "telephone": "031-674-0789", "longitude": "127.26612242", "latitude": "37.012441376"}, {"name": "(주) 동광씨앤이", "category": "other", "outputcat": "용역 서비스", "telephone": "02-6455-9917", "latitude": "37.024857311", "longitude": "127.28976495"}, {"name": "(주) 디에이치티", "category": "car", "outputcat": "자동차 정비/주유", "telephone": "031-668-8800", "longitude": "127.22929524", "latitude": "37.051938842"}, {"name": "(주) 백봉중기산업", "category": "other", "outputcat": "기타", "telephone": "031-653-8981", "longitude": "127.1314451", "latitude": "37.038542248"}, {"name": "(주) 삼일정공", "category": "other", "outputcat": "주방용구", "telephone": "031-664-5571", "longitude": "127.13878095", "latitude": "37.048986398"}, {"name": "(주) 신우", "category": "shop", "outputcat": "마트/편의점", "telephone": "031-674-3298", "longitude": "127.24220407", "latitude": "37.103012382"}, {"name": "(주) 씨엔에스테크", "category": "other", "outputcat": "전기제품", "telephone": "031-676-1330", "longitude": "127.27490532", "latitude": "36.957753699"}, {"name": "(주) 안성천문대", "category": "edu", "outputcat": "교육", "telephone": "031-677-2245", "longitude": "127.23377047", "latitude": "36.955642174"}, {"name": "(주) 이지", "category": "other", "outputcat": "건축자재", "telephone": "031-672-2111", "longitude": "127.36286259", "latitude": "37.042823467"}, {"name": "(주)OS에너지 남북대로 주유소", "category": "car", "outputcat": "자동차 정비/주유", "telephone": "031-674-5163", "longitude": "127.21204989", "latitude": "37.092815416"}, {"name": "(주)OS에너지 안성대로주유소", "category": "car", "outputcat": "자동차 정비/주유", "telephone": "031-675-9771", "longitude": "127.23877016", "latitude": "36.931231202"}, {"name": "(주)강산렌터카안성중앙영업소", "category": "trip", "outputcat": "숙박업", "telephone": "031-692-2960", "longitude": "127.15477895", "latitude": "36.998831723"}, {"name": "(주)건화", "category": "food", "outputcat": "식품/음료", "telephone": "031-672-2435", "longitude": "127.49476924", "latitude": "37.07399491"}, {"name": "(주)경기렌트카", "category": "trip", "outputcat": "숙박업", "telephone": "031-651-7708", "longitude": "127.19288499", "latitude": "37.00779654"}, {"name": "(주)경기에너지", "category": "car", "outputcat": "자동차 정비/주유", "telephone": "031-673-0021", "longitude": "127.26978862", "latitude": "36.990861648"}, {"name": "(주)경기전기안전관리", "category": "other", "outputcat": "용역 서비스", "telephone": "031-677-2111", "longitude": "127.26670449", "latitude": "37.011800328"}, {"name": "(주)경인가스", "category": "car", "outputcat": "자동차 정비/주유", "telephone": "031-409-6051", "longitude": "127.32164894", "latitude": "37.092517422"}, {"name": "(주)고려도장기산업", "category": "other", "outputcat": "기타", "telephone": "031-804-8683", "longitude": "127.16041453", "latitude": "37.029577786"}, {"name": "(주)관문주유소", "category": "car", "outputcat": "자동차 정비/주유", "telephone": "031-679-5151", "longitude": "127.28854149", "latitude": "37.016246095"}, {"name": "(주)광천종합식품", "category": "food", "outputcat": "식품/음료", "telephone": "031-675-0191", "longitude": "127.23318279", "latitude": "37.013996617"}, {"name": "(주)굿모닝여행사", "category": "trip", "outputcat": "숙박업", "telephone": "031-677-5400", "longitude": "127.27318189", "latitude": "37.006992085"}, {"name": "(주)금강스틸", "category": "other", "outputcat": "건축자재", "telephone": "031-674-8790", "longitude": "127.22930006", "latitude": "37.045991834"}, {"name": "(주)금수원 식품", "category": "food", "outputcat": "식품/음료", "telephone": "031-671-3701", "longitude": "127.34195406", "latitude": "37.027413854"}, {"name": "(주)기범상사/조흥물대", "category": "other", "outputcat": "별도관리", "telephone": "031-671-0746", "longitude": "127.16074484", "latitude": "37.009970154"}, {"name": "(주)기산/조흥물대", "category": "other", "outputcat": "별도관리", "telephone": "031-674-0787", "longitude": "127.44279921", "latitude": "37.018360629"}, {"name": "(주)나라앤텍", "category": "other", "outputcat": "건축자재", "telephone": "031-8057-2190", "longitude": "127.39900511", "latitude": "37.065243715"}, {"name": "(주)나루예", "category": "other", "outputcat": "레져용품", "longitude": "127.15110629", "latitude": "37.068704856"}, {"name": "(주)나온", "category": "car", "outputcat": "자동차 정비/주유", "telephone": "070-4814-5923", "longitude": "127.30387315", "latitude": "36.980417838"}, {"name": "(주)나이스", "category": "other", "outputcat": "레져용품", "telephone": "031-674-8022", "longitude": "127.51335299", "latitude": "37.088432268"}, {"name": "(주)남안성종합폐차장", "category": "car", "outputcat": "자동차 정비/주유", "telephone": "031-674-5665", "longitude": "127.22457826", "latitude": "36.929672637"}, {"name": "(주)남희종합자동차공업사", "category": "car", "outputcat": "자동차 정비/주유", "telephone": "031-672-3897", "longitude": "127.41433479", "latitude": "37.045215149"}, {"name": "(주)네오티스", "category": "other", "outputcat": "전기제품", "telephone": "031-678-0122", "longitude": "127.4429153", "latitude": "37.015107372"}, {"name": "(주)네토아트", "category": "other", "outputcat": "용역 서비스", "telephone": "031-651-5140", "longitude": "127.20995918", "latitude": "37.014715205"}, {"name": "(주)노바컴파니 서안성주유소", "category": "car", "outputcat": "자동차 정비/주유", "telephone": "031-673-6543", "longitude": "127.31484391", "latitude": "37.015603196"}, {"name": "(주)녹원축산", "category": "food", "outputcat": "식품/음료", "telephone": "031-666-2141", "longitude": "127.1636401", "latitude": "36.997603611"}, {"name": "(주)농산연구소", "category": "other", "outputcat": "농업", "telephone": "02-312-1758", "longitude": "127.42622344", "latitude": "37.06671754"}, {"name": "(주)누리여행사", "category": "trip", "outputcat": "숙박업", "telephone": "031-677-3030", "longitude": "127.27590773", "latitude": "37.005778418"}, {"name": "(주)늘푸른코리아", "category": "other", "outputcat": "용역 서비스", "telephone": "031-675-7202", "longitude": "127.28362726", "latitude": "37.009103365"}, {"name": "(주)다림개발", "category": "other", "outputcat": "레저업소", "telephone": "031-678-9133", "longitude": "127.28970406", "latitude": "36.960782528"}, {"name": "(주)다산중공업", "category": "car", "outputcat": "자동차 정비/주유", "telephone": "031-618-0053", "longitude": "127.14735509", "latitude": "37.03546033"}, {"name": "(주)다산중공업/원격지", "category": "other", "outputcat": "기타", "telephone": "031-618-0053", "longitude": "127.14735509", "latitude": "37.03546033"}, {"name": "(주)다온산업", "category": "other", "outputcat": "기타", "telephone": "031-671-0818", "longitude": "127.25806956", "latitude": "36.942833225"}, {"name": "(주)다해", "category": "med", "outputcat": "의료", "telephone": "031-657-9625", "longitude": "127.20793568", "latitude": "37.010186354"}, {"name": "(주)대광산업", "category": "other", "outputcat": "농업", "telephone": "031-656-2459", "longitude": "127.13149841", "latitude": "37.043489026"}, {"name": "(주)대민롯데리아공도드라이브점", "category": "food", "outputcat": "식품/음료", "telephone": "031-692-3389", "longitude": "127.14055968", "latitude": "36.994352728"}, {"name": "(주)대신소방설비공사", "category": "other", "outputcat": "기타", "telephone": "031-673-0171", "longitude": "127.27599155", "latitude": "37.00408422"}, {"name": "(주)대신식품", "category": "food", "outputcat": "식품/음료", "telephone": "031-674-0084", "longitude": "127.19471643", "latitude": "37.048044131"}, {"name": "(주)대왕레미콘", "category": "other", "outputcat": "기타", "telephone": "031-671-0932", "longitude": "127.20041224", "latitude": "37.064019587"}, {"name": "(주)대웅리싸이클링", "category": "other", "outputcat": "신변잡화", "telephone": "031-675-2350", "longitude": "127.28745084", "latitude": "37.05221008"}, {"name": "(주)대인프린테크", "category": "edu", "outputcat": "교육", "telephone": "031-676-7673", "longitude": "127.25254879", "latitude": "37.019192649"}, {"name": "(주)대일관광여행사", "category": "trip", "outputcat": "숙박업", "telephone": "031-677-2662", "longitude": "127.27073433", "latitude": "37.010692002"}, {"name": "(주)대일특장", "category": "car", "outputcat": "자동차 정비/주유", "telephone": "031-677-0056", "longitude": "127.19013098", "latitude": "36.95683633"}, {"name": "(주)대풍", "category": "other", "outputcat": "건축자재", "telephone": "031-676-8100", "longitude": "127.42777252", "latitude": "37.072298526"}, {"name": "(주)대한멀티팩", "category": "other", "outputcat": "직물", "telephone": "070-7763-8994", "longitude": "127.43754437", "latitude": "37.14514874"}, {"name": "(주)더빅", "category": "shop", "outputcat": "마트/편의점", "telephone": "031-671-6563", "longitude": "127.25857512", "latitude": "37.016801009"}, {"name": "(주)더에이더블유", "category": "food", "outputcat": "식품/음료", "telephone": "031-667-7800", "longitude": "127.24957788", "latitude": "36.996996588"}, {"name": "(주)데코코안성지점", "category": "other", "outputcat": "가구", "telephone": "031-674-8594", "longitude": "127.25954694", "latitude": "36.954895437"}, {"name": "(주)도기파크", "telephone": "031-674-4489", "longitude": "127.24886975", "latitude": "37.111820034"}, {"name": "(주)도드람푸드", "category": "food", "outputcat": "식품/음료", "telephone": "031-786-0231", "longitude": "127.49327414", "latitude": "37.074073184"}, {"name": "(주)도드람푸드", "category": "food", "outputcat": "식품/음료", "telephone": "031-791-0235", "longitude": "127.49327414", "latitude": "37.074073184"}, {"name": "(주)도현레미콘", "category": "other", "outputcat": "건축자재", "telephone": "031-675-5070", "longitude": "127.31959555", "latitude": "37.101821771"}, {"name": "(주)독립문 안성직영점", "category": "other", "outputcat": "레져용품", "telephone": "031-672-8910", "longitude": "127.27065405", "latitude": "37.007024846"}, {"name": "(주)동광인터내셔날/SOUP", "category": "other", "outputcat": "의류", "telephone": "02-3479-2796"}, {"name": "(주)동방", "category": "other", "outputcat": "농업", "telephone": "02-573-5266", "longitude": "127.26276655", "latitude": "37.069603071"}, {"name": "(주)동양레저", "category": "other", "outputcat": "레저업소", "telephone": "031-670-0112", "longitude": "127.23403811", "latitude": "37.103398012"}, {"name": "(주)동원에너지", "category": "car", "outputcat": "자동차 정비/주유", "telephone": "031-691-5080", "longitude": "127.1191061", "latitude": "37.040185899"}, {"name": "(주)두네이처 (Do Nature Co. Ltd)", "category": "other", "outputcat": "신변잡화", "telephone": "031-000-0000", "longitude": "127.35789518", "latitude": "37.064743124"}, {"name": "(주)두레종합건설(지점)", "category": "other", "outputcat": "건축자재", "telephone": "031-674-5979", "longitude": "127.21240556", "latitude": "37.009466706"}, {"name": "(주)두암산업", "category": "car", "outputcat": "자동차 정비/주유", "telephone": "031-671-8182", "longitude": "127.20846703", "latitude": "37.090596077"}, {"name": "(주)두한", "category": "car", "outputcat": "자동차 정비/주유", "telephone": "031-676-2815", "longitude": "127.35350381", "latitude": "37.034048141"}, {"name": "(주)두한", "category": "car", "outputcat": "자동차 정비/주유", "telephone": "031-671-2297", "longitude": "127.31484391", "latitude": "37.015603196"}, {"name": "(주)드림엑스팜(경기교육청)", "category": "food", "outputcat": "식품/음료", "telephone": "031-671-0457", "longitude": "127.49318134", "latitude": "37.073632054"}, {"name": "(주)드림엑스팜(서울교육청)", "category": "food", "outputcat": "식품/음료", "telephone": "031-671-0457", "longitude": "127.49318134", "latitude": "37.073632054"}, {"name": "(주)디지털워터", "category": "other", "outputcat": "기타", "telephone": "031-670-4756", "longitude": "127.23032539", "latitude": "37.005324858"}, {"name": "(주)디핀다트코리아", "category": "food", "outputcat": "식품/음료", "telephone": "02-549-1776", "longitude": "127.26601354", "latitude": "36.971055544"}, {"name": "(주)레드페이스안성물류센타직영점", "category": "other", "outputcat": "레져용품", "telephone": "031-656-0970", "longitude": "127.19085838", "latitude": "37.006078728"}, {"name": "(주)레이크월드", "category": "food", "outputcat": "식품/음료", "telephone": "031-572-2626", "longitude": "127.27801147", "latitude": "37.006548477"}, {"name": "(주)레이크힐스리조트안성", "category": "trip", "outputcat": "숙박업", "telephone": "031-671-2888"}, {"name": "(주)로건에프앤비", "category": "food", "outputcat": "식품/음료", "longitude": "127.35873203", "latitude": "37.058550365"}, {"name": "(주)리싸이클오피스 평택점", "category": "other", "outputcat": "가구", "telephone": "031-348-4186", "longitude": "127.15455827", "latitude": "36.995191685"}, {"name": "(주)만파", "category": "other", "outputcat": "기타", "telephone": "031-676-9212", "longitude": "127.18888204", "latitude": "37.061821619"}, {"name": "(주)메드빌트", "category": "other", "outputcat": "용역 서비스", "telephone": "031-671-6500", "longitude": "127.26918176", "latitude": "37.016552419"}, {"name": "(주)모던탑", "category": "other", "outputcat": "직물", "telephone": "031-671-0037", "longitude": "127.28825739", "latitude": "37.024410414"}, {"name": "(주)미디어안성", "category": "edu", "outputcat": "교육", "telephone": "031-671-2347", "longitude": "127.27676298", "latitude": "37.006163906"}, {"name": "(주)미소푸드", "category": "food", "outputcat": "식품/음료", "telephone": "031-677-8234", "longitude": "127.24748535", "latitude": "36.974996796"}, {"name": "(주)미코", "category": "other", "outputcat": "전기제품", "telephone": "031-8056-5697", "longitude": "127.24546143", "latitude": "37.020216538"}, {"name": "(주)바이더웨이-안성하평플리스점", "category": "shop", "outputcat": "마트/편의점", "telephone": "031-671-0582", "longitude": "127.26782459", "latitude": "37.007553813"}, {"name": "(주)반석에너지", "category": "car", "outputcat": "자동차 정비/주유", "telephone": "031-676-2213", "longitude": "127.26801314", "latitude": "37.016555035"}, {"name": "(주)보림", "category": "car", "outputcat": "자동차 정비/주유", "telephone": "031-678-5600", "longitude": "127.26415281", "latitude": "36.958922205"}, {"name": "(주)비겐의료기", "category": "med", "outputcat": "의료", "telephone": "02-1644-7582", "longitude": "127.17099669", "latitude": "36.99174548"}, {"name": "(주)비에프에스 마에스트로점", "category": "food", "outputcat": "식품/음료", "telephone": "031-8046-1060", "longitude": "127.26420873", "latitude": "37.106480034"}, {"name": "(주)빅바이오젠", "telephone": "031-674-3228", "longitude": "127.41219401", "latitude": "37.052656265"}, {"name": "(주)삼성우드", "category": "other", "outputcat": "건축자재", "telephone": "031-675-3669", "longitude": "127.23979436", "latitude": "37.022714923"}, {"name": "(주)삼영후레쉬", "category": "food", "outputcat": "식품/음료", "telephone": "031-673-7214", "longitude": "127.22748801", "latitude": "36.953554717"}, {"name": "(주)삼원스틸", "category": "other", "outputcat": "기타", "telephone": "031-677-3586", "longitude": "127.2568529", "latitude": "37.012524647"}, {"name": "(주)삼익상공", "category": "other", "outputcat": "건축자재", "telephone": "031-674-0870", "longitude": "127.4498239", "latitude": "37.070406378"}, {"name": "(주)삼일이엔티", "category": "other", "outputcat": "용역 서비스", "telephone": "031-675-1862", "longitude": "127.24082496", "latitude": "36.953141284"}, {"name": "(주)삼일하우징", "category": "other", "outputcat": "건축자재", "telephone": "031-673-5522", "longitude": "127.18175001", "latitude": "36.964337178"}, {"name": "(주)삼진자동차 해체 재활용산업", "category": "car", "outputcat": "자동차 정비/주유", "telephone": "031-671-8421", "longitude": "127.37083961", "latitude": "37.065325409"}, {"name": "(주)삼호에너지보동주유소", "category": "car", "outputcat": "자동차 정비/주유", "telephone": "031-675-9639", "longitude": "17541"}, {"name": "(주)상진폼텍", "category": "other", "outputcat": "가구", "telephone": "031-671-2098", "longitude": "127.29259229", "latitude": "37.062100264"}, {"name": "(주)새한제약", "category": "med", "outputcat": "의료", "telephone": "02-523-4271", "longitude": "127.25451837", "latitude": "37.016719572"}, {"name": "(주)샬롬환경", "category": "other", "outputcat": "용역 서비스", "telephone": "031-405-8381", "longitude": "127.14680586", "latitude": "36.98857847"}, {"name": "(주)서원", "category": "other", "outputcat": "용역 서비스", "telephone": "031-677-9945", "longitude": "127.26804369", "latitude": "37.005940416"}, {"name": "(주)서인메디칼", "category": "med", "outputcat": "의료"}, {"name": "(주)서진이엔지", "category": "other", "outputcat": "용역 서비스", "telephone": "031-692-5633", "longitude": "127.1700217", "latitude": "37.008191362"}, {"name": "(주)서희건설/안성맞춤(충주방향)충전소", "category": "car", "outputcat": "자동차 정비/주유", "telephone": "031-674-8644", "longitude": "127.27532319", "latitude": "36.967889809"}, {"name": "(주)서희건설/안성맞춤(평택방향)충전소", "category": "car", "outputcat": "자동차 정비/주유", "telephone": "031-674-8644", "longitude": "127.27329556", "latitude": "36.969282094"}, {"name": "(주)서희건설안성맞춤(음성방향)주유소", "category": "car", "outputcat": "자동차 정비/주유", "telephone": "031-674-8644", "longitude": "127.27670751", "latitude": "36.968751654"}, {"name": "(주)서희건설안성맞춤(음성방향)휴게소", "category": "food", "outputcat": "식품/음료", "telephone": "031-674-4406", "longitude": "127.27670751", "latitude": "36.968751654"}, {"name": "(주)서희건설안성맞춤(평택방향)주유소", "category": "car", "outputcat": "자동차 정비/주유", "telephone": "031-672-9622", "longitude": "127.27595641", "latitude": "36.969113812"}, {"name": "(주)서희건설안성맞춤(평택방향)휴게소", "category": "food", "outputcat": "식품/음료", "telephone": "031-673-3822", "longitude": "127.27595641", "latitude": "36.969113812"}, {"name": "(주)선인특수여객", "category": "other", "outputcat": "용역 서비스", "telephone": "031-676-0022", "longitude": "127.28595584", "latitude": "37.003799568"}, {"name": "(주)성도기계공구", "category": "other", "outputcat": "기타", "telephone": "031-677-1196", "longitude": "127.26213257", "latitude": "36.969108754"}, {"name": "(주)성림가스", "category": "car", "outputcat": "자동차 정비/주유", "telephone": "031-653-6886", "longitude": "127.1191061", "latitude": "37.040185899"}, {"name": "(주)성보엔지니어링", "category": "other", "outputcat": "용역 서비스", "telephone": "031-677-0336", "longitude": "127.2781761", "latitude": "37.005466816"}, {"name": "(주)성창에어텍", "category": "car", "outputcat": "자동차 정비/주유", "telephone": "031-650-5400", "longitude": "127.11935672", "latitude": "37.042375236"}, {"name": "(주)세종광유두꺼비주유소", "category": "car", "outputcat": "자동차 정비/주유", "telephone": "031-671-1070", "longitude": "127.26468153", "latitude": "36.982168691"}, {"name": "(주)세종라이팅", "category": "other", "outputcat": "건축자재", "telephone": "031-671-5060", "longitude": "127.23059586", "latitude": "37.013136585"}, {"name": "(주)세창에스엠씨", "category": "other", "outputcat": "건축자재", "longitude": "127.24015581", "latitude": "36.950971032"}, {"name": "(주)세훈SOS", "category": "other", "outputcat": "건축자재", "telephone": "031-671-2305", "longitude": "127.28218235", "latitude": "37.004186954"}, {"name": "(주)소모에너지엔테크놀러지 칠곡주유소", "category": "car", "outputcat": "자동차 정비/주유", "telephone": "031-618-1325", "longitude": "127.15688337", "latitude": "37.045179825"}, {"name": "(주)소모에너지엔테크놀러지 칠곡주유소", "category": "car", "outputcat": "자동차 정비/주유", "telephone": "031-618-1325", "longitude": "127.15688337", "latitude": "37.045179825"}, {"name": "(주)소모홀딩스엔테크놀러지칠곡주유소", "category": "car", "outputcat": "자동차 정비/주유", "telephone": "031-618-1325", "longitude": "17555"}, {"name": "(주)소모홀딩스칠곡주유소", "category": "car", "outputcat": "자동차 정비/주유", "telephone": "031-618-1325", "longitude": "17555"}, {"name": "(주)스마트황토가마/참숯바베큐", "category": "food", "outputcat": "식품/음료", "telephone": "031-655-6321", "latitude": "36.993130499", "longitude": "127.13774915"}, {"name": "(주)스포터프", "category": "other", "outputcat": "기타", "telephone": "031-498-3343", "longitude": "127.31203236", "latitude": "37.042741521"}, {"name": "(주)시그너스잡", "category": "other", "outputcat": "용역 서비스", "telephone": "031-671-7282", "longitude": "127.26837878", "latitude": "36.998911346"}, {"name": "(주)시민에너지", "category": "car", "outputcat": "자동차 정비/주유", "telephone": "031-671-3311", "longitude": "127.318644", "latitude": "37.021549175"}, {"name": "(주)신동서건업", "category": "other", "outputcat": "건축자재", "telephone": "031-676-8812", "longitude": "127.41038273", "latitude": "37.058717589"}, {"name": "(주)신상사", "category": "other", "outputcat": "기타", "telephone": "031-677-0130", "longitude": "127.24315384", "latitude": "36.993973164"}, {"name": "(주)신성로지스틱", "category": "other", "outputcat": "용역 서비스", "telephone": "031-667-4520", "longitude": "127.16488563", "latitude": "37.04985469"}, {"name": "(주)신세계관광항공여행사", "category": "trip", "outputcat": "숙박업", "telephone": "031-677-5115", "longitude": "127.27551685", "latitude": "37.006437094"}, {"name": "(주)신세계팜마트", "category": "other", "outputcat": "기타", "telephone": "031-674-9804", "longitude": "127.29142668", "latitude": "37.003660246"}, {"name": "(주)신세계푸드퍼시스", "category": "food", "outputcat": "식품/음료", "telephone": "02-3397-6176", "longitude": "127.17672228", "latitude": "37.005109097"}, {"name": "(주)신아폐차산업", "category": "other", "outputcat": "신변잡화", "telephone": "031-677-4981", "longitude": "127.37366854", "latitude": "37.087491514"}, {"name": "(주)신양안성제2공장", "category": "shop", "outputcat": "마트/편의점", "telephone": "031-652-3508", "longitude": "127.15466561", "latitude": "37.009635678"}, {"name": "(주)신영냉기", "category": "other", "outputcat": "전기제품", "telephone": "031-668-8162", "longitude": "127.15121717", "latitude": "37.039014765"}, {"name": "(주)신원포장", "category": "shop", "outputcat": "마트/편의점", "telephone": "031-653-5405", "longitude": "127.1752141", "latitude": "37.023826447"}, {"name": "(주)신화아이푸드안성", "category": "trip", "outputcat": "숙박업", "telephone": "031-672-1066", "longitude": "127.2549322", "latitude": "37.10450879"}, {"name": "(주)쌍용환경산업", "category": "other", "outputcat": "기타", "telephone": "031-671-3062", "longitude": "127.24351716", "latitude": "37.002325327"}, {"name": "(주)썬푸드시스템", "category": "food", "outputcat": "식품/음료", "telephone": "031-671-0063", "longitude": "127.28557137", "latitude": "37.018298622"}, {"name": "(주)쓰리씨라이팅인더스", "category": "other", "outputcat": "건축자재", "telephone": "031-653-6123", "longitude": "127.16313323", "latitude": "37.013021571"}, {"name": "(주)씨아이에스인터내셔날", "category": "other", "outputcat": "전기제품", "telephone": "031-673-3380", "longitude": "127.43379772", "latitude": "37.125564752"}, {"name": "(주)씨엔씨네트윅스", "category": "car", "outputcat": "자동차 정비/주유", "longitude": "127.26978862", "latitude": "36.990861648"}, {"name": "(주)아람푸드", "category": "food", "outputcat": "식품/음료", "telephone": "031-654-0955", "longitude": "127.18907301", "latitude": "37.015713947"}, {"name": "(주)아시아엠이", "category": "med", "outputcat": "의료", "telephone": "031-677-7322", "longitude": "127.25782573", "latitude": "36.970721987"}, {"name": "(주)아워홈 두원공과대학교안성점", "category": "food", "outputcat": "식품/음료", "telephone": "02-6966-9049", "longitude": "127.41907857", "latitude": "37.065823748"}, {"name": "(주)아워홈 무진전자안성점", "category": "food", "outputcat": "식품/음료", "telephone": "02-6966-9049", "longitude": "127.2508209", "latitude": "36.957698294"}, {"name": "(주)아워홈LS미래원점", "category": "food", "outputcat": "식품/음료", "telephone": "031-8046-3055", "longitude": "127.2779304", "latitude": "36.955944585"}, {"name": "(주)아워홈동아방송예술대안성점", "category": "food", "outputcat": "식품/음료", "telephone": "070-4325-5762", "longitude": "127.35873203", "latitude": "37.058550365"}, {"name": "(주)아워홈동아방송예술대안성점", "category": "food", "outputcat": "식품/음료", "telephone": "031-670-6530", "longitude": "127.35873203", "latitude": "37.058550365"}, {"name": "(주)아이썸", "category": "med", "outputcat": "의료", "telephone": "031-651-7007", "longitude": "127.16766074", "latitude": "37.017908163"}, {"name": "(주)아인컴퍼니", "category": "food", "outputcat": "식품/음료", "telephone": "031-0000-0000", "longitude": "127.20568967", "latitude": "37.082455321"}, {"name": "(주)안성건축사사무소", "category": "other", "outputcat": "용역 서비스", "telephone": "031-675-4513", "longitude": "127.27970599", "latitude": "37.005994887"}, {"name": "(주)안성롯데", "category": "food", "outputcat": "식품/음료", "telephone": "031-677-8880", "longitude": "127.22387499", "latitude": "37.012581617"}, {"name": "(주)안성맞춤에프씨", "category": "edu", "outputcat": "교육", "telephone": "031-674-7022", "longitude": "127.32581097", "latitude": "37.010329672"}, {"name": "(주)안성모바일통신", "category": "other", "outputcat": "사무통신", "telephone": "031-677-7019", "longitude": "127.26990507", "latitude": "37.008107812"}, {"name": "(주)안성미트", "category": "food", "outputcat": "식품/음료", "telephone": "031-675-9876", "longitude": "127.27548101", "latitude": "37.012131911"}, {"name": "(주)안성정상어학원", "category": "other", "outputcat": "회원제형태", "telephone": "031-673-0579", "latitude": "37.00794437", "longitude": "127.26643275"}, {"name": "(주)안성종로기숙학원", "category": "other", "outputcat": "회원제형태", "telephone": "031-672-6700", "longitude": "127.4821261", "latitude": "37.07163185"}, {"name": "(주)안성종합폐차장", "category": "car", "outputcat": "자동차 정비/주유", "telephone": "031-653-0047", "longitude": "127.18438189", "latitude": "37.003971298"}, {"name": "(주)안성지하수", "category": "other", "outputcat": "용역 서비스", "telephone": "031-675-4815", "longitude": "127.26832518", "latitude": "37.002885171"}, {"name": "(주)안성축산맛있는고기", "category": "food", "outputcat": "식품/음료", "telephone": "031-674-7383", "longitude": "127.33542374", "latitude": "37.027216078"}, {"name": "(주)안성탑클래스본원", "category": "other", "outputcat": "회원제형태", "telephone": "031-677-7120", "longitude": "127.40527845", "latitude": "37.045940021"}, {"name": "(주)안성테라죠", "category": "other", "outputcat": "건축자재", "telephone": "031-675-9909", "longitude": "127.44210273", "latitude": "37.069128693"}, {"name": "(주)알파에이엔티", "category": "other", "outputcat": "기타", "telephone": "031-651-2714", "longitude": "127.16599605", "latitude": "37.053934974"}, {"name": "(주)애드플러스", "category": "other", "outputcat": "용역 서비스", "telephone": "031-650-9011", "longitude": "127.20418652", "latitude": "37.066905639"}, {"name": "(주)애플디아이 안성아양", "category": "food", "outputcat": "식품/음료", "telephone": "031-672-6007"}, {"name": "(주)앤맥스", "category": "car", "outputcat": "자동차 정비/주유", "telephone": "031-677-5183", "longitude": "127.290321", "latitude": "37.062069746"}, {"name": "(주)양지조경산업", "telephone": "031-671-6077", "longitude": "127.33003255", "latitude": "37.022716742"}, {"name": "(주)에덴광고건설", "category": "other", "outputcat": "건축자재", "telephone": "031-675-0010", "longitude": "127.27831985", "latitude": "37.004826726"}, {"name": "(주)에스제이글로벌", "category": "other", "outputcat": "기타", "telephone": "02-499-1755", "longitude": "127.49688255", "latitude": "37.070408961"}, {"name": "(주)에이스렌터카", "category": "trip", "outputcat": "숙박업", "telephone": "070-4239-6794", "longitude": "127.24060153", "latitude": "37.011269783"}, {"name": "(주)에이스쿨러", "category": "other", "outputcat": "전기제품", "telephone": "031-8057-2166", "longitude": "127.49196127", "latitude": "37.107768748"}, {"name": "(주)에이치나이키", "category": "other", "outputcat": "레져용품", "telephone": "031-675-0008", "longitude": "127.27184432", "latitude": "37.006832931"}, {"name": "(주)에이치디씨", "telephone": "031-675-9967", "longitude": "127.42794747", "latitude": "37.067378154"}, {"name": "(주)에이치에스시스템즈", "category": "edu", "outputcat": "교육", "telephone": "02-1833-7571", "longitude": "127.26504449", "latitude": "37.074770121"}, {"name": "(주)에이치티에스/원격지", "category": "other", "outputcat": "기타", "telephone": "031-672-0323", "longitude": "127.22616015", "latitude": "36.933282998"}, {"name": "(주)에이피에스케미칼", "category": "other", "outputcat": "기타", "telephone": "031-454-8161", "longitude": "127.37827787", "latitude": "37.080241569"}, {"name": "(주)에코원", "category": "other", "outputcat": "용역 서비스", "telephone": "031-671-0056", "longitude": "127.26818078", "latitude": "36.987188891"}, {"name": "(주)엑스피바이오", "category": "food", "outputcat": "식품/음료", "telephone": "031-674-2299", "longitude": "17526"}, {"name": "(주)엔타스푸드시스템", "category": "other", "outputcat": "신변잡화", "telephone": "02-486-0222", "longitude": "127.1532203", "latitude": "37.085822282"}, {"name": "(주)엘.케이정밀/원격지", "category": "other", "outputcat": "기타", "telephone": "031-673-0750", "longitude": "127.20982052", "latitude": "37.071293107"}, {"name": "(주)엘렉시스", "category": "other", "outputcat": "기타", "telephone": "031-671-5060", "longitude": "127.37844176", "latitude": "37.079267914"}, {"name": "(주)엘지생활건강/보떼안성점", "category": "med", "outputcat": "의료", "telephone": "031-675-2716", "longitude": "127.27150872", "latitude": "37.007248181"}, {"name": "(주)엠에이엔지니어링", "category": "other", "outputcat": "용역 서비스", "telephone": "031-675-1244", "longitude": "127.27887609", "latitude": "37.00641131"}, {"name": "(주)엠엔비물산/안성지점", "telephone": "070-8869-4286", "longitude": "127.19696628", "latitude": "37.008907261"}, {"name": "(주)연합유리", "category": "other", "outputcat": "건축자재", "telephone": "031-692-9980", "longitude": "127.11830138", "latitude": "37.043214256"}, {"name": "(주)영풍안성상휴게소", "category": "food", "outputcat": "식품/음료", "telephone": "031-611-5793", "longitude": "127.13280175", "latitude": "37.076124001"}, {"name": "(주)영화안성미곡", "category": "food", "outputcat": "식품/음료", "telephone": "031-676-3920", "longitude": "127.41149519", "latitude": "37.066994448"}, {"name": "(주)오이에스", "category": "other", "outputcat": "회원제형태", "telephone": "031-672-0505", "longitude": "127.26893494", "latitude": "37.010218485"}, {"name": "(주)오주포장", "category": "shop", "outputcat": "마트/편의점", "telephone": "031-677-5391", "longitude": "127.25137756", "latitude": "36.970059852"}, {"name": "(주)오피스플러스/무이자", "category": "edu", "outputcat": "교육", "telephone": "02-514-4706", "longitude": "127.43452566", "latitude": "37.099179489"}, {"name": "(주)오피스플러스/무이자수기", "category": "edu", "outputcat": "교육", "telephone": "02-514-4706", "longitude": "127.43452566", "latitude": "37.099179489"}, {"name": "(주)옥산에너지", "category": "car", "outputcat": "자동차 정비/주유", "telephone": "031-676-0620", "longitude": "127.25940666", "latitude": "37.023494122"}, {"name": "(주)와이엔케이헬스케어", "category": "med", "outputcat": "의료", "telephone": "031-671-2795"}, {"name": "(주)와이케이내쇼날", "category": "other", "outputcat": "신변잡화", "telephone": "02-917-1277", "longitude": "127.41221993", "latitude": "37.053295925"}, {"name": "(주)우리식품", "category": "food", "outputcat": "식품/음료", "telephone": "031-676-4442", "longitude": "127.2613796", "latitude": "37.048575401"}, {"name": "(주)우리유리", "category": "other", "outputcat": "건축자재", "telephone": "02-402-9996", "longitude": "17528"}, {"name": "(주)우산산업", "category": "other", "outputcat": "농업", "telephone": "031-618-1900", "longitude": "127.20149722", "latitude": "37.010053132"}, {"name": "(주)우일테크노컬쳐", "category": "other", "outputcat": "용역 서비스", "telephone": "031-8057-2115", "longitude": "127.23099104", "latitude": "37.002494229"}, {"name": "(주)우정고속관광여행사", "category": "trip", "outputcat": "숙박업", "telephone": "031-674-4456", "longitude": "127.269371", "latitude": "37.006387977"}, {"name": "(주)우진에너지", "category": "car", "outputcat": "자동차 정비/주유", "telephone": "031-677-1271", "longitude": "127.25479219", "latitude": "36.973692987"}, {"name": "(주)우진에너지", "category": "car", "outputcat": "자동차 정비/주유", "telephone": "031-677-1271", "longitude": "127.25479219", "latitude": "36.973692987"}, {"name": "(주)윈.인터내셔널", "category": "other", "outputcat": "농업", "telephone": "031-663-7490", "longitude": "127.18502175", "latitude": "37.064936262"}, {"name": "(주)유동", "category": "car", "outputcat": "자동차 정비/주유", "telephone": "031-674-2683", "longitude": "127.26395724", "latitude": "37.016717207"}, {"name": "(주)유림", "category": "car", "outputcat": "자동차 정비/주유", "telephone": "031-672-0964"}, {"name": "(주)유명", "category": "food", "outputcat": "식품/음료", "telephone": "031-676-0095", "longitude": "127.2651777", "latitude": "37.031798319"}, {"name": "(주)은준", "category": "other", "outputcat": "농업", "telephone": "031-652-0361", "longitude": "127.16499706", "latitude": "37.017659532"}, {"name": "(주)이레", "category": "other", "outputcat": "건축자재", "telephone": "031-671-4800", "longitude": "127.27332614", "latitude": "36.974751527"}, {"name": "(주)이봉우건축사사무소", "category": "other", "outputcat": "용역 서비스", "telephone": "031-675-9700", "longitude": "127.27912066", "latitude": "37.005689888"}, {"name": "(주)이앤더블유(E&W)", "category": "other", "outputcat": "신변잡화", "telephone": "031-672-3875", "longitude": "127.31947672", "latitude": "37.038072423"}, {"name": "(주)이엘에스/양변LPG충전소", "category": "car", "outputcat": "자동차 정비/주유", "telephone": "031-673-5179", "longitude": "127.24454686", "latitude": "36.951367662"}, {"name": "(주)이엘에스/휴게편의점", "category": "shop", "outputcat": "마트/편의점", "telephone": "031-673-5179", "longitude": "127.24454686", "latitude": "36.951367662"}, {"name": "(주)이엘에스양변주유소", "category": "car", "outputcat": "자동차 정비/주유", "telephone": "031-673-5179", "longitude": "127.24454686", "latitude": "36.951367662"}, {"name": "(주)이지바이오텍", "category": "other", "outputcat": "농업", "telephone": "031-671-5806", "longitude": "127.26349104", "latitude": "36.972304585"}, {"name": "(주)이지식품", "category": "food", "outputcat": "식품/음료", "telephone": "031-654-0225", "longitude": "127.1901364", "latitude": "37.014045301"}, {"name": "(주)인벤티오", "category": "food", "outputcat": "식품/음료", "telephone": "031-366-4818", "longitude": "127.23945824", "latitude": "37.04116035"}, {"name": "(주)인쏠/원격지", "category": "other", "outputcat": "기타", "telephone": "031-676-6767", "longitude": "127.20557667", "latitude": "37.061127487"}, {"name": "(주)인터텍스", "category": "other", "outputcat": "기타", "telephone": "031-651-8535", "longitude": "127.1702463", "latitude": "36.98763766"}, {"name": "(주)인터파크큐브릿지", "category": "shop", "outputcat": "마트/편의점", "telephone": "031-514-4706", "longitude": "127.43452566", "latitude": "37.099179489"}, {"name": "(주)인터파크큐브릿지", "category": "edu", "outputcat": "교육", "telephone": "031-514-4706", "longitude": "127.42930649", "latitude": "37.032943955"}, {"name": "(주)인터파크큐브릿지", "category": "edu", "outputcat": "교육", "telephone": "02-514-4706", "longitude": "127.42930649", "latitude": "37.032943955"}, {"name": "(주)일등공구", "category": "other", "outputcat": "기타", "telephone": "070-7760-0909", "longitude": "127.30297991", "latitude": "37.001775405"}, {"name": "(주)잠언의료기", "category": "med", "outputcat": "의료", "telephone": "031-671-7600", "longitude": "127.44160988", "latitude": "37.01280549"}, {"name": "(주)전통한방제형연구소", "category": "food", "outputcat": "식품/음료", "telephone": "031-651-7975", "longitude": "127.20193548", "latitude": "37.014386527"}, {"name": "(주)정안에스이디", "category": "other", "outputcat": "전기제품", "telephone": "031-676-8611", "longitude": "127.29020273", "latitude": "37.066485211"}, {"name": "(주)제닉스팜", "category": "other", "outputcat": "기타"}, {"name": "(주)제우베르디나", "category": "other", "outputcat": "가구", "telephone": "031-674-0663", "longitude": "127.41558484", "latitude": "37.118259003"}, {"name": "(주)제이비솔루션", "category": "med", "outputcat": "의료", "telephone": "031-677-9811", "longitude": "127.24623513", "latitude": "36.970331813"}, {"name": "(주)제이씨가스", "category": "car", "outputcat": "자동차 정비/주유", "telephone": "031-692-4014", "longitude": "127.1191061", "latitude": "37.040185899"}, {"name": "(주)제이에스건설", "category": "other", "outputcat": "건축자재", "telephone": "031-691-0160", "longitude": "17556"}, {"name": "(주)제이에스건설", "category": "other", "outputcat": "회원제형태", "telephone": "031-691-0830", "longitude": "127.13085812", "latitude": "37.037047117"}, {"name": "(주)제이제이", "category": "food", "outputcat": "식품/음료", "telephone": "031-676-5500", "longitude": "127.28557137", "latitude": "37.018298622"}, {"name": "(주)제일광고", "category": "other", "outputcat": "용역 서비스", "telephone": "031-677-0101", "longitude": "127.27468625", "latitude": "37.006664266"}, {"name": "(주)제일모빌", "category": "car", "outputcat": "자동차 정비/주유", "telephone": "031-672-9199", "longitude": "127.46685417", "latitude": "37.087992552"}, {"name": "(주)제일벽지", "category": "other", "outputcat": "직물", "telephone": "031-8057-3030", "longitude": "127.44105558", "latitude": "37.014114075"}, {"name": "(주)존쿡", "category": "food", "outputcat": "식품/음료", "telephone": "02-2140-9042", "latitude": "37.070209922", "longitude": "127.37058209"}, {"name": "(주)지앤비에스엔지니어링", "category": "other", "outputcat": "기타", "telephone": "031-658-6275", "longitude": "17543"}, {"name": "(주)지앤비에스엔지니어링/원격지", "category": "other", "outputcat": "기타", "telephone": "031-698-3010", "longitude": "127.23642773", "latitude": "37.053600988"}, {"name": "(주)지에이치티", "category": "other", "outputcat": "전기제품", "longitude": "127.15504681", "latitude": "37.076818398"}, {"name": "(주)지오미트", "category": "food", "outputcat": "식품/음료", "telephone": "031-674-1951", "longitude": "127.37175118", "latitude": "37.065493778"}, {"name": "(주)진성아스타", "category": "other", "outputcat": "사무통신", "telephone": "031-652-8225", "longitude": "127.1668625", "latitude": "37.017711034"}, {"name": "(주)진성에너지 안성맞춤 LPG충전소", "category": "car", "outputcat": "자동차 정비/주유", "telephone": "031-671-5100", "longitude": "127.26529573", "latitude": "37.023634427"}, {"name": "(주)진우", "category": "other", "outputcat": "건축자재", "telephone": "031-677-6830", "longitude": "127.27315756", "latitude": "36.996945246"}, {"name": "(주)진행지앤텍", "category": "other", "outputcat": "주방용구", "telephone": "02-3488-8000", "longitude": "127.24554395", "latitude": "37.024964977"}, {"name": "(주)참맛", "category": "food", "outputcat": "식품/음료", "telephone": "031-463-1138", "longitude": "127.19160706", "latitude": "37.013520354"}, {"name": "(주)창진산장휴게소", "category": "food", "outputcat": "식품/음료", "telephone": "031-674-7676", "longitude": "127.17557812", "latitude": "37.060517173"}, {"name": "(주)청담코디센 안성점", "category": "other", "outputcat": "직물", "longitude": "127.26146503", "latitude": "37.010775632"}, {"name": "(주)청미바이오", "category": "other", "outputcat": "농업", "telephone": "031-674-8130", "longitude": "127.48840925", "latitude": "37.092375465"}, {"name": "(주)청양엘피지이화충전소", "category": "car", "outputcat": "자동차 정비/주유", "telephone": "031-674-9997", "longitude": "127.34005871", "latitude": "37.028302295"}, {"name": "(주)친절한에너지", "category": "car", "outputcat": "자동차 정비/주유", "telephone": "031-675-5104", "longitude": "127.26529573", "latitude": "37.023634427"}, {"name": "(주)카블스톤에듀케이션(지점)", "category": "edu", "outputcat": "교육", "telephone": "031-1577-3515", "longitude": "127.26709707", "latitude": "37.008357384"}, {"name": "(주)커리어개발연구소", "category": "edu", "outputcat": "교육", "longitude": "127.15224833", "latitude": "36.997330149"}, {"name": "(주)케이.엠", "category": "other", "outputcat": "농업", "telephone": "031-674-2980", "longitude": "127.43191375", "latitude": "37.120732978"}, {"name": "(주)케이바이오스", "category": "other", "outputcat": "농업", "telephone": "031-618-9019", "longitude": "127.23099104", "latitude": "37.002494229"}, {"name": "(주)케이엘코퍼레이션", "category": "other", "outputcat": "기타", "telephone": "031-673-4310", "longitude": "127.26999238", "latitude": "36.975245652"}, {"name": "(주)케이엘페트로", "category": "car", "outputcat": "자동차 정비/주유", "telephone": "031-674-6902", "longitude": "127.21068371", "latitude": "37.082680951"}, {"name": "(주)케이엠지", "category": "other", "outputcat": "의류", "telephone": "031-674-0188", "longitude": "127.23979316", "latitude": "37.022327468"}, {"name": "(주)케이탑패널(K-TOP PANEL CO.,LTD)", "category": "other", "outputcat": "건축자재", "telephone": "031-674-0091", "longitude": "127.1907753", "latitude": "37.027100729"}, {"name": "(주)코럽시스템", "category": "other", "outputcat": "사무통신", "telephone": "031-675-9994", "longitude": "127.28967503", "latitude": "37.015882935"}, {"name": "(주)코리아세븐안성2호점/473호점", "category": "shop", "outputcat": "마트/편의점", "telephone": "031-676-3456", "longitude": "127.27259648", "latitude": "37.006660022"}, {"name": "(주)코리아세븐안성공도중앙점", "category": "shop", "outputcat": "마트/편의점", "telephone": "02-3284-8185"}, {"name": "(주)코리아세븐안성점/412호점", "category": "shop", "outputcat": "마트/편의점", "telephone": "031-675-7138", "longitude": "127.26839875", "latitude": "37.007885925"}, {"name": "(주)코리아세븐안성중대점/953호점", "category": "shop", "outputcat": "마트/편의점", "telephone": "031-675-9633", "longitude": "127.22646143", "latitude": "37.001800014"}, {"name": "(주)코멕스카본", "category": "other", "outputcat": "기타", "telephone": "031-671-7964", "longitude": "127.24782077", "latitude": "36.957001682"}, {"name": "(주)코미코", "category": "other", "outputcat": "전기제품", "telephone": "031-8056-5800", "longitude": "127.24726091", "latitude": "37.020690411"}, {"name": "(주)코코썬루프", "category": "car", "outputcat": "자동차 정비/주유", "telephone": "031-677-8885", "longitude": "127.25243856", "latitude": "36.961389308"}, {"name": "(주)코티지", "category": "other", "outputcat": "가구", "telephone": "031-618-7121", "longitude": "127.14305527", "latitude": "36.995304942"}, {"name": "(주)큐맥스", "category": "other", "outputcat": "건축자재", "telephone": "031-671-5555", "longitude": "127.26923481", "latitude": "36.970552773"}, {"name": "(주)큐브릿지/원격지", "category": "other", "outputcat": "기타", "telephone": "02-514-4706", "longitude": "127.42930649", "latitude": "37.032943955"}, {"name": "(주)키친탑", "category": "other", "outputcat": "주방용구", "telephone": "031-653-5800", "longitude": "127.13510535", "latitude": "37.055685436"}, {"name": "(주)타카쇼", "category": "other", "outputcat": "건축자재", "telephone": "031-674-6150", "longitude": "127.19315342", "latitude": "37.0703749"}, {"name": "(주)태광종합건축사사무소", "category": "other", "outputcat": "용역 서비스", "telephone": "031-673-7733", "longitude": "127.27887267", "latitude": "37.005465199"}, {"name": "(주)태성건기", "category": "other", "outputcat": "기타", "telephone": "031-671-6664", "longitude": "127.28023039", "latitude": "37.063715668"}, {"name": "(주)태성디앤에스", "category": "other", "outputcat": "용역 서비스", "telephone": "031-655-0616", "longitude": "127.20635087", "latitude": "37.014189816"}, {"name": "(주)테라텍", "category": "other", "outputcat": "전기제품", "telephone": "070-8685-5807", "longitude": "127.15789197", "latitude": "37.004936945"}, {"name": "(주)트럼프모터스", "category": "other", "outputcat": "레져용품", "telephone": "031-673-0017", "longitude": "127.23863265", "latitude": "37.050433908"}, {"name": "(주)트윈세이버", "category": "other", "outputcat": "직물", "telephone": "031-678-6600", "longitude": "127.25721127", "latitude": "36.951422315"}, {"name": "(주)트윈세이버", "category": "other", "outputcat": "기타", "telephone": "031-678-6631", "longitude": "127.25721127", "latitude": "36.951422315"}, {"name": "(주)트윈세이버/신세계구매", "category": "other", "outputcat": "기타", "telephone": "02-3461-6651", "longitude": "127.25721127", "latitude": "36.951422315"}, {"name": "(주)티와이 태양주유소", "category": "trip", "outputcat": "숙박업", "telephone": "02-1899-3877", "longitude": "127.36938934", "latitude": "37.060689465"}, {"name": "(주)티와이태양주유소", "category": "car", "outputcat": "자동차 정비/주유", "telephone": "031-672-5282", "longitude": "127.36938934", "latitude": "37.060689465"}, {"name": "(주)티케이테크", "category": "other", "outputcat": "전기제품", "telephone": "070-4258-7188", "longitude": "127.19991382", "latitude": "37.036493012"}, {"name": "(주)티켓팩토리", "category": "other", "outputcat": "회원제형태", "telephone": "070-7010-3931", "longitude": "127.32825753", "latitude": "37.007025095"}, {"name": "(주)파인코리아", "category": "car", "outputcat": "자동차 정비/주유", "telephone": "031-651-4978", "longitude": "127.18024822", "latitude": "37.004301931"}, {"name": "(주)판라다푸드", "category": "food", "outputcat": "식품/음료", "longitude": "127.24432273", "latitude": "36.958612757"}, {"name": "(주)팜스코", "category": "food", "outputcat": "식품/음료", "longitude": "127.25604227", "latitude": "36.97814162"}, {"name": "(주)팜스코", "category": "food", "outputcat": "식품/음료", "telephone": "031-720-7177", "longitude": "127.25604227", "latitude": "36.97814162"}, {"name": "(주)페이펀", "category": "other", "outputcat": "회원제형태", "telephone": "031-1661-3262", "longitude": "127.27059606", "latitude": "37.003303573"}, {"name": "(주)편백코리아", "category": "other", "outputcat": "가구", "telephone": "031-335-5852", "longitude": "127.19846177", "latitude": "37.009355339"}, {"name": "(주)평택안성자동차운전전문학원", "category": "edu", "outputcat": "교육", "telephone": "031-655-6525", "longitude": "127.18785426", "latitude": "36.999658832"}, {"name": "(주)포트론", "category": "other", "outputcat": "기타", "telephone": "031-651-2870", "longitude": "127.18394445", "latitude": "36.994799087"}, {"name": "(주)풋마트코리아안성점", "category": "other", "outputcat": "레져용품", "telephone": "070-7162-2558", "longitude": "127.27078888", "latitude": "37.007024542"}, {"name": "(주)풍년농약", "category": "other", "outputcat": "농업", "telephone": "031-675-5873"}, {"name": "(주)퓨어토피아", "category": "other", "outputcat": "기타", "telephone": "070-4726-3080", "longitude": "127.24010145", "latitude": "36.958783457"}, {"name": "(주)피브이트로닉스", "category": "other", "outputcat": "기타", "telephone": "031-654-2240", "longitude": "127.14136388", "latitude": "36.985611408"}, {"name": "(주)피와이언홀딩스위테크매점", "category": "shop", "outputcat": "마트/편의점", "telephone": "031-677-9993", "longitude": "127.25876168", "latitude": "36.978586326"}, {"name": "(주)필앤유 오케이주유소", "category": "car", "outputcat": "자동차 정비/주유", "telephone": "031-677-6527", "longitude": "127.26895613", "latitude": "36.987277263"}, {"name": "(주)하나기공", "category": "other", "outputcat": "기타", "telephone": "031-677-5114", "longitude": "127.24180019", "latitude": "36.952643735"}, {"name": "(주)하나유통", "category": "food", "outputcat": "식품/음료", "telephone": "031-691-1726", "longitude": "127.19749508", "latitude": "36.995967058"}, {"name": "(주)하람/금석주유소안성지점", "category": "car", "outputcat": "자동차 정비/주유", "telephone": "031-677-8100", "longitude": "127.26239848", "latitude": "37.030858314"}, {"name": "(주)하이트론씨스템즈", "category": "other", "outputcat": "사무통신", "telephone": "031-670-9117"}, {"name": "(주)한국리더십센터", "category": "edu", "outputcat": "교육", "telephone": "02-2106-4179", "longitude": "127.28245805", "latitude": "37.03958008"}, {"name": "(주)한국양돈센타", "category": "med", "outputcat": "의료", "telephone": "031-674-4280", "longitude": "127.25307113", "latitude": "37.013992404"}, {"name": "(주)한국청소년리더십센터", "category": "other", "outputcat": "용역 서비스", "telephone": "02-2106-4179", "longitude": "127.28245805", "latitude": "37.03958008"}, {"name": "(주)한미코퍼레이션", "category": "food", "outputcat": "식품/음료", "longitude": "127.2215201", "latitude": "36.963198339"}, {"name": "(주)한신관광", "category": "trip", "outputcat": "숙박업", "telephone": "031-674-5000", "longitude": "17592"}, {"name": "(주)한양케미칼", "category": "other", "outputcat": "용역 서비스"}, {"name": "(주)한얼", "category": "other", "outputcat": "농업", "telephone": "031-674-0541", "longitude": "127.22488361", "latitude": "37.034854045"}, {"name": "(주)한일", "category": "other", "outputcat": "레저업소", "telephone": "031-674-9117", "longitude": "127.40566264", "latitude": "37.044190667"}, {"name": "(주)한일전기", "category": "other", "outputcat": "전기제품", "telephone": "031-674-8807", "longitude": "127.26948535", "latitude": "36.997304966"}, {"name": "(주)한창엔프라/원격지", "category": "other", "outputcat": "기타", "telephone": "031-675-7661", "longitude": "127.23598992", "latitude": "37.020713083"}, {"name": "(주)한화조경건설", "category": "other", "outputcat": "건축자재", "telephone": "031-675-2136"}, {"name": "(주)해정관광", "category": "trip", "outputcat": "숙박업", "telephone": "031-675-7550", "longitude": "127.26751181", "latitude": "37.008077129"}, {"name": "(주)해피앤푸드", "category": "food", "outputcat": "식품/음료", "telephone": "031-674-0067", "longitude": "127.23756967", "latitude": "36.989938534"}, {"name": "(주)햇빛", "category": "food", "outputcat": "식품/음료", "telephone": "031-671-2251", "longitude": "127.25687866", "latitude": "37.087736046"}, {"name": "(주)현대그린푸드 한국표준협회 인재개발원", "category": "food", "outputcat": "식품/음료", "telephone": "031-525-2233", "longitude": "127.14480145", "latitude": "37.088571863"}, {"name": "(주)홈툴스", "category": "other", "outputcat": "건축자재", "telephone": "031-676-4466", "longitude": "127.42896934", "latitude": "37.077186943"}, {"name": "(주)후니드/에스케이네트웍스안성점", "category": "food", "outputcat": "식품/음료", "telephone": "02-419-9122", "longitude": "127.16383257", "latitude": "37.01430014"}, {"name": "(학)중앙대학", "category": "edu", "outputcat": "교육", "telephone": "031-670-3009", "latitude": "37.010046936", "longitude": "127.2300698"}, {"name": "(합자)고려측량설계공사", "category": "other", "outputcat": "용역 서비스", "telephone": "031-674-1566", "longitude": "127.28062648", "latitude": "37.005776481"}, {"name": "+풀헤어샵", "category": "med", "outputcat": "의료", "telephone": "031-618-5355", "latitude": "36.999775031", "longitude": "127.1702729"}, {"name": "080당구할인몰", "category": "other", "outputcat": "레져용품", "telephone": "031-674-6939", "longitude": "127.24798548", "latitude": "37.067823406"}, {"name": "1+1 치피치피", "category": "food", "outputcat": "식품/음료", "telephone": "031-675-5021", "longitude": "127.22610388", "latitude": "37.002467477"}, {"name": "1,5,3매운탕", "category": "food", "outputcat": "식품/음료", "telephone": "031-671-1019", "longitude": "127.47547014", "latitude": "37.060909013"}, {"name": "1.5.3매운탕", "category": "food", "outputcat": "식품/음료", "telephone": "031-671-1019", "longitude": "127.47547014", "latitude": "37.060909013"}, {"name": "1001안경원", "category": "med", "outputcat": "의료", "telephone": "031-677-1001", "longitude": "127.26914872", "latitude": "37.007082296"}, {"name": "100년대가", "category": "food", "outputcat": "식품/음료", "telephone": "031-675-3358", "longitude": "127.22371844", "latitude": "37.001192422"}, {"name": "100번길편의점", "category": "shop", "outputcat": "마트/편의점", "telephone": "031-677-5288", "longitude": "127.2871242", "latitude": "36.910121194"}, {"name": "100번지 연탄구이", "category": "food", "outputcat": "식품/음료", "telephone": "031-672-8822", "longitude": "127.25698254", "latitude": "37.010965526"}, {"name": "1016 마카롱스튜디오", "category": "food", "outputcat": "식품/음료", "longitude": "127.27065845", "latitude": "37.008277318"}, {"name": "103베트남쌀국수", "category": "food", "outputcat": "식품/음료", "telephone": "031-000-0000", "longitude": "127.2701812", "latitude": "37.006746581"}, {"name": "103시장떡볶이", "category": "food", "outputcat": "식품/음료", "telephone": "031-000-0000", "longitude": "17592"}, {"name": "10분샵힐링캠프", "category": "food", "outputcat": "식품/음료", "telephone": "031-673-4367", "longitude": "127.26307389", "latitude": "37.008104962"}, {"name": "119엽기떡볶이", "category": "food", "outputcat": "식품/음료", "telephone": "031-653-5119", "longitude": "127.16957915", "latitude": "37.001046514"}, {"name": "119엽기떡볶이", "category": "food", "outputcat": "식품/음료", "telephone": "031-674-9959", "longitude": "127.26478942", "latitude": "37.013633731"}, {"name": "11번지야식포차", "category": "food", "outputcat": "식품/음료", "telephone": "031-673-5733", "longitude": "17592"}, {"name": "1979", "category": "other", "outputcat": "의류", "telephone": "031-676-1979", "longitude": "127.22624474", "latitude": "37.000692109"}, {"name": "1급안성맞춤정비", "category": "car", "outputcat": "자동차 정비/주유", "telephone": "031-673-2007", "longitude": "127.25273277", "latitude": "37.013605659"}, {"name": "20년 전통 대가", "category": "food", "outputcat": "식품/음료", "telephone": "031-658-9289", "longitude": "127.22326496", "latitude": "37.003662191"}, {"name": "21세기자동차정비공업사", "category": "car", "outputcat": "자동차 정비/주유", "telephone": "031-674-6207", "longitude": "127.19393844", "latitude": "37.060570122"}, {"name": "21세기종합광고기획", "category": "other", "outputcat": "용역 서비스", "telephone": "031-675-3010", "longitude": "17582"}, {"name": "24시 뽀송뽀송 빨래방", "category": "car", "outputcat": "자동차 정비/주유", "telephone": "031-675-7549", "longitude": "127.22474109", "latitude": "37.001298644"}, {"name": "24시 편의점이야기", "category": "shop", "outputcat": "마트/편의점", "telephone": "031-674-2284", "longitude": "127.26106599", "latitude": "37.082095416"}, {"name": "24시가마솥국밥", "category": "food", "outputcat": "식품/음료", "longitude": "127.13915476", "latitude": "36.993939857"}, {"name": "24시전주명품콩나물국밥", "category": "food", "outputcat": "식품/음료", "telephone": "031-657-0695", "longitude": "127.13816554", "latitude": "36.993553528"}, {"name": "24시치킨호프", "category": "food", "outputcat": "식품/음료", "telephone": "031-672-1180", "longitude": "127.2401229", "latitude": "37.012721456"}, {"name": "24시편의점이야기", "category": "shop", "outputcat": "마트/편의점", "telephone": "031-674-2213", "longitude": "127.26106599", "latitude": "37.082095416"}, {"name": "25시", "category": "other", "outputcat": "레저업소", "telephone": "031-675-3137", "longitude": "127.27079188", "latitude": "37.007880548"}, {"name": "25시노래방", "category": "other", "outputcat": "레저업소", "telephone": "031-654-5603", "longitude": "127.17030453", "latitude": "36.998828864"}, {"name": "25시실내야식식당", "category": "food", "outputcat": "식품/음료", "telephone": "031-676-0879", "longitude": "127.42635309", "latitude": "37.075880777"}, {"name": "2U(유)", "category": "food", "outputcat": "식품/음료", "longitude": "127.13763731", "latitude": "36.993409957"}, {"name": "3030영어.수학학원", "category": "edu", "outputcat": "교육", "telephone": "031-674-0020", "longitude": "127.27779483", "latitude": "37.005665934"}, {"name": "30년옹고집", "category": "food", "outputcat": "식품/음료", "telephone": "031-671-0082", "longitude": "127.38788926", "latitude": "37.066100271"}, {"name": "365모터스", "category": "car", "outputcat": "자동차 정비/주유", "telephone": "031-675-0365", "longitude": "17545"}, {"name": "38번가", "category": "food", "outputcat": "식품/음료", "telephone": "031-678-3478", "longitude": "127.26093158", "latitude": "37.009190917"}, {"name": "38전주식당", "category": "food", "outputcat": "식품/음료", "telephone": "031-651-5858", "longitude": "127.17013383", "latitude": "36.997828918"}, {"name": "3POP PC방", "category": "other", "outputcat": "레저업소", "telephone": "070-7360-4321", "longitude": "127.22646143", "latitude": "37.001800014"}, {"name": "3일국밥 안성중앙대점", "category": "food", "outputcat": "식품/음료", "telephone": "031-675-9690", "longitude": "127.22399016", "latitude": "37.001912771"}, {"name": "59쌀피자", "category": "food", "outputcat": "식품/음료", "telephone": "031-677-7911", "longitude": "127.22574072", "latitude": "37.001215675"}, {"name": "59쌀피자", "category": "food", "outputcat": "식품/음료"}, {"name": "59쌀피자 동광아파트점", "category": "food", "outputcat": "식품/음료"}, {"name": "59쌀피자공도점", "category": "food", "outputcat": "식품/음료", "telephone": "031-656-5982", "longitude": "127.17493868", "latitude": "37.001354241"}, {"name": "5대천왕", "category": "food", "outputcat": "식품/음료", "telephone": "031-618-0916", "longitude": "127.17146697", "latitude": "37.001242084"}, {"name": "60계경기안성점", "category": "food", "outputcat": "식품/음료", "telephone": "031-671-1160", "longitude": "127.25787685", "latitude": "37.016324946"}, {"name": "60계안성공도점", "category": "food", "outputcat": "식품/음료", "telephone": "031-658-8260", "longitude": "127.17508148", "latitude": "36.999912325"}, {"name": "69애견", "telephone": "031-673-6164", "longitude": "127.36761665", "latitude": "37.068516084"}, {"name": "79대포 안성죽산점", "category": "food", "outputcat": "식품/음료", "telephone": "070-7793-4545", "longitude": "127.4228042", "latitude": "37.074685985"}, {"name": "79대포안성공도점", "category": "food", "outputcat": "식품/음료", "telephone": "070-4268-8836", "longitude": "127.16949821", "latitude": "36.999992378"}, {"name": "7학년7반 공도점", "category": "food", "outputcat": "식품/음료", "telephone": "031-655-7217", "longitude": "127.17319443", "latitude": "37.000050207"}, {"name": "7학년7반떡볶이", "category": "food", "outputcat": "식품/음료", "telephone": "031-677-7722", "longitude": "127.27040499", "latitude": "37.009692562"}, {"name": "7학년7반떡볶이", "category": "food", "outputcat": "식품/음료", "telephone": "031-675-7222", "longitude": "127.22482353", "latitude": "37.002605038"}, {"name": "815빌딩", "category": "car", "outputcat": "자동차 정비/주유", "telephone": "02-000-0000", "longitude": "127.16949821", "latitude": "36.999992378"}, {"name": "99학번구이구이", "category": "food", "outputcat": "식품/음료", "telephone": "031-674-9084", "longitude": "127.36305955", "latitude": "37.055960285"}, {"name": "A coffee farm(에이커피팜)", "category": "food", "outputcat": "식품/음료", "telephone": "031-672-8302", "longitude": "127.21429985", "latitude": "36.975357874"}, {"name": "A.H MOTORS", "category": "car", "outputcat": "자동차 정비/주유", "telephone": "031-691-1333", "longitude": "127.16313109", "latitude": "37.001298682"}, {"name": "A.M.마스터", "category": "other", "outputcat": "건축자재", "telephone": "031-676-4947", "longitude": "17581"}, {"name": "APINA MOBLER", "category": "other", "outputcat": "가구", "telephone": "031-674-0662", "longitude": "127.4164699", "latitude": "37.119625508"}, {"name": "APINA MOBLER/주식회사 아피나코리아", "category": "other", "outputcat": "가구", "telephone": "031-674-0661", "longitude": "127.4164699", "latitude": "37.119625508"}, {"name": "ARIELIDA", "category": "med", "outputcat": "의료"}, {"name": "A플러스 당구장", "category": "other", "outputcat": "레저업소", "telephone": "031-677-3657", "longitude": "127.26653788", "latitude": "37.012359358"}, {"name": "B (비)47", "category": "other", "outputcat": "의류", "telephone": "031-677-6854", "longitude": "127.27040628", "latitude": "37.006854202"}, {"name": "B.Y.C 안성대리점", "category": "other", "outputcat": "의류", "telephone": "031-676-3040", "longitude": "17592"}, {"name": "BBQ", "category": "food", "outputcat": "식품/음료", "telephone": "031-675-8008", "longitude": "127.26265619", "latitude": "37.007520183"}, {"name": "BBQ올리브떡볶이", "category": "food", "outputcat": "식품/음료", "telephone": "031-618-7277", "longitude": "127.17508148", "latitude": "36.999912325"}, {"name": "BB도시락", "category": "food", "outputcat": "식품/음료", "telephone": "031-673-3361", "longitude": "127.1961055", "latitude": "37.059431278"}, {"name": "BHC 안성일죽점", "category": "food", "outputcat": "식품/음료", "telephone": "031-671-9288", "longitude": "127.47744071", "latitude": "37.090266358"}, {"name": "BHC치킨 공도점", "category": "food", "outputcat": "식품/음료", "telephone": "031-654-1203", "longitude": "127.16971463", "latitude": "37.001352687"}, {"name": "BONGFOOD(봉푸드)", "category": "food", "outputcat": "식품/음료", "telephone": "031-672-3423", "longitude": "127.4865986", "latitude": "37.074713308"}, {"name": "BRAND NEW PC", "category": "other", "outputcat": "레저업소", "longitude": "127.32603309", "latitude": "37.009716344"}, {"name": "BYC", "category": "other", "outputcat": "의류", "telephone": "031-653-2649", "longitude": "127.1383334", "latitude": "36.993192909"}, {"name": "C&K골프아카데미", "category": "other", "outputcat": "회원제형태", "telephone": "031-677-7275", "longitude": "127.2680098", "latitude": "37.018825725"}, {"name": "C&K스크린골프", "category": "other", "outputcat": "회원제형태", "telephone": "031-677-7272", "longitude": "127.2680098", "latitude": "37.018825725"}, {"name": "CAFE D (카페디)", "category": "food", "outputcat": "식품/음료", "telephone": "031-676-0090", "longitude": "127.16944107", "latitude": "36.999550934"}, {"name": "CBC김밥나라", "category": "food", "outputcat": "식품/음료", "telephone": "031-675-9933", "longitude": "127.22404189", "latitude": "37.000380859"}, {"name": "CGV 안성", "telephone": "02-1544-1122", "longitude": "127.25715489", "latitude": "37.01210951"}, {"name": "CHERRY.미(체리.미)", "category": "other", "outputcat": "의류", "telephone": "031-652-2654", "longitude": "127.16941625", "latitude": "36.998469686"}, {"name": "CHUNG.ANG.COPY", "category": "edu", "outputcat": "교육", "telephone": "031-670-3619", "longitude": "17546"}, {"name": "CJ공구철물건재상사", "category": "other", "outputcat": "기타", "telephone": "031-658-9003", "longitude": "127.12385802", "latitude": "37.038487151"}, {"name": "CK종합상사", "category": "other", "outputcat": "건축자재", "telephone": "031-671-8678", "longitude": "127.26698708", "latitude": "36.989552353"}, {"name": "COFFEE (커피)123", "category": "food", "outputcat": "식품/음료"}, {"name": "CTA정보통신", "category": "other", "outputcat": "사무통신", "telephone": "031-675-8574", "longitude": "17547"}, {"name": "Cafe Le Dugong", "category": "food", "outputcat": "식품/음료", "telephone": "070-9736-0347", "longitude": "127.27836919", "latitude": "37.009160738"}, {"name": "D-SIGN", "category": "other", "outputcat": "용역 서비스", "telephone": "031-675-7404", "longitude": "127.27184743", "latitude": "37.007715969"}, {"name": "DIGITAL집현전", "category": "edu", "outputcat": "교육", "telephone": "031-676-6877", "longitude": "127.22504872", "latitude": "37.002775819"}, {"name": "DIOS (디오스)", "category": "food", "outputcat": "식품/음료", "telephone": "031-000-0000", "longitude": "127.51201688", "latitude": "37.10390896"}, {"name": "DWS스팀세차", "category": "car", "outputcat": "자동차 정비/주유", "telephone": "031-674-2241", "longitude": "127.26117456", "latitude": "37.117398399"}, {"name": "Daisy&(데이지앤)", "category": "food", "outputcat": "식품/음료", "telephone": "031-665-7780", "longitude": "127.17052486", "latitude": "37.001964272"}, {"name": "Dog불장군", "category": "food", "outputcat": "식품/음료", "telephone": "031-671-5045", "longitude": "127.25648527", "latitude": "37.016859556"}, {"name": "E&S카인테리어", "category": "other", "outputcat": "회원제형태", "telephone": "031-672-7422", "longitude": "127.26951186", "latitude": "36.988807833"}, {"name": "E1일죽충전소", "category": "car", "outputcat": "자동차 정비/주유", "telephone": "031-673-6022", "longitude": "127.46046358", "latitude": "37.087629929"}, {"name": "EBI PC 카페", "category": "other", "outputcat": "레저업소", "longitude": "127.22443849", "latitude": "37.001551508"}, {"name": "EBISU(에비수)", "category": "food", "outputcat": "식품/음료", "longitude": "127.22568536", "latitude": "37.00149511"}, {"name": "EXR 안성대리점", "category": "other", "outputcat": "레져용품", "telephone": "031-676-8838", "longitude": "127.26951212", "latitude": "37.008189792"}, {"name": "English For Fun", "category": "edu", "outputcat": "교육", "telephone": "031-676-6840", "longitude": "127.1810184", "latitude": "37.064708065"}, {"name": "FBI수학공부방", "category": "other", "outputcat": "회원제형태", "telephone": "070-4402-2835", "longitude": "127.17786851", "latitude": "37.00031373"}, {"name": "FEEL디자인", "category": "other", "outputcat": "가구", "telephone": "031-657-2820", "longitude": "127.1219471", "latitude": "37.038407988"}, {"name": "FLAVOR(플레이버)", "category": "food", "outputcat": "식품/음료", "telephone": "070-8800-3855", "longitude": "127.15429912", "latitude": "37.045768841"}, {"name": "FOOT-MART", "category": "other", "outputcat": "레져용품", "telephone": "031-657-4807", "longitude": "127.18988315", "latitude": "37.006990347"}, {"name": "FRIENDS", "category": "other", "outputcat": "레저업소", "telephone": "031-676-7932", "longitude": "127.47121572", "latitude": "37.091264234"}, {"name": "Flat coffee(플렛커피)", "category": "food", "outputcat": "식품/음료", "telephone": "031-675-3123", "longitude": "127.27399182", "latitude": "37.004106826"}, {"name": "G.S.스포츠", "category": "other", "outputcat": "레져용품", "telephone": "031-675-3832", "longitude": "127.25295815", "latitude": "37.013803419"}, {"name": "GASINA (가시나)1206", "category": "other", "outputcat": "의류"}, {"name": "GO#garage (고샵게라지)", "category": "car", "outputcat": "자동차 정비/주유", "telephone": "070-8031-4038", "longitude": "127.17996561", "latitude": "37.003554466"}, {"name": "GOPHOTO", "category": "other", "outputcat": "광학제품", "telephone": "031-677-3516", "longitude": "127.26790477", "latitude": "37.007995157"}, {"name": "GS25공도그랑블점", "category": "shop", "outputcat": "마트/편의점", "longitude": "127.19769023", "latitude": "37.006410119"}, {"name": "GS25공도부영점", "category": "shop", "outputcat": "마트/편의점", "longitude": "127.18327415", "latitude": "37.00588325"}, {"name": "GS25공도사랑점", "category": "shop", "outputcat": "마트/편의점", "longitude": "127.17022129", "latitude": "37.001856573"}, {"name": "GS25공도양진점", "category": "shop", "outputcat": "마트/편의점", "longitude": "127.14064209", "latitude": "36.99021672"}, {"name": "GS25대림동산점", "category": "shop", "outputcat": "마트/편의점", "longitude": "127.20046673", "latitude": "37.015632452"}, {"name": "GS25동아대기숙사점", "category": "shop", "outputcat": "마트/편의점", "telephone": "02-2006-2485", "longitude": "127.35873203", "latitude": "37.058550365"}, {"name": "GS25동아방송대점", "category": "shop", "outputcat": "마트/편의점", "telephone": "02-2006-2118", "longitude": "127.36294819", "latitude": "37.056185887"}, {"name": "GS25두원공대안성점", "category": "shop", "outputcat": "마트/편의점", "longitude": "127.41907857", "latitude": "37.065823748"}, {"name": "GS25마정로드점", "category": "shop", "outputcat": "마트/편의점", "longitude": "127.19577461", "latitude": "37.008629872"}, {"name": "GS25안성IC점", "category": "shop", "outputcat": "마트/편의점", "longitude": "127.15385494", "latitude": "36.997409213"}, {"name": "GS25안성계림점", "category": "shop", "outputcat": "마트/편의점", "longitude": "127.26974126", "latitude": "36.990167932"}, {"name": "GS25안성공도점", "category": "shop", "outputcat": "마트/편의점", "longitude": "127.16916065", "latitude": "36.999749562"}, {"name": "GS25안성광신점", "category": "shop", "outputcat": "마트/편의점", "longitude": "127.25384535", "latitude": "37.006827296"}, {"name": "GS25안성그대가점", "category": "shop", "outputcat": "마트/편의점", "longitude": "127.20919052", "latitude": "37.013022539"}, {"name": "GS25안성낙원점", "category": "shop", "outputcat": "마트/편의점", "longitude": "127.27314822", "latitude": "37.003829419"}, {"name": "GS25안성내리점", "category": "shop", "outputcat": "마트/편의점", "telephone": "02-2006-2485", "longitude": "127.22441336", "latitude": "37.000632466"}, {"name": "GS25안성내혜홀점", "category": "shop", "outputcat": "마트/편의점", "longitude": "127.26326707", "latitude": "37.008744295"}, {"name": "GS25안성노곡점", "category": "shop", "outputcat": "마트/편의점", "longitude": "127.24584681", "latitude": "37.10940244"}, {"name": "GS25안성동항점", "category": "shop", "outputcat": "마트/편의점", "longitude": "127.18708201", "latitude": "37.061373898"}, {"name": "GS25안성롯데캐슬점", "category": "shop", "outputcat": "마트/편의점", "longitude": "127.22557334", "latitude": "37.013164136"}, {"name": "GS25안성미양공단점", "category": "shop", "outputcat": "마트/편의점", "longitude": "127.26403943", "latitude": "36.981611441"}, {"name": "GS25안성미양점", "category": "shop", "outputcat": "마트/편의점", "longitude": "127.21137662", "latitude": "36.974164617"}, {"name": "GS25안성보개점", "category": "shop", "outputcat": "마트/편의점", "telephone": "02-2006-2485", "longitude": "127.28615035", "latitude": "37.031993398"}, {"name": "GS25안성봉산메가점", "category": "shop", "outputcat": "마트/편의점", "telephone": "031-5660-0190", "longitude": "127.27909679", "latitude": "37.005302486"}, {"name": "GS25안성서운점", "category": "shop", "outputcat": "마트/편의점", "telephone": "02-2006-2485", "longitude": "127.25899141", "latitude": "36.943227714"}, {"name": "GS25안성서희점", "category": "shop", "outputcat": "마트/편의점", "longitude": "127.25873633", "latitude": "37.004555178"}, {"name": "GS25안성성은점", "category": "shop", "outputcat": "마트/편의점", "longitude": "127.15710933", "latitude": "37.073517864"}, {"name": "GS25안성성은점", "category": "shop", "outputcat": "마트/편의점", "longitude": "127.15710933", "latitude": "37.073517864"}, {"name": "GS25안성양성점", "category": "shop", "outputcat": "마트/편의점", "telephone": "02-2006-2485", "longitude": "127.19663406", "latitude": "37.063908679"}, {"name": "GS25안성에듀타운점", "category": "shop", "outputcat": "마트/편의점", "longitude": "127.27104257", "latitude": "37.012078947"}, {"name": "GS25안성원곡본점", "category": "shop", "outputcat": "마트/편의점", "telephone": "02-2006-2485", "longitude": "127.13122457", "latitude": "37.041074474"}, {"name": "GS25안성웰빙점", "category": "shop", "outputcat": "마트/편의점", "longitude": "127.2239351", "latitude": "37.002300332"}, {"name": "GS25안성유안점", "category": "shop", "outputcat": "마트/편의점", "longitude": "127.2574007", "latitude": "37.058847067"}, {"name": "GS25안성의료원점", "category": "shop", "outputcat": "마트/편의점", "longitude": "127.26004582", "latitude": "37.016410373"}, {"name": "GS25안성인지점", "category": "shop", "outputcat": "마트/편의점", "longitude": "127.26898279", "latitude": "37.004604736"}, {"name": "GS25안성주은점", "category": "shop", "outputcat": "마트/편의점", "telephone": "02-2006-2118", "longitude": "17569"}, {"name": "GS25안성중대점", "category": "shop", "outputcat": "마트/편의점", "longitude": "127.22610217", "latitude": "37.001881786"}, {"name": "GS25안성중앙점", "category": "shop", "outputcat": "마트/편의점", "longitude": "127.25051742", "latitude": "37.013051641"}, {"name": "GS25안성타운점", "category": "shop", "outputcat": "마트/편의점", "longitude": "127.22171345", "latitude": "36.999357957"}, {"name": "GS25안성타워점", "category": "shop", "outputcat": "마트/편의점", "telephone": "02-2006-2118", "longitude": "127.26735327", "latitude": "37.007717056"}, {"name": "GS25안성폴리텍점", "category": "shop", "outputcat": "마트/편의점", "longitude": "127.17441285", "latitude": "37.007329084"}, {"name": "GS25안성푸르지오점", "category": "shop", "outputcat": "마트/편의점", "longitude": "127.28959102", "latitude": "37.011467922"}, {"name": "GS25원곡외가천점", "category": "shop", "outputcat": "마트/편의점", "longitude": "127.12672178", "latitude": "37.036988431"}, {"name": "GS25원곡중앙점", "category": "shop", "outputcat": "마트/편의점", "longitude": "127.12902617", "latitude": "37.037130175"}, {"name": "GS25일죽방초점", "category": "shop", "outputcat": "마트/편의점", "longitude": "127.43086183", "latitude": "37.113762692"}, {"name": "GS25죽산로드점", "category": "shop", "outputcat": "마트/편의점", "longitude": "127.44213066", "latitude": "37.081770335"}, {"name": "GS25진사쌍용점", "category": "shop", "outputcat": "마트/편의점"}, {"name": "GS25한경대기숙사점", "category": "shop", "outputcat": "마트/편의점", "longitude": "127.26379512", "latitude": "37.012023014"}, {"name": "G웰빙건강케어", "category": "other", "outputcat": "회원제형태", "telephone": "031-666-3484", "longitude": "127.15725367", "latitude": "36.989304223"}, {"name": "H.S 씽크탑", "category": "other", "outputcat": "주방용구", "telephone": "031-676-5586", "longitude": "127.30278794", "latitude": "36.984358256"}, {"name": "HAIR&LEE", "category": "med", "outputcat": "의료", "telephone": "031-672-3733", "longitude": "127.26337755", "latitude": "37.008194402"}, {"name": "HAN시스템", "category": "other", "outputcat": "회원제형태"}, {"name": "HH 이앤지", "category": "car", "outputcat": "자동차 정비/주유", "telephone": "031-671-3615", "longitude": "127.20590288", "latitude": "37.069623909"}, {"name": "HS이엔씨", "category": "other", "outputcat": "건축자재", "longitude": "127.17566627", "latitude": "37.000181795"}, {"name": "Han-Green 바이오텍", "category": "other", "outputcat": "농업", "telephone": "031-672-6400", "longitude": "127.19407904", "latitude": "37.05835329"}, {"name": "HaoMa", "category": "food", "outputcat": "식품/음료", "telephone": "031-658-1399", "longitude": "127.13744227", "latitude": "36.984714845"}, {"name": "H커피로스터스", "category": "food", "outputcat": "식품/음료", "telephone": "031-674-6040", "longitude": "127.26626283", "latitude": "37.010801126"}, {"name": "H홀릭헤어", "category": "med", "outputcat": "의료"}, {"name": "IGA MART 안성금호건영점", "category": "shop", "outputcat": "마트/편의점", "longitude": "127.22165606", "latitude": "36.936138785"}, {"name": "IK모터스", "category": "car", "outputcat": "자동차 정비/주유", "telephone": "031-674-7932", "longitude": "127.46949536", "latitude": "37.09135211"}, {"name": "INA", "category": "other", "outputcat": "신변잡화", "telephone": "031-674-7877", "longitude": "127.27124015", "latitude": "37.007555151"}, {"name": "J&B당구글럽", "category": "other", "outputcat": "레저업소", "telephone": "031-676-7272", "longitude": "127.42363757", "latitude": "37.074908294"}, {"name": "J&H(제이앤에치)", "category": "other", "outputcat": "기타", "telephone": "031-671-1125", "longitude": "127.26837878", "latitude": "36.998911346"}, {"name": "J&J쥬얼리", "category": "other", "outputcat": "신변잡화", "telephone": "031-671-1418", "longitude": "127.26962554", "latitude": "37.008495899"}, {"name": "JB케미칼", "category": "other", "outputcat": "건축자재", "telephone": "031-655-7004", "longitude": "127.12619388", "latitude": "37.037214247"}, {"name": "JDX 안성공도점", "category": "other", "outputcat": "의류", "telephone": "031-618-7978", "longitude": "127.18988315", "latitude": "37.006990347"}, {"name": "JDX 안성점", "category": "other", "outputcat": "레져용품", "telephone": "031-675-1951", "longitude": "127.2666248", "latitude": "37.008250306"}, {"name": "JH글로벌", "category": "other", "outputcat": "기타", "telephone": "031-456-4546", "longitude": "127.15636199", "latitude": "37.043044983"}, {"name": "JH영어수학그룹과외", "category": "other", "outputcat": "회원제형태"}, {"name": "JIP ARTs", "telephone": "070-7722-6642", "longitude": "127.26098569", "latitude": "36.915425139"}, {"name": "JK코퍼레이션", "category": "food", "outputcat": "식품/음료", "telephone": "031-000-0000", "longitude": "127.26432407", "latitude": "36.972888451"}, {"name": "JK푸드식당(일반음식점)", "category": "food", "outputcat": "식품/음료", "telephone": "031-676-6630", "longitude": "127.26178732", "latitude": "37.049466561"}, {"name": "JNJ실용음악학원", "category": "other", "outputcat": "회원제형태", "telephone": "031-673-0222", "longitude": "127.26978979", "latitude": "37.00727008"}, {"name": "JS HUMAN TECH", "category": "other", "outputcat": "건축자재", "telephone": "031-651-6671", "longitude": "127.16325263", "latitude": "37.000325364"}, {"name": "JS그늘집", "category": "food", "outputcat": "식품/음료", "longitude": "127.28459365", "latitude": "37.009137118"}, {"name": "JS모터스", "category": "car", "outputcat": "자동차 정비/주유", "telephone": "031-674-8611", "longitude": "127.32417306", "latitude": "37.002918353"}, {"name": "JS산업", "category": "other", "outputcat": "농업", "telephone": "031-111-1111", "longitude": "127.18194228", "latitude": "37.00327217"}, {"name": "Ju Ju ba Cafe(주주바 카페)/농업회사법인", "category": "food", "outputcat": "식품/음료", "telephone": "031-672-0101", "longitude": "127.3043706", "latitude": "37.001168167"}, {"name": "Juno Table", "category": "food", "outputcat": "식품/음료", "telephone": "031-674-3761", "longitude": "127.26398168", "latitude": "37.007436179"}, {"name": "J왁싱&뷰티", "category": "med", "outputcat": "의료", "telephone": "031-677-0677", "longitude": "127.26923907", "latitude": "37.007217253"}, {"name": "J헤어", "category": "med", "outputcat": "의료", "telephone": "031-657-9935", "longitude": "127.18445802", "latitude": "37.007638527"}, {"name": "K-1헬스케어", "category": "med", "outputcat": "의료", "telephone": "031-671-2447", "longitude": "127.27698691", "latitude": "37.018462928"}, {"name": "K-WP", "category": "other", "outputcat": "회원제형태"}, {"name": "K2 안성점", "category": "other", "outputcat": "레져용품", "longitude": "127.18988315", "latitude": "37.006990347"}, {"name": "KAC", "category": "edu", "outputcat": "교육", "longitude": "127.2567079", "latitude": "36.975662254"}, {"name": "KBS노래방", "category": "other", "outputcat": "레저업소", "telephone": "031-674-9199", "longitude": "127.37508377", "latitude": "37.073295507"}, {"name": "KCC마트", "category": "shop", "outputcat": "마트/편의점"}, {"name": "KCC마트", "category": "shop", "outputcat": "마트/편의점", "telephone": "031-656-3888", "longitude": "127.17762281", "latitude": "37.000953851"}, {"name": "KC네트웍스", "category": "car", "outputcat": "자동차 정비/주유", "telephone": "031-653-2021", "longitude": "127.17416219", "latitude": "37.00076967"}, {"name": "KC산업", "category": "other", "outputcat": "건축자재", "telephone": "031-671-7977", "longitude": "127.21271068", "latitude": "37.04279653"}, {"name": "KC특장부품", "category": "car", "outputcat": "자동차 정비/주유", "telephone": "070-4355-1315", "longitude": "127.15749108", "latitude": "37.045521438"}, {"name": "KIS정보통신", "category": "other", "outputcat": "사무통신", "telephone": "031-673-9756", "longitude": "127.26624255", "latitude": "37.001664359"}, {"name": "KIS정보통신", "category": "other", "outputcat": "사무통신", "telephone": "031-651-0310", "longitude": "127.17202019", "latitude": "36.992329722"}, {"name": "KP 편의점", "category": "shop", "outputcat": "마트/편의점", "telephone": "031-656-3579", "longitude": "127.20613337", "latitude": "37.012685408"}, {"name": "KS헤어팜", "category": "med", "outputcat": "의료", "telephone": "031-652-2351", "latitude": "36.99144072", "longitude": "127.14189117"}, {"name": "KTS퍼스널 트레이닝", "category": "other", "outputcat": "레저업소", "longitude": "127.47651803", "latitude": "37.093820173"}, {"name": "Korea Fantasy 월인제작소", "category": "edu", "outputcat": "교육", "telephone": "070-7740-3962", "longitude": "127.31378412", "latitude": "36.953999926"}, {"name": "K시스템스", "category": "other", "outputcat": "회원제형태"}, {"name": "LG오휘", "category": "med", "outputcat": "의료", "telephone": "031-671-3442", "longitude": "127.26592877", "latitude": "37.008414042"}, {"name": "LG오휘진사점", "category": "med", "outputcat": "의료", "telephone": "031-656-8855", "longitude": "127.13783859", "latitude": "36.992887108"}, {"name": "LG오휘화장품안성지사", "category": "med", "outputcat": "의료", "telephone": "031-671-3442", "longitude": "127.26245869", "latitude": "37.005610355"}, {"name": "LG전시판매장", "category": "other", "outputcat": "전기제품", "telephone": "031-674-0206", "longitude": "127.47849736", "latitude": "37.093767199"}, {"name": "LG화장품 오휘", "category": "med", "outputcat": "의료", "telephone": "031-671-3442", "longitude": "127.26592877", "latitude": "37.008414042"}, {"name": "LG화장품/권경희", "category": "med", "outputcat": "의료", "telephone": "031-671-3442", "longitude": "127.26592877", "latitude": "37.008414042"}, {"name": "LG화장품/임선영", "category": "med", "outputcat": "의료", "telephone": "031-671-3442", "longitude": "127.26592877", "latitude": "37.008414042"}, {"name": "LK정보통신", "category": "other", "outputcat": "사무통신", "telephone": "031-677-8450", "longitude": "127.26862741", "latitude": "37.009020756"}, {"name": "L마트", "category": "shop", "outputcat": "마트/편의점", "telephone": "031-652-9788", "longitude": "127.20354577", "latitude": "37.011437329"}, {"name": "M.J(마중)", "category": "other", "outputcat": "의류", "telephone": "031-111-1111", "longitude": "127.26093298", "latitude": "37.009605405"}, {"name": "M.K사무기", "category": "other", "outputcat": "사무통신", "telephone": "031-671-0331", "longitude": "127.22057049", "latitude": "37.000387276"}, {"name": "MAN`S 헤어", "category": "med", "outputcat": "의료", "telephone": "031-676-5195", "longitude": "127.27004135", "latitude": "37.008521996"}, {"name": "MARRE(마레)", "category": "other", "outputcat": "레져용품", "telephone": "031-591-4620", "longitude": "127.41117082", "latitude": "37.056822665"}, {"name": "MBC노래연습장", "category": "other", "outputcat": "레저업소", "telephone": "031-677-7300", "longitude": "127.27314822", "latitude": "37.003829419"}, {"name": "MBC노래연습장", "category": "other", "outputcat": "레저업소", "telephone": "031-677-3643", "longitude": "127.22438425", "latitude": "37.002218399"}, {"name": "MD오토 경기안성1호점", "category": "car", "outputcat": "자동차 정비/주유"}, {"name": "MEGASUN코리아", "category": "other", "outputcat": "전기제품", "telephone": "031-234-9067", "longitude": "127.25418134", "latitude": "37.088345498"}, {"name": "MITENG", "category": "other", "outputcat": "전기제품", "telephone": "031-676-9603", "longitude": "127.28298065", "latitude": "37.004356276"}, {"name": "MMS수학교습소", "category": "other", "outputcat": "회원제형태"}, {"name": "MOSCOW (모스크)바", "category": "food", "outputcat": "식품/음료", "longitude": "127.22562976", "latitude": "37.001693449"}, {"name": "MPLAY market", "category": "other", "outputcat": "의류", "telephone": "031-677-4051", "longitude": "127.27009589", "latitude": "37.008053319"}, {"name": "Mine Boutique", "category": "other", "outputcat": "의류"}, {"name": "Miso- L coffee(미소엘커피)", "category": "food", "outputcat": "식품/음료", "telephone": "031-672-9766", "longitude": "127.37550172", "latitude": "37.073681648"}, {"name": "MoonSalon (문살롱)", "category": "med", "outputcat": "의료", "telephone": "031-651-3333", "longitude": "127.17762281", "latitude": "37.000953851"}, {"name": "M노래연습장", "category": "other", "outputcat": "레저업소", "telephone": "031-657-7168", "longitude": "127.13774915", "latitude": "36.993130499"}, {"name": "NETSON", "category": "other", "outputcat": "사무통신", "telephone": "031-656-3844", "longitude": "127.16246767", "latitude": "37.054741716"}, {"name": "NOS마트안성점", "category": "shop", "outputcat": "마트/편의점", "telephone": "031-675-8484", "longitude": "17574"}, {"name": "NY202", "category": "other", "outputcat": "회원제형태", "telephone": "070-7624-5222", "longitude": "127.1490538", "latitude": "37.083151353"}, {"name": "Nature Music", "category": "edu", "outputcat": "교육", "longitude": "127.17377249", "latitude": "37.007357039"}, {"name": "N카페", "category": "food", "outputcat": "식품/음료", "telephone": "031-673-0712", "longitude": "127.2698468", "latitude": "37.010721034"}, {"name": "NＢ　ＦＥＥＤ", "category": "other", "outputcat": "농업", "telephone": "031-677-6482", "longitude": "127.43732614", "latitude": "37.116820758"}, {"name": "O.K식당", "category": "food", "outputcat": "식품/음료", "telephone": "031-675-6091", "longitude": "127.27057209", "latitude": "37.006078911"}, {"name": "OHOO(오후)", "category": "food", "outputcat": "식품/음료", "telephone": "031-676-1920", "longitude": "127.22510132", "latitude": "37.001550269"}, {"name": "OK 노래연습장", "category": "other", "outputcat": "레저업소", "telephone": "031-618-5060", "longitude": "127.17125169", "latitude": "37.000413406"}, {"name": "OK모텔", "category": "trip", "outputcat": "숙박업", "telephone": "031-657-5823", "longitude": "127.149276", "latitude": "37.040765238"}, {"name": "OK자동차부품", "category": "car", "outputcat": "자동차 정비/주유", "telephone": "031-676-1185", "longitude": "127.41285715", "latitude": "37.063079177"}, {"name": "Olga 올가", "category": "other", "outputcat": "의류", "telephone": "031-677-7753", "longitude": "127.27139948", "latitude": "37.008131473"}, {"name": "PC대장간", "category": "car", "outputcat": "자동차 정비/주유", "telephone": "070-4231-5040", "longitude": "127.27020827", "latitude": "37.01126987"}, {"name": "PLUS (플러스)", "category": "med", "outputcat": "의료", "longitude": "127.26859788", "latitude": "37.006993424"}, {"name": "PONEF", "category": "other", "outputcat": "광학제품", "telephone": "031-674-6734", "longitude": "127.50340436", "latitude": "37.073823631"}, {"name": "Q당구장", "category": "other", "outputcat": "레저업소", "longitude": "127.22638134", "latitude": "37.001304578"}, {"name": "Q당구장", "category": "other", "outputcat": "레저업소"}, {"name": "R.P.C포도밭", "category": "food", "outputcat": "식품/음료", "telephone": "031-618-0741", "longitude": "127.20496174", "latitude": "37.011525033"}, {"name": "R2바디핏", "category": "other", "outputcat": "레저업소", "telephone": "070-7447-3372", "longitude": "127.2262926", "latitude": "37.001692204"}, {"name": "RIX(릭스)", "category": "other", "outputcat": "사무통신", "telephone": "031-671-2119", "longitude": "127.22196061", "latitude": "37.003277146"}, {"name": "S.K보습학원", "category": "edu", "outputcat": "교육", "telephone": "031-676-4321", "longitude": "127.25956775", "latitude": "37.011248304"}, {"name": "S2정보통신", "category": "other", "outputcat": "사무통신", "telephone": "031-675-1019", "longitude": "127.26598352", "latitude": "37.007999431"}, {"name": "SEBI", "category": "other", "outputcat": "신변잡화"}, {"name": "SG골프 공도점", "category": "other", "outputcat": "레져용품", "telephone": "031-618-4681", "longitude": "127.19546092", "latitude": "37.008990809"}, {"name": "SI안성점", "category": "other", "outputcat": "의류", "telephone": "031-674-4810", "longitude": "127.27150872", "latitude": "37.007248181"}, {"name": "SJ TECH/원격지", "category": "other", "outputcat": "기타", "telephone": "031-674-4803", "longitude": "127.25651727", "latitude": "37.100793078"}, {"name": "SKDIAMOND", "category": "other", "outputcat": "기타", "telephone": "031-674-4086", "longitude": "127.2299026", "latitude": "37.033159563"}, {"name": "SK네트웍스(주)안성맞춤주유소", "category": "car", "outputcat": "자동차 정비/주유", "telephone": "031-692-5182", "longitude": "127.20068673", "latitude": "37.009468791"}, {"name": "SK네트웍스(주)안성맞춤주유소", "category": "car", "outputcat": "자동차 정비/주유", "telephone": "031-691-6188", "longitude": "127.20068673", "latitude": "37.009468791"}, {"name": "SK네트웍스(주)안평주유소", "category": "car", "outputcat": "자동차 정비/주유", "telephone": "031-655-2603", "longitude": "127.14911401", "latitude": "36.997298008"}, {"name": "SK대덕주유소/(주)한양에너지", "category": "car", "outputcat": "자동차 정비/주유", "telephone": "031-677-5144", "longitude": "127.24834901", "latitude": "37.051522508"}, {"name": "SK진현주유소", "category": "car", "outputcat": "자동차 정비/주유", "telephone": "031-675-0049", "longitude": "127.25887745", "latitude": "37.053320399"}, {"name": "SMART셀프세차타운", "category": "car", "outputcat": "자동차 정비/주유", "telephone": "031-654-0405", "longitude": "127.17185954", "latitude": "37.011108218"}, {"name": "SM물류기계", "category": "car", "outputcat": "자동차 정비/주유", "telephone": "031-671-4877", "longitude": "127.22565434", "latitude": "37.033212667"}, {"name": "SM푸드", "category": "food", "outputcat": "식품/음료", "telephone": "031-675-6145", "longitude": "127.32800763", "latitude": "37.006386023"}, {"name": "ST학원", "category": "edu", "outputcat": "교육", "longitude": "127.26846198", "latitude": "37.009913181"}, {"name": "SUMO COFFEE(커피전문점)", "category": "food", "outputcat": "식품/음료", "telephone": "031-671-1011", "longitude": "127.2787865", "latitude": "37.006492614"}, {"name": "SUN JOY", "category": "other", "outputcat": "회원제형태", "telephone": "031-672-2579", "longitude": "127.27001767", "latitude": "37.011387438"}, {"name": "Sanmai23", "category": "other", "outputcat": "의류", "longitude": "127.2701812", "latitude": "37.006746581"}, {"name": "Shin(신)헤어스쿨", "category": "med", "outputcat": "의료", "telephone": "031-691-5560", "longitude": "127.18352205", "latitude": "37.006189236"}, {"name": "SnJ 영어학원", "category": "edu", "outputcat": "교육", "telephone": "031-658-1105", "longitude": "127.17146697", "latitude": "37.001242084"}, {"name": "Style by지은", "category": "med", "outputcat": "의료", "telephone": "031-674-4237", "longitude": "127.27168008", "latitude": "37.008049742"}, {"name": "S노래연습장", "category": "other", "outputcat": "레저업소", "telephone": "031-657-2776", "longitude": "127.16957993", "latitude": "37.00655204"}, {"name": "S당구장", "category": "other", "outputcat": "레저업소", "telephone": "031-000-0000", "longitude": "127.16985212", "latitude": "37.007714035"}, {"name": "S라인", "category": "other", "outputcat": "의류", "telephone": "031-676-3837", "longitude": "17592"}, {"name": "S앨리스학원", "category": "edu", "outputcat": "교육", "telephone": "031-673-1222", "longitude": "127.26890318", "latitude": "37.010777216"}, {"name": "S영어 교습소", "category": "edu", "outputcat": "교육", "telephone": "031-8052-6005", "longitude": "127.26398168", "latitude": "37.007436179"}, {"name": "T.G.O미용실", "category": "med", "outputcat": "의료", "telephone": "031-672-2971", "longitude": "127.26720864", "latitude": "37.008131869"}, {"name": "T.M오토밋션", "category": "car", "outputcat": "자동차 정비/주유", "telephone": "031-671-8540", "longitude": "127.26712747", "latitude": "37.020386534"}, {"name": "TG삼보컴퓨터,안성컴퓨터월드", "category": "other", "outputcat": "사무통신", "telephone": "031-674-1754", "longitude": "17589"}, {"name": "THE영어", "category": "other", "outputcat": "회원제형태", "telephone": "031-671-9095", "longitude": "127.27432118", "latitude": "37.005106257"}, {"name": "THE홈케어 안성점", "category": "other", "outputcat": "용역 서비스"}, {"name": "TO(투)", "category": "food", "outputcat": "식품/음료", "telephone": "031-675-1128", "longitude": "127.25956775", "latitude": "37.011248304"}, {"name": "TOP헤어", "category": "med", "outputcat": "의료", "telephone": "031-671-4728", "longitude": "127.26006896", "latitude": "37.009940674"}, {"name": "TP안성현대", "category": "car", "outputcat": "자동차 정비/주유", "telephone": "031-675-1009", "longitude": "127.26734685", "latitude": "37.022080045"}, {"name": "Ten to Ten(텐투텐)", "category": "food", "outputcat": "식품/음료", "telephone": "031-677-0512", "longitude": "127.47635522", "latitude": "37.091153723"}, {"name": "The Lake(더레이크)", "category": "food", "outputcat": "식품/음료", "telephone": "031-673-9958", "longitude": "127.25493139", "latitude": "37.104265508"}, {"name": "U.NA", "category": "food", "outputcat": "식품/음료", "telephone": "031-677-9192", "longitude": "127.27121385", "latitude": "37.006464921"}, {"name": "UNION", "category": "other", "outputcat": "농업", "telephone": "031-658-8200", "longitude": "127.18194228", "latitude": "37.00327217"}, {"name": "VERONKA (러시아 음식점)", "category": "food", "outputcat": "식품/음료", "telephone": "031-677-7488", "longitude": "127.27176634", "latitude": "37.003832557"}, {"name": "VIP미용재료", "category": "other", "outputcat": "회원제형태"}, {"name": "VIP스크린", "category": "other", "outputcat": "레저업소", "telephone": "031-671-3373", "longitude": "127.26162868", "latitude": "37.00933357"}, {"name": "VIP주유소/(주)케이엘페트로 안성지점", "category": "car", "outputcat": "자동차 정비/주유", "telephone": "031-676-1382", "longitude": "127.26912625", "latitude": "36.990971264"}, {"name": "VIP헤어살롱", "category": "med", "outputcat": "의료", "telephone": "031-357-6550", "longitude": "127.17508148", "latitude": "36.999912325"}, {"name": "VIP헤어살롱", "category": "med", "outputcat": "의료", "telephone": "031-655-9763", "longitude": "127.20738558", "latitude": "37.014548465"}, {"name": "VOSTOK", "category": "food", "outputcat": "식품/음료", "longitude": "127.22346847", "latitude": "37.000219734"}, {"name": "WORLD FOOD", "category": "food", "outputcat": "식품/음료", "telephone": "031-678-8088", "longitude": "127.26867778", "latitude": "37.007353671"}, {"name": "W_ORIGIN", "category": "edu", "outputcat": "교육", "telephone": "031-673-1964", "longitude": "127.17805549", "latitude": "37.003467194"}, {"name": "We 에듀", "category": "edu", "outputcat": "교육", "telephone": "031-401-3750", "longitude": "127.3125063", "latitude": "36.996110264"}, {"name": "W무인카페", "category": "med", "outputcat": "의료", "telephone": "031-651-1464", "longitude": "127.16224078", "latitude": "37.053768876"}, {"name": "Y.P상사", "category": "other", "outputcat": "건축자재", "telephone": "031-677-7734", "longitude": "127.26901973", "latitude": "36.989412654"}, {"name": "YBM ECC 안성 외국어 보습학원", "category": "edu", "outputcat": "교육", "telephone": "031-677-9595", "longitude": "127.27178922", "latitude": "37.010329191"}, {"name": "YBM잉글루", "category": "edu", "outputcat": "교육", "telephone": "031-674-0323", "longitude": "127.26346496", "latitude": "37.014051136"}, {"name": "YB유통", "category": "food", "outputcat": "식품/음료", "telephone": "031-677-2236", "longitude": "127.25134845", "latitude": "37.106012098"}, {"name": "YES", "category": "other", "outputcat": "의류", "telephone": "031-671-7176", "longitude": "127.27026306", "latitude": "37.007665484"}, {"name": "YES PC방", "category": "other", "outputcat": "레저업소", "telephone": "031-673-1837", "longitude": "127.22513277", "latitude": "37.000775292"}, {"name": "YJ INTERNATIONAL", "category": "med", "outputcat": "의료", "telephone": "031-676-3357", "longitude": "127.22510132", "latitude": "37.001550269"}, {"name": "YJ스탈링", "category": "med", "outputcat": "의료"}, {"name": "YOLO(욜로)", "category": "food", "outputcat": "식품/음료", "telephone": "031-675-9073", "longitude": "127.22538455", "latitude": "37.002360699"}, {"name": "YS코퍼레이션", "category": "other", "outputcat": "사무통신", "telephone": "070-8052-0007", "longitude": "127.26592877", "latitude": "37.008414042"}, {"name": "YS크린텍", "category": "other", "outputcat": "전기제품", "telephone": "031-654-4063", "longitude": "127.23305179", "latitude": "36.98172061"}, {"name": "Ym Total Beauty Salon", "category": "med", "outputcat": "의료", "telephone": "031-677-6985", "longitude": "127.26048477", "latitude": "37.009966805"}, {"name": "bbq", "category": "food", "outputcat": "식품/음료", "telephone": "070-1478-1236", "longitude": "127.35873203", "latitude": "37.058550365"}, {"name": "bhc안성중앙점", "category": "food", "outputcat": "식품/음료", "telephone": "031-676-2030", "longitude": "127.26954633", "latitude": "37.008333885"}, {"name": "by 클로젯", "category": "other", "outputcat": "의류"}, {"name": "couch onion(카우치어니언)", "category": "food", "outputcat": "식품/음료", "telephone": "031-618-2013", "longitude": "127.19826799", "latitude": "37.017050765"}, {"name": "e~좋은컴퓨터", "category": "other", "outputcat": "사무통신", "telephone": "031-676-9789", "longitude": "127.19240413", "latitude": "37.058464104"}, {"name": "e참아름마트", "category": "shop", "outputcat": "마트/편의점", "telephone": "031-657-7791"}, {"name": "girl스토리", "category": "other", "outputcat": "의류", "telephone": "031-677-0334", "longitude": "127.26976647", "latitude": "37.007026845"}, {"name": "hair hong(헤어 홍)", "category": "med", "outputcat": "의료", "telephone": "031-676-5882", "longitude": "127.26350979", "latitude": "37.007437216"}, {"name": "hill(힐)", "category": "food", "outputcat": "식품/음료", "telephone": "031-657-5645", "longitude": "127.15429681", "latitude": "37.050265142"}, {"name": "js coffee", "category": "food", "outputcat": "식품/음료", "telephone": "031-673-1614", "longitude": "127.27118405", "latitude": "37.010772083"}, {"name": "ktigers 삼성태권도", "category": "edu", "outputcat": "교육", "telephone": "031-616-7777", "longitude": "127.17493868", "latitude": "37.001354241"}, {"name": "m salon(엠살롱)", "category": "med", "outputcat": "의료", "telephone": "031-677-1590", "longitude": "127.26665158", "latitude": "37.015999408"}, {"name": "on", "category": "other", "outputcat": "의류", "telephone": "031-677-3383", "longitude": "127.26917554", "latitude": "37.011551522"}, {"name": "real 리얼", "category": "food", "outputcat": "식품/음료", "telephone": "031-672-8025", "longitude": "127.36294405", "latitude": "37.057690664"}, {"name": "stco안성상설점", "category": "other", "outputcat": "의류", "telephone": "031-653-9134", "longitude": "127.19516766", "latitude": "37.00854075"}, {"name": "vip주유소", "category": "car", "outputcat": "자동차 정비/주유", "telephone": "031-673-5151", "longitude": "127.26912625", "latitude": "36.990971264"}, {"name": "ya 이벤트", "category": "other", "outputcat": "용역 서비스", "telephone": "031-378-5068", "longitude": "127.32987603", "latitude": "36.978303646"}, {"name": "ㅎㅎ슬라임", "category": "food", "outputcat": "식품/음료", "telephone": "031-675-8005", "longitude": "127.27159264", "latitude": "37.008743761"}, {"name": "가가공사", "category": "other", "outputcat": "용역 서비스", "telephone": "031-671-2504", "longitude": "127.25854413", "latitude": "37.004195166"}, {"name": "가가인테리어", "category": "other", "outputcat": "직물", "telephone": "031-677-2377", "longitude": "127.2679", "latitude": "37.016330021"}, {"name": "가경크린", "category": "other", "outputcat": "용역 서비스"}, {"name": "가고싶은 곱창집", "category": "food", "outputcat": "식품/음료", "telephone": "031-673-8818", "longitude": "127.27090338", "latitude": "37.007637008"}, {"name": "가고파노래방", "category": "other", "outputcat": "레저업소", "telephone": "031-672-2125", "longitude": "127.27212361", "latitude": "37.006381765"}, {"name": "가구백화점", "category": "other", "outputcat": "가구", "telephone": "031-618-8059", "longitude": "127.12083486", "latitude": "37.038742492"}, {"name": "가까운 정문약국", "category": "med", "outputcat": "의료", "telephone": "031-674-7789", "longitude": "127.26123711", "latitude": "37.016470861"}, {"name": "가나상사", "category": "other", "outputcat": "건축자재", "longitude": "127.26363128", "latitude": "37.016690891"}, {"name": "가나안포도원", "category": "food", "outputcat": "식품/음료", "telephone": "031-653-2684", "longitude": "127.24526659", "latitude": "36.973000967"}, {"name": "가나종합설비", "category": "other", "outputcat": "건축자재", "telephone": "031-651-5022", "longitude": "127.16144213", "latitude": "36.999471781"}, {"name": "가나치과의원", "category": "med", "outputcat": "의료", "telephone": "031-658-2879"}, {"name": "가나헤어", "category": "med", "outputcat": "의료", "telephone": "031-656-2026", "longitude": "17559"}, {"name": "가나환경", "category": "other", "outputcat": "용역 서비스", "telephone": "031-677-8289", "longitude": "127.23598905", "latitude": "36.939418477"}, {"name": "가람", "category": "food", "outputcat": "식품/음료", "telephone": "031-672-9941", "longitude": "127.26507529", "latitude": "36.982357046"}, {"name": "가람미트", "category": "food", "outputcat": "식품/음료", "telephone": "031-675-6564", "longitude": "127.26885094", "latitude": "37.021581099"}, {"name": "가람인쇄", "category": "edu", "outputcat": "교육", "telephone": "031-653-2870", "longitude": "127.13122457", "latitude": "37.041074474"}, {"name": "가람인테리어", "category": "other", "outputcat": "건축자재", "telephone": "031-675-1912", "longitude": "127.26531894", "latitude": "37.014047052"}, {"name": "가르마헤어", "category": "med", "outputcat": "의료", "telephone": "031-675-9556", "longitude": "127.22483007", "latitude": "37.000992114"}, {"name": "가르텐비어", "category": "food", "outputcat": "식품/음료", "telephone": "031-654-4289", "latitude": "36.993130499", "longitude": "127.13774915"}, {"name": "가리왕산건강원", "category": "food", "outputcat": "식품/음료", "telephone": "031-651-6664", "longitude": "127.17715537", "latitude": "37.081572588"}, {"name": "가마골식당", "category": "food", "outputcat": "식품/음료", "telephone": "031-676-2466", "longitude": "127.31445402", "latitude": "36.944807217"}, {"name": "가마솥 민속두부", "category": "food", "outputcat": "식품/음료", "telephone": "031-676-9958", "longitude": "127.43691695", "latitude": "37.080600142"}, {"name": "가마솥꼬꼬", "category": "food", "outputcat": "식품/음료", "telephone": "031-674-4818", "longitude": "127.21382221", "latitude": "37.070763445"}, {"name": "가마솥들밥", "category": "food", "outputcat": "식품/음료", "telephone": "031-675-7590", "longitude": "127.30437465", "latitude": "37.002195372"}, {"name": "가마솥순두부", "category": "food", "outputcat": "식품/음료", "telephone": "031-653-3227", "longitude": "127.15835998", "latitude": "37.047160236"}, {"name": "가물치가든", "category": "food", "outputcat": "식품/음료", "telephone": "031-655-6189", "longitude": "127.16477562", "latitude": "37.072156063"}, {"name": "가물치원", "category": "food", "outputcat": "식품/음료", "telephone": "031-655-0995", "longitude": "127.16477562", "latitude": "37.072156063"}, {"name": "가미소재(주)/원격지", "category": "other", "outputcat": "기타", "telephone": "031-671-5031", "longitude": "127.4214155", "latitude": "37.028637957"}, {"name": "가민토건", "category": "other", "outputcat": "건축자재", "telephone": "031-616-7703", "longitude": "127.19858063", "latitude": "37.016275334"},