{"region": "gimpo", "data": [{"name": "(A)마터피아-김포지사", "address": "경기도 김포시 사우동 880번지 시그마프라자 702-7호", "longitude": "126.72149207", "latitude": "37.621605236"}, {"name": "(주)G1230교육 김포지점", "address": "경기도 김포시 북변동 828번지 4층", "telephone": "031-984-1230", "longitude": "126.72113725", "latitude": "37.622577439"}, {"name": "(주)김포엘피지", "address": "경기도 김포시 감정동 389-6번지", "longitude": "126.69291885", "latitude": "37.633994059"}, {"name": "(주)꿈에여행사", "address": "경기도 김포시 구래동 6883-8번지 다온프라자 508호", "longitude": "126.62589117", "latitude": "37.643988873"}, {"name": "(주)데코라인퍼니처", "address": "경기도 김포시 양촌읍 학운리 2694번지 174 (주)데코라인퍼니처", "longitude": "126.61386883", "latitude": "37.622380686"}, {"name": "(주)밸런스로", "address": "경기도 김포시 운양동 1298-3번지 헤리움타운 201호", "longitude": "126.6848005", "latitude": "37.654181153"}, {"name": "(주)석향기술", "address": "경기도 김포시 사우동 251-1번지 302호", "longitude": "126.71700066", "latitude": "37.617215716"}, {"name": "(주)써밋포인트", "address": "경기도 김포시 장기동 1692번지 2층", "longitude": "126.664113", "latitude": "37.638131401"}, {"name": "(주)씨앤에스", "address": "경기도 김포시 하성면 양택리 248-7번지 씨앤에스", "longitude": "126.63067163", "latitude": "37.737199253"}, {"name": "(주)에듀피아", "address": "경기도 김포시 사우동 931번지 제일메디컬센타 7층 TOPIA어학원", "telephone": "031-982-0509", "longitude": "126.71899519", "latitude": "37.619914438"}, {"name": "(주)에스엠에듀", "address": "경기도 김포시 북변동 829번지 한빛프라자 501호", "longitude": "126.72132876", "latitude": "37.622857197"}, {"name": "(주)에어패스", "bigCategory": "서울특별시 강남구 삼성동 166", "smallCategory": "7번지 (주)에어패스", "longitude": "127.06538423", "latitude": "37.511824101"}, {"name": "(주)에코로", "address": "경기도 김포시 운양동 1296-7번지 헤리움리버테라스 313호", "longitude": "126.68469613", "latitude": "37.65473947"}, {"name": "(주)우리고속관광", "address": "경기도 김포시 북변동 202번지 302호", "longitude": "126.70305157", "latitude": "37.627217919"}, {"name": "(주)우성환경", "address": "경기도 김포시 양촌읍 양곡리 498번지 가동 205호", "longitude": "126.62764328", "latitude": "37.660572211"}, {"name": "(주)자하브", "address": "경기도 김포시 장기동 2029-9번지 220호", "telephone": "070-8808-0852", "longitude": "126.67855265", "latitude": "37.639433332"}, {"name": "(주)중앙통신", "address": "경기도 김포시 북변동 362-4번지", "longitude": "126.70930637", "latitude": "37.626774152"}, {"name": "(주)친환경상품지원센터", "address": "경기도 김포시 걸포동 1-24번지 김포현대공구타운 1층 49호", "longitude": "126.70658244", "latitude": "37.645210183"}, {"name": "(주)하모니여행사 하나투어김포점", "address": "경기도 김포시 북변동 858번지 권재빌딩 2층", "longitude": "126.71224197", "latitude": "37.623438817"}, {"name": "(주)한강가온누리", "address": "경기도 김포시 장기동 2079-3번지 송호빌딩 7,8층", "telephone": "031-8049-3535", "longitude": "126.67777934", "latitude": "37.637494122"}, {"name": "(주)화사랑", "address": "경기도 김포시 장기동 1911-5번지 2층.3층", "telephone": "031-998-8222", "longitude": "126.67005017", "latitude": "37.645653357"}, {"name": "100억알곱창", "address": "경기도 김포시 구래동 6882-14번지 골든파크프라자 1층 107호", "longitude": "126.62495116", "latitude": "37.643904779"}, {"name": "10TAN김포한강점", "address": "경기도 김포시 구래동 6883-4번지 폴리프라자 6층", "longitude": "126.62711094", "latitude": "37.644767595"}, {"name": "12시편한약국", "address": "경기도 김포시 장기동 1399번지 장기주차타운 118호", "longitude": "126.67064318", "latitude": "37.64479911"}, {"name": "15시실내포장마차", "address": "경기도 김포시 감정동 551-6번지 성운코아빌딩 104호", "longitude": "126.699637", "latitude": "37.622830476"}, {"name": "173살롱드보떼", "address": "경기도 김포시 구래동 6882-6번지 센타프라자 2층 173살롱드보떼", "longitude": "126.62574874", "latitude": "37.645267789"}, {"name": "180국민돈가스", "address": "경기도 김포시 장기동 1615번지 1층 102호", "longitude": "126.66683848", "latitude": "37.644265774"}, {"name": "1991아빠빵집", "address": "경기도 김포시 감정동 673번지 1층 일부호", "longitude": "126.70243691", "latitude": "37.625135114"}, {"name": "19TEA 김포구래점", "address": "경기도 김포시 구래동 6879-1번지 116호 감두리빌딩 19티", "longitude": "126.62533915", "latitude": "37.645599837"}, {"name": "1급대진자동차공업사", "address": "경기도 김포시 월곶면 갈산리 182-20번지 1급대진자동차공업사", "longitude": "126.56506775", "latitude": "37.705927033"}, {"name": "1급성일카랜드", "address": "경기도 김포시 하성면 마곡리 435-11번지 성일카랜드", "longitude": "126.63719568", "latitude": "37.70934415"}, {"name": "1등급국어논술", "address": "경기도 김포시 북변동 824번지 삼정사이버프라자 401호 1등급학원", "longitude": "126.72030293", "latitude": "37.621548336"}, {"name": "1인야식", "address": "경기도 김포시 양촌읍 양곡리 1303-4번지", "telephone": "031-988-7892", "longitude": "126.62869745", "latitude": "37.656016683"}, {"name": "201트레이닝박스", "address": "경기도 김포시 운양동 1427-5번지 메디프라자 602호", "longitude": "126.68046628", "latitude": "37.64493448"}, {"name": "2040스타일", "address": "경기도 김포시 북변동 375-22번지 375ㅡ22", "longitude": "126.709806", "latitude": "37.626469064"}, {"name": "209헤어", "address": "경기도 김포시 풍무동 194-5번지 오성프라자 3층 209헤어", "telephone": "031-985-2090", "longitude": "126.72493459", "latitude": "37.606639225"}, {"name": "21세기안경원", "address": "경기도 김포시 사우동 937번지 1층", "telephone": "031-981-2175", "longitude": "126.71835942", "latitude": "37.620300325"}, {"name": "21세기헤어샵", "address": "경기도 김포시 양촌읍 양곡리 432-13번지 21세기헤어샵", "longitude": "126.62317121", "latitude": "37.655242214"}, {"name": "3030영어공부방", "address": "경기도 김포시 풍무동 797번지 한화꿈에그린더포레듀 407동 1502호", "longitude": "126.72496178", "latitude": "37.599332385"}, {"name": "33떡볶이", "address": "경기도 김포시 장기동 2193번지 상가3동 지하1층 108호", "longitude": "126.6788911", "latitude": "37.631938203"}, {"name": "33떡볶이김포구래호수점", "address": "경기도 김포시 구래동 6874-26번지 삼성프라자 109호 33떡볶이", "telephone": "031-982-5455", "longitude": "126.63352894", "latitude": "37.650653149"}, {"name": "33떡볶이장기점", "address": "경기도 김포시 장기동 1886-7번지 33떡볶이", "longitude": "126.66130506", "latitude": "37.645159859"}, {"name": "33한우고집", "address": "경기도 김포시 장기동 1390번지 1층", "longitude": "126.671357", "latitude": "37.644801118"}, {"name": "365PLUS김포양곡", "address": "경기도 김포시 양촌읍 양곡리 1299-11번지 1층", "longitude": "126.63044994", "latitude": "37.656824086"}, {"name": "4U 수학원", "address": "경기도 김포시 장기동 1600번지 나래프라자 1동 802호", "longitude": "126.66611235", "latitude": "37.644479935"}, {"name": "5.9(오구)쌀피자,치킨", "address": "경기도 김포시 장기동 1618번지 산타마리아 B동 114호", "longitude": "126.66730477", "latitude": "37.643879685"}, {"name": "59피자", "address": "경기도 김포시 양촌읍 양곡리 443번지 106호 오구쌀피자", "telephone": "031-982-5459", "longitude": "126.62289428", "latitude": "37.656214364"}, {"name": "5번지짬뽕전문점", "address": "경기도 김포시 월곶면 포내리 161번지 5번지 5번지짬뽕전문점", "longitude": "126.53678979", "latitude": "37.72342326"}, {"name": "5테이블 운양본점", "address": "경기도 김포시 운양동 1297-3번지 1층 119호 5테이블", "telephone": "031-997-5599", "longitude": "126.68227961", "latitude": "37.655381623"}, {"name": "604AVENUE / BAKERY", "address": "경기도 김포시 운양동 1297-9번지 운양프라자 114호 604avenue", "telephone": "031-998-1448", "longitude": "126.68249829", "latitude": "37.654598377"}, {"name": "60계 치킨 김포구래점", "address": "경기도 김포시 구래동 6880-7번지 1층 102호 60계치킨", "longitude": "126.62817112", "latitude": "37.64574401"}, {"name": "60계 치킨 양촌점", "address": "경기도 김포시 양촌읍 학운리 2979번지 이젠몰 다동 122호", "telephone": "031-999-7272", "longitude": "126.62098551", "latitude": "37.617331473"}, {"name": "60계치킨김포고촌점", "address": "경기도 김포시 고촌읍 신곡리 1291번지 고촌행정타운한양수자인 상가동 20호", "longitude": "10125"}, {"name": "60계치킨장기점", "address": "경기도 김포시 장기동 2021-1번지 60계치킨장기점", "telephone": "031-997-6068", "longitude": "126.67949638", "latitude": "37.641273897"}, {"name": "692대구막창", "address": "경기도 김포시 장기동 1417번지 1층", "longitude": "126.67044333", "latitude": "37.643879561"}, {"name": "7번가피자(김포사우점)", "address": "경기도 김포시 북변동 829번지 110호 7번가피자", "longitude": "126.72132876", "latitude": "37.622857197"}, {"name": "84번길", "address": "경기도 김포시 장기동 1966-8 84번길 막창순대국 전문점", "longitude": "126.67161576", "latitude": "37.64521629"}, {"name": "995인이탈리아(inItaly)", "address": "경기도 김포시 사우동 995 995in Italy"}, {"name": "A-CLASS영어전문학원", "address": "경기도 김포시 장기동 2039-9번지 비호뉴팰리스 503호", "longitude": "126.67252736", "latitude": "37.638939102"}, {"name": "A0706", "address": "경기도 김포시 양촌읍 양곡리 1297-5번지 1층 커피전뮨점", "telephone": "031-983-9500", "longitude": "126.62896997", "latitude": "37.655909431"}, {"name": "AFRICA 376길", "address": "경기도 김포시 양촌읍 양곡리 632-2번지 1층", "longitude": "126.63556111", "latitude": "37.663678428"}, {"name": "AbleGym", "address": "경기도 김포시 구래동 6885-3번지 9층 에이블짐", "longitude": "126.62694716", "latitude": "37.64354176"}, {"name": "Amitie(아미띠에)", "address": "경기도 김포시 고촌읍 신곡리 615-16번지 1층", "telephone": "031-984-0922", "longitude": "126.76827432", "latitude": "37.59963365"}, {"name": "B&G 헤어살롱 김포점", "address": "경기도 김포시 사우동 1072번지 b&g 헤어살롱", "longitude": "126.71357383", "latitude": "37.621748263"}, {"name": "BHC 고촌점", "address": "경기도 김포시 고촌읍 신곡리 1063-8 101호", "telephone": "031-986-9272", "longitude": "126.76976973", "latitude": "37.603051311"}, {"name": "BHC(대곶점)", "address": "경기도 김포시 대곶면 율생리 341-16번지 유조상베이커리 102호", "longitude": "126.5848389", "latitude": "37.650373536"}, {"name": "BHC치킨장기점", "address": "경기도 김포시 장기동 1626번지 이지더원상가 지하1층 101호", "longitude": "126.66575475", "latitude": "37.643379734"}, {"name": "BLEU", "address": "경기도 김포시 장기동 2025-5번지 한강블루 101호", "longitude": "126.67952904", "latitude": "37.638967509"}, {"name": "BMP복싱", "address": "경기도 김포시 통진읍 서암리 714-46번지 3F. BMP복싱", "longitude": "126.60159129", "latitude": "37.689542443"}, {"name": "BM마트(행운복권방)", "address": "경기도 김포시 북변동 244-1번지 행운복권방 (BM마트)", "telephone": "031-983-7805", "longitude": "126.7066861", "latitude": "37.627659564"}, {"name": "BOAZ보아즈", "address": "경기도 김포시 장기동 2053-7번지 101호", "longitude": "126.67313892", "latitude": "37.638994871"}, {"name": "BS피트니스", "address": "경기도 김포시 감정동 515-7번지 4층", "longitude": "126.69774341", "latitude": "37.623303109"}, {"name": "BYC통진점", "address": "경기도 김포시 통진읍 서암리 726-15번지 BYC 1층 비와이씨", "longitude": "126.59919958", "latitude": "37.691543418"}, {"name": "BYC할인마트", "address": "경기도 김포시 북변동 347-1번지 1층", "telephone": "031-997-5258", "longitude": "126.70819525", "latitude": "37.627023654"}, {"name": "BYSEASON(바이시즌)", "address": "경기도 김포시 풍무동 61번지", "longitude": "126.72316253", "latitude": "37.608076596"}, {"name": "Bottega(보테가)", "address": "경기도 김포시 장기동 2029-6번지 라베니체5차 102호", "longitude": "126.67883167", "latitude": "37.640407144"}, {"name": "C&C자동차마을", "address": "경기도 김포시 장기동 1535번지 1층", "longitude": "126.67261238", "latitude": "37.642768453"}, {"name": "CICA미술관", "address": "경기도 김포시 양촌읍 학운리 1556번지 CICA미술관", "longitude": "126.59783847", "latitude": "37.608190537"}, {"name": "COCO", "address": "경기도 김포시 풍무동 595번지 경기 김포풍무로20스타프라자107호", "longitude": "126.72105068", "latitude": "37.597494131"}, {"name": "CU 김포이편한점", "address": "경기도 김포시 마산동 672-3번지 e편한세상 한강신도시2차 상가동 102호", "longitude": "126.6391174", "latitude": "37.636300098"}, {"name": "CU 김포헤리움점(운양역2번출구후문)", "address": "경기도 김포시 운양동 1298-3번지 1층 김포헤리움타운", "longitude": "126.6848005", "latitude": "37.654181153"}, {"name": "CU 운양에뜰점", "address": "경기도 김포시 운양동 1305-1번지 리버에일린의뜰 상가동 108호", "longitude": "126.67291619", "latitude": "37.653490805"}, {"name": "CU김포걸포공원점", "address": "경기도 김포시 걸포동 387-77번지 CU김포걸포공원점", "longitude": "126.71024301", "latitude": "37.636353789"}, {"name": "CU김포사우중앙점", "address": "경기도 김포시 사우동 1042번지 1층 101호", "longitude": "126.71538717", "latitude": "37.621491413"}, {"name": "CU김포한강프라자점", "address": "경기도 김포시 운양동 1297-7 한강프라자 CU김포한강프라자점", "longitude": "126.68338172", "latitude": "37.654708889"}, {"name": "CU양곡탑점", "address": "경기도 김포시 양촌읍 양곡리 1238번지 상가동 103호 CU양곡탑점", "longitude": "126.63308787", "latitude": "37.661904812"}, {"name": "Cafe_remember", "address": "경기도 김포시 운양동 1296-7번지 헤리움리버테라스 119호 cafe remember", "longitude": "126.68469613", "latitude": "37.65473947"}, {"name": "D cafe(디카페)", "address": "경기도 김포시 장기동 1958-4번지 1층", "longitude": "126.67324825", "latitude": "37.64502265"}, {"name": "DEPAUSE(드포즈)", "address": "경기도 김포시 장기동 2077-6번지 라베니체마치에비뉴 1층 101호", "longitude": "126.6774168", "latitude": "37.637493123"}, {"name": "DM태권도센터성균관대", "address": "경기도 김포시 양촌읍 양곡리 1320-4번지 고다니마을 7단지 정문 앞 한솔프라자2층", "telephone": "031-986-1219", "longitude": "126.63150597", "latitude": "37.654124522"}, {"name": "Dewy coffee(듀이커피)", "address": "경기도 김포시 운양동 1339-1번지 한신더휴테라스 상가 819동 101호", "longitude": "126.68686341", "latitude": "37.654069571"}, {"name": "Do헤어", "address": "경기도 김포시 북변동 821번지 황금프라자 107호 두헤어", "longitude": "126.72041388", "latitude": "37.622161262"}, {"name": "D마트 이륙상사", "address": "경기도 김포시 북변동 822번지 D마트 이륙상사", "longitude": "126.72024483", "latitude": "37.621935615"}, {"name": "E-코딩", "address": "경기도 김포시 풍무동 270-30번지 풍무씨티프라자 304호", "longitude": "126.73268861", "latitude": "37.610747653"}, {"name": "EASTCORE SALON", "address": "경기도 김포시 마산동 662-16번지 B1F 103 EASTCORE SALON", "telephone": "031-987-8018", "longitude": "126.64460934", "latitude": "37.634523976"}, {"name": "EAT PASTA7(잇파스타세븐)", "address": "경기도 김포시 풍무동 768번지 엠씨프라자 2층 203호", "telephone": "070-4099-1919", "longitude": "126.72202679", "latitude": "37.602911317"}, {"name": "EBASE 영어전문서점", "address": "경기도 김포시 북변동 826번지 이베이스 영어전문서점 202호", "longitude": "126.72068624", "latitude": "37.622026768"}, {"name": "ECC외국어학원", "address": "경기도 김포시 북변동 827번지 상지프라자 4층", "longitude": "126.72093432", "latitude": "37.622324682"}, {"name": "EIE고려대국제어학원", "address": "경기도 김포시 구래동 6885-1번지 김포센트럴프라자2 805호", "longitude": "126.62619991", "latitude": "37.64343126"}, {"name": "EM종합학원", "address": "경기도 김포시 감정동 549-9번지 원정빌딩 5층", "longitude": "126.70007767", "latitude": "37.623101899"}, {"name": "Eie고려대국제어학원운양캠퍼스", "address": "경기도 김포시 운양동 1297-7번지 한강프라자 1동 803호", "longitude": "126.68338172", "latitude": "37.654708889"}, {"name": "FM커피", "address": "경기도 김포시 마산동 632-8번지 1층 FM커피", "longitude": "126.64214261", "latitude": "37.640931348"}, {"name": "G1230R학원", "address": "경기도 김포시 구래동 6917-2번지 601호", "telephone": "031-987-1230", "longitude": "126.62514201", "latitude": "37.646491162"}, {"name": "GFA 유소년 축구 아카데미", "address": "경기도 김포시 운양동 1427-4번지 핵심프라자 6층 GFA유소년 축구 아카데미", "longitude": "126.68080534", "latitude": "37.645133619"}, {"name": "GNB영어분석수학학원", "address": "경기도 김포시 운양동 1298-3번지 4층 413호 지앤비영어", "longitude": "126.6848005", "latitude": "37.654181153"}, {"name": "GNB유현영수전문학원", "address": "경기도 김포시 풍무동 561-9번지 가동 2층", "telephone": "031-981-0917", "longitude": "126.72574796", "latitude": "37.598027819"}, {"name": "GNG김포한강", "address": "경기도 김포시 마산동 633-12번지 1층", "longitude": "126.64069881", "latitude": "37.641936008"}, {"name": "GOGO헤어샵", "address": "경기도 김포시 사우동 200-3번지", "longitude": "126.71468861", "latitude": "37.62052567"}, {"name": "GO곱창이땡기는날", "address": "경기도 김포시 장기동 1902-7번지 1층", "longitude": "126.67041465", "latitude": "37.647771657"}, {"name": "GS25 김포1동점", "address": "경기도 김포시 북변동 140-6번지 산호프라자 북변동 757", "longitude": "126.70421734", "latitude": "37.630302194"}, {"name": "GS25 김포누산점", "address": "경기도 김포시 양촌읍 누산리 303번지 GS25김포누산점", "longitude": "126.66072496", "latitude": "37.662934226"}, {"name": "GS25 운양시티", "address": "경기도 김포시 운양동 1307-4번지 107호 gs25운양시티점", "telephone": "031-984-3733", "longitude": "126.68580242", "latitude": "37.653075662"}, {"name": "GS25고촌현대점", "address": "경기도 김포시 고촌읍 신곡리 1256번지 GS25고촌현대점", "longitude": "126.76896114", "latitude": "37.597274456"}, {"name": "GS25김포장기점", "address": "경기도 김포시 장기동 1458번지 1층", "longitude": "126.67213355", "latitude": "37.643433828"}, {"name": "GS25김포중흥점", "address": "경기도 김포시 장기동 1866-1번지 청송마을중흥에스-클래스 101호", "longitude": "126.66855308", "latitude": "37.651027894"}, {"name": "GS25김포프라자점", "address": "경기도 김포시 북변동 819번지 107호GS25김포프라자점", "longitude": "126.72066192", "latitude": "37.622468186"}, {"name": "GTC영어", "address": "경기도 김포시 장기동 1869-5번지 청송마을모아미래도엘가 504동 305호", "longitude": "126.66230404", "latitude": "37.649712628"}, {"name": "H2O피부관리", "address": "경기도 김포시 장기동 1885-6번지 E동110 한강호반베르디움 H2O피부관리실", "longitude": "126.6594075", "latitude": "37.646316597"}, {"name": "HEE헤어코디", "address": "경기도 김포시 감정동 448-16번지", "longitude": "126.70210867", "latitude": "37.627882238"}, {"name": "HEO'S헤어살롱", "address": "경기도 김포시 장기동 1642번지 고창마을반도유보라 1층 상가동", "longitude": "126.66438529", "latitude": "37.640546775"}, {"name": "HI5영어학원", "address": "경기도 김포시 장기동 1613번지 402호 하이파이브 학원", "longitude": "126.66647603", "latitude": "37.644237712"}, {"name": "HKF&D에이치케이에프앤디", "address": "경기도 김포시 장기동 2193번지 한강센트럴자이1단지 정문상가 104호", "longitude": "126.6788911", "latitude": "37.631938203"}, {"name": "Hairby제니", "address": "경기도 김포시 고촌읍 신곡리 1063-8번지 더엘스퀘어 102호 헤어바이제니", "longitude": "126.76976973", "latitude": "37.603051311"}, {"name": "IGA MART 감정점", "address": "경기도 김포시 감정동 590-14번지 3동 101호 IGA마트", "longitude": "126.69982523", "latitude": "37.621110104"}, {"name": "ILUhairshop/일루헤어", "address": "경기도 김포시 걸포동 1588번지 김포하나로마트 2층 202호 일루헤어", "longitude": "126.71277671", "latitude": "37.631575897"}, {"name": "J&J문화예술원", "address": "경기도 김포시 장기동 1602번지 정현메디피아 301호", "longitude": "126.66647326", "latitude": "37.644850361"}, {"name": "J(제이)수학학원", "address": "경기도 김포시 운양동 1296-1번지 리앤포레2차 214호", "longitude": "126.68408111", "latitude": "37.655458582"}, {"name": "J-GRIDA(제이그리다)", "address": "경기도 김포시 구래동 6884-3번지 스타프라자 605호", "longitude": "126.62358537", "latitude": "37.642882304"}, {"name": "J. Y. T 어학원", "address": "경기도 김포시 운양동 1296-7번지 헤리움리버테라스 3층 309호", "longitude": "126.68469613", "latitude": "37.65473947"}, {"name": "J.H무용학원", "address": "경기도 김포시 운양동 1307-4번지 209,210호 J.H무용학원", "longitude": "126.68580242", "latitude": "37.653075662"}, {"name": "J2MSPORTS", "address": "경기도 김포시 사우동 877번지 밀레니엄프라자 401호", "longitude": "126.72088177", "latitude": "37.62124339"}, {"name": "JAIN", "address": "경기도 김포시 구래동 6886-6번지 반도유보라4차카림애비뉴 상가동 1층 1096호", "longitude": "126.63006104", "latitude": "37.64620949"}, {"name": "JB마트", "address": "경기도 김포시 양촌읍 양곡리 1332번지 양곡휴먼시아고다니마을 상가호 103호", "longitude": "126.62819555", "latitude": "37.652158961"}, {"name": "JDX김포점", "address": "경기도 김포시 장기동 37번지 김포패션아울렛 JDX", "telephone": "031-997-5071", "longitude": "126.66774878", "latitude": "37.656016962"}, {"name": "JD입시전문학원", "address": "경기도 김포시 북변동 826번지 4층", "longitude": "126.72068624", "latitude": "37.622026768"}, {"name": "JE(제이이)과일담음", "address": "경기도 김포시 풍무동 270-30번지 씨티프라자 102호", "longitude": "126.73268861", "latitude": "37.610747653"}, {"name": "JINjewelry", "address": "경기도 김포시 풍무동 803번지 풍무동오성프라자5차 109호", "longitude": "126.72193836", "latitude": "37.602334483"}, {"name": "JJ당구클럽", "address": "경기도 김포시 구래동 6883-10번지 프라임시티 4층 401호 jj당구장", "longitude": "126.62644608", "latitude": "37.644044703"}, {"name": "JM연세음악학원", "address": "경기도 김포시 풍무동 532-3번지 프라임빌프라자 310호", "longitude": "126.72776828", "latitude": "37.59674415"}, {"name": "JPG컴퓨터", "address": "경기도 김포시 사우동 227-12번지 가동 1층", "longitude": "126.71488569", "latitude": "37.619354888"}, {"name": "JY English 영어", "address": "경기도 김포시 구래동 6889-4번지 204호", "longitude": "126.62736888", "latitude": "37.640795155"}, {"name": "Jeep 김포장기점", "address": "경기도 김포시 장기동 37 김포패션아울렛 Jeep", "telephone": "031-984-4900", "longitude": "126.66774878", "latitude": "37.656016962"}, {"name": "JinaKim뉴욕영어", "address": "경기도 김포시 양촌읍 양곡리 430-3번지 3층 뉴욕영어", "longitude": "126.62333853", "latitude": "37.655765312"}, {"name": "J커스텀", "address": "경기도 김포시 통진읍 도사리 644-12번지 J커스텀", "longitude": "126.62050593", "latitude": "37.682181382"}, {"name": "K2수학바움영어학원", "address": "경기도 김포시 운양동 1299-1번지 광장프라자 404호 K2수학 바움영어학원", "telephone": "031-988-9030", "longitude": "126.68261397", "latitude": "37.654049102"}, {"name": "K2헤어", "address": "경기도 김포시 마산동 615-1번지 김포한강엘에이치솔터마을2단지 105호", "longitude": "126.6345062", "latitude": "37.643214227"}, {"name": "KCC2차공인중개사사무소", "address": "경기도 김포시 운양동 1331-1번지 김포한강신도시2차스위첸 상가 2동 102호", "telephone": "031-985-3885", "longitude": "126.69088431", "latitude": "37.643710146"}, {"name": "KCC참조은공인중개사사무소", "address": "경기도 김포시 장기동 1886-2번지 스위첸 상다 1동 105호", "longitude": "126.66359011", "latitude": "37.645986333"}, {"name": "KL-LINE WORLD", "address": "경기도 김포시 양촌읍 양곡리 415-1번지 KL월드마트", "longitude": "126.6235041", "latitude": "37.654405389"}, {"name": "KNS 입시학원", "address": "경기도 김포시 사우동 875번지 사우프라자 7층", "longitude": "126.72124233", "latitude": "37.621748795"}, {"name": "KS유소년스포츠클럽", "address": "경기도 김포시 운양동 1303-1번지 스타빌딩 4층", "longitude": "126.67878023", "latitude": "37.657462301"}, {"name": "KTH 김포", "address": "경기도 김포시 양촌읍 유현리 209-2 다온", "longitude": "126.60553638", "latitude": "37.644958186"}, {"name": "Kim's호두과자카페(cafe)", "address": "경기도 김포시 양촌읍 양곡리 73-8번지 킴스호두과자카페", "longitude": "126.63588754", "latitude": "37.666436391"}, {"name": "KnK디지털타워스팀세차", "address": "경기도 김포시 운양동 1296-7번지 헤리움리버테라스 741호", "longitude": "126.68469613", "latitude": "37.65473947"}, {"name": "K디베이트코칭학원", "address": "경기도 김포시 북변동 829번지 한빛프라자 302호", "longitude": "126.72132876", "latitude": "37.622857197"}, {"name": "K용인대체육관", "address": "경기도 김포시 구래동 6889-2번지 5층 502. 503호", "longitude": "126.62700633", "latitude": "37.640794001"}, {"name": "L'scafe(엘스카페)", "address": "경기도 김포시 양촌읍 학운리 2863번지 1층L's cafe", "telephone": "031-997-7923", "longitude": "126.62700814", "latitude": "37.620188865"}, {"name": "L.K헤어", "address": "경기도 김포시 운양동 1298-1번지 운양동 골든스쿼어 109호", "longitude": "126.68416575", "latitude": "37.654215478"}, {"name": "LG전자 베스트샵 김포점", "address": "경기도 김포시 감정동 506-3번지 LG전자 베스트샵 김포점", "telephone": "031-997-1400", "longitude": "126.6966648", "latitude": "37.623912975"}, {"name": "LINEPLUS+관광호텔", "address": "경기도 김포시 통진읍 마송리 161-5번지", "longitude": "126.58781207", "latitude": "37.694368932"}, {"name": "LION PC김포풍무런던점", "address": "경기도 김포시 풍무동 596-7번지 1층 라이온pc방", "longitude": "126.72021231", "latitude": "37.597609253"}, {"name": "LK에듀학원", "address": "경기도 김포시 장기동 2079-3번지 6층 LK에듀학원", "longitude": "126.67777934", "latitude": "37.637494122"}, {"name": "LUEX(럭스)헤어살롱", "address": "경기도 김포시 장기동 2053-5번지 1층", "longitude": "126.67294596", "latitude": "37.639075419"}, {"name": "Lois헤어", "address": "경기도 김포시 사우동 1481번지 사우아이파크 상가 105호 로이스헤어", "longitude": "126.72652161", "latitude": "37.621527025"}, {"name": "M hair studio m헤어", "address": "경기도 김포시 운양동 1431-4번지 한강드림프라자 2층", "telephone": "031-988-1912", "longitude": "126.6807798", "latitude": "37.645800265"}, {"name": "M(엠)커피", "address": "경기도 김포시 장기동 2079-3번지 송호프라자103호 M커피", "telephone": "031-988-1965", "longitude": "126.67777934", "latitude": "37.637494122"}, {"name": "MJ공인중개사사무소", "address": "경기도 김포시 장기동 1611번지 MJ프라자 109호 MJ부동산", "telephone": "031-997-8998", "longitude": "126.66824669", "latitude": "37.643549003"}, {"name": "MNM팬덤학원", "address": "경기도 김포시 장기동 2039-7번지 메이플프라자 403호", "telephone": "031-981-9818", "longitude": "126.6730494", "latitude": "37.63874235"}, {"name": "MP아티클 헤어샵", "address": "경기도 김포시 풍무동 217번지 오렌지프라자 2층 203호 MP아티클 헤어샵", "longitude": "126.72563695", "latitude": "37.60963211"}, {"name": "MS세이빙", "address": "경기도 김포시 장기동 1881-5번지 101호", "telephone": "031-984-9436", "longitude": "126.65858179", "latitude": "37.64845849"}, {"name": "MTB사랑", "address": "경기도 김포시 통진읍 마송리 14-31번지 알톤자전거", "longitude": "126.60266585", "latitude": "37.687897341"}, {"name": "MTM수학학원", "address": "경기도 김포시 장기동 2039-1번지 5층 502-504호 mtm수학", "longitude": "126.67489312", "latitude": "37.639432225"}, {"name": "MY캘리(마이캘리)", "address": "경기도 김포시 양촌읍 양곡리 1310-17번지 1층 마이캘리", "longitude": "126.62939526", "latitude": "37.654712496"}, {"name": "MaSSe전자담배전문점", "address": "경기도 김포시 운양동 1296-1번지 리앤포레2차 101호 masse전자담배전문점", "longitude": "126.68408111", "latitude": "37.655458582"}, {"name": "M스크린 골프존파크", "address": "경기도 김포시 장기동 1364번지 희천빌딩 4층 M스크린", "longitude": "126.67041508", "latitude": "37.645131825"}, {"name": "M스포츠", "address": "경기도 김포시 대곶면 율생리 330-1번지 jdx골프", "longitude": "126.58392482", "latitude": "37.64768542"}, {"name": "NSR아라", "address": "경기도 김포시 고촌읍 전호리 707번지", "longitude": "126.78946638", "latitude": "37.593862572"}, {"name": "NuHairSalon", "address": "경기도 김포시 풍무동 421-10번지 뉴헤어 살롱", "telephone": "031-998-9590", "longitude": "126.72065914", "latitude": "37.602223314"}, {"name": "O.K기획", "address": "경기도 김포시 감정동 676번지 한국아파트 104동 603호", "longitude": "126.70021188", "latitude": "37.626318709"}, {"name": "OA-테크", "address": "경기도 김포시 북변동 134-22번지 쥬쥬 1동 103호", "longitude": "126.7049658", "latitude": "37.630105873"}, {"name": "OKLED조명", "address": "경기도 김포시 북변동 222-11번지 OK LED조명", "longitude": "126.7050744", "latitude": "37.625601295"}, {"name": "OK단지앞공인중개사사무소", "address": "경기도 김포시 구래동 6884-3번지 스타프라자 103호", "longitude": "126.62358537", "latitude": "37.642882304"}, {"name": "OK세탁소"}, {"name": "OSK마트(김포점)", "address": "경기도 김포시 감정동 554-2번지 OSK마트", "longitude": "126.69880129", "latitude": "37.622215665"}, {"name": "Openspace(오픈스페이스)", "address": "경기도 김포시 북변동 825번지 사우테마프라자2, 지하 1층", "longitude": "126.72049464", "latitude": "37.621774038"}, {"name": "Ora(오라)", "address": "경기도 김포시 장기동 1602번지 정현메디피아 304호 오라", "longitude": "126.66647326", "latitude": "37.644850361"}, {"name": "P A T 모아점", "address": "경기도 김포시 양촌읍 누산리 428-1번지 모아패션아울렛", "telephone": "031-986-0750", "longitude": "126.65599866", "latitude": "37.662992499"}, {"name": "PLATIN당구클럽", "address": "경기도 김포시 장기동 1691번지 3층", "longitude": "126.66424834", "latitude": "37.638266934"}, {"name": "PLC어학원", "address": "경기도 김포시 장기동 2025-5번지 한강블루 601호", "longitude": "126.67952904", "latitude": "37.638967509"}, {"name": "PS이화음악학원", "address": "경기도 김포시 구래동 6890-4번지 4층 401호, 보연 그랑플라스", "longitude": "126.62703557", "latitude": "37.639487692"}, {"name": "Pub.치감(치킨&감자)", "address": "경기도 김포시 사우동 1071번지 1층", "telephone": "031-986-1171", "longitude": "126.71368745", "latitude": "37.621658445"}, {"name": "S. Skin", "address": "경기도 김포시 사우동 247-1번지 Skin", "longitude": "126.71527517", "latitude": "37.618220613"}, {"name": "SACAFE(사카페)", "address": "경기도 김포시 운양동 1340-7 한강신도시 반도유보라 6차 상가 106호 사카페 (SAcafe)", "longitude": "126.68391429", "latitude": "37.652070499"}, {"name": "SAEM태권도장", "address": "경기도 김포시 운양동 1427-1번지 6층 SAEM", "telephone": "031-991-7788", "longitude": "126.68135829", "latitude": "37.645657688"}, {"name": "SDFC유소년축구교실", "address": "경기도 김포시 풍무동 532-3번지 3층317호 SDFC유소년축구교실", "longitude": "126.72776828", "latitude": "37.59674415"}, {"name": "SLJ연기뮤지컬학원", "address": "경기도 김포시 장기동 2055-3번지 센타프라자 403호", "longitude": "126.67166423", "latitude": "37.639405186"}, {"name": "SOUL(소울)", "address": "경기도 김포시 사우동 875번지 사우프라자 1층 카페소울", "longitude": "126.72124233", "latitude": "37.621748795"}, {"name": "SR휘트니스", "address": "경기도 김포시 운양동 1431-2번지 6층", "telephone": "031-988-6428", "longitude": "126.68032611", "latitude": "37.645907141"}, {"name": "SR휘트니스", "address": "경기도 김포시 걸포동 1574-3번지 케이탑리츠김포빌딩 5층 503호", "longitude": "126.70730259", "latitude": "37.632174971"}, {"name": "SUNAROI(수나로이)", "address": "경기도 김포시 장기동 2043-3번지 1층", "telephone": "031-8049-3388", "longitude": "126.67443989", "latitude": "37.639439974"}, {"name": "SW영재코딩학원", "address": "경기도 김포시 운양동 1297-7번지 한강프라자 706호", "telephone": "031-991-9871", "longitude": "126.68338172", "latitude": "37.654708889"}, {"name": "S헤어미용실", "address": "경기도 김포시 양촌읍 학운리 2796번지 1층 S헤어미용실", "longitude": "126.62492553", "latitude": "37.619884893"}, {"name": "TEMS영수학원 / 리드인", "address": "경기도 김포시 마산동 648-5번지 한강스퀘어빌딩 401호", "longitude": "126.64334019", "latitude": "37.636934709"}, {"name": "THE LAMB'S 양고기 전문점", "address": "경기도 김포시 고촌읍 신곡리 1138번지 1층 101호 더램스", "longitude": "126.77304314", "latitude": "37.602832487"}, {"name": "THE PUB with DRAFTBE", "address": "경기도 김포시 사우동 968번지 1층 생맥주가맛있는집", "telephone": "031-982-4998", "longitude": "126.71721475", "latitude": "37.620468744"}, {"name": "THE 이화음악학원", "address": "경기도 김포시 장기동 1886-5번지 한강노블레스 401호", "longitude": "126.6606689", "latitude": "37.645518403"}, {"name": "TNS학원", "address": "경기도 김포시 사우동 878번지 펠리스 204호", "longitude": "126.72107473", "latitude": "37.621135735"}, {"name": "Takea(r)rest(테이크어레스트)"}, {"name": "The Giving Tree(더기빙트리) 아카데미학원", "address": "경기도 김포시 운양동 1297-7번지 한강프라자 7층 701호", "longitude": "126.68338172", "latitude": "37.654708889"}, {"name": "The Hair by 백은채", "address": "경기도 김포시 풍무동 407-19 1층 더헤어by백은채", "telephone": "070-4197-8285", "longitude": "126.72135771", "latitude": "37.603161996"}, {"name": "The.#(더.샵)", "address": "경기도 김포시 감정동 686번지 상가동 104호 The.#/더.샵", "longitude": "126.70097122", "latitude": "37.617824496"}, {"name": "Thetable더테이블(공방&카페)", "address": "경기도 김포시 장기동 1942-4번지 101호", "longitude": "126.67605353", "latitude": "37.646102605"}, {"name": "The끌림", "address": "경기도 김포시 통진읍 서암리 758-49번지 1층 The끌림", "telephone": "031-988-7959", "longitude": "126.59986025", "latitude": "37.693068296"}, {"name": "UNA네일", "address": "경기도 김포시 운양동 1297-3번지 에비뉴파크 상가 1층 125호 유나네일살롱", "longitude": "126.68227961", "latitude": "37.655381623"}, {"name": "UTS영어학원", "address": "경기도 김포시 북변동 757번지 산호프라자 601호", "longitude": "126.70300112", "latitude": "37.628497169"}, {"name": "VIP세탁", "address": "경기도 김포시 장기동 1626번지 상가 제지하1층 105호 VIP세탁", "telephone": "031-981-5535", "longitude": "126.66575475", "latitude": "37.643379734"}, {"name": "WEE", "address": "경기도 김포시 북변동 697번지 1층", "longitude": "126.70574531", "latitude": "37.627801354"}, {"name": "W당구클럽", "address": "경기도 김포시 사우동 938번지 7층", "longitude": "126.7181566", "latitude": "37.620020534"}, {"name": "W당구클럽", "address": "경기도 김포시 구래동 6883-6번지 포인트프라자 404호", "telephone": "070-4107-0909", "longitude": "126.62647712", "latitude": "37.64463043"}, {"name": "W당구클럽", "address": "경기도 김포시 대곶면 율생리 511-7번지 2층 201호", "longitude": "126.58206111", "latitude": "37.650651968"}, {"name": "Y2K화장품", "address": "경기도 김포시 사우동 877번지 106호 Y2K화장품", "longitude": "126.72088177", "latitude": "37.62124339"}, {"name": "YBM시사영어수학학원", "address": "경기도 김포시 걸포동 1574-3번지 케이탑리츠김포빌딩 602호", "longitude": "126.70730259", "latitude": "37.632174971"}, {"name": "YG국제결혼", "address": "경기도 김포시 구래동 6880-2번지 208호", "longitude": "126.62750107", "latitude": "37.646048209"}, {"name": "YJ골프클럽", "address": "경기도 김포시 구래동 6882-6번지 센타프라자 7층 701호", "longitude": "126.62574874", "latitude": "37.645267789"}, {"name": "YJ바움영어학원", "address": "경기도 김포시 풍무동 788번지 골든프라자2차 401호", "longitude": "126.72638476", "latitude": "37.600362838"}, {"name": "YJ음악학원", "address": "경기도 김포시 장기동 2039-7번지 메이플프라자 201호 YJ음악학원", "longitude": "126.6730494", "latitude": "37.63874235"}, {"name": "YS실용음악학원", "address": "경기도 김포시 구래동 6885-1번지 센트럴프라자2 8층 803호", "longitude": "126.62619991", "latitude": "37.64343126"}, {"name": "Y미술교습소", "address": "경기도 김포시 감정동 690번지 신안실크벨리1차 상가 209호", "longitude": "126.70063586", "latitude": "37.619526474"}, {"name": "all가전프라자", "address": "경기도 김포시 통진읍 서암리 758-2번지 all가전프라자", "telephone": "031-989-1510", "longitude": "126.59930773", "latitude": "37.692507813"}, {"name": "bhc김포한강신도시점", "address": "경기도 김포시 장기동 1868-5번지 108호 bhc김포한강신도시점", "longitude": "126.66294594", "latitude": "37.64810175"}, {"name": "by yeon make-up", "address": "경기도 김포시 사우동 857번지 성가동 105호", "longitude": "126.72518831", "latitude": "37.623686226"}, {"name": "cafeMARS(카페막스)", "address": "경기도 김포시 운양동 1340-7번지 한강신도시반도유보라6차 상가동 1층 14호", "telephone": "031-988-5380", "longitude": "126.68391429", "latitude": "37.652070499"}, {"name": "cafe글린공원", "address": "경기도 김포시 양촌읍 석모리 937번지 cafe글린공원", "longitude": "126.64933946", "latitude": "37.650016855"}, {"name": "cubby(커비)", "address": "경기도 김포시 운양동 1408-1번지 1층", "longitude": "126.68188498", "latitude": "37.647019582"}, {"name": "cu양곡신협점", "address": "경기도 김포시 양촌읍 양곡리 388-50번지 cu양곡신협점", "longitude": "126.62366756", "latitude": "37.653459901"}, {"name": "e-편한치과", "address": "경기도 김포시 사우동 922번지 이프라자 404호", "telephone": "031-985-2828", "longitude": "126.72054983", "latitude": "37.619161351"}, {"name": "e고려힐링태권도", "address": "경기도 김포시 장기동 2019-1번지 강변프라자 301호", "longitude": "126.6788013", "latitude": "37.642181967"}, {"name": "e마트24김포구래골드점", "address": "경기도 김포시 구래동 6882-12번지 106호", "longitude": "126.62409202", "latitude": "37.643514608"}, {"name": "e발소", "address": "경기도 김포시 마산동 672-3번지 e편한세상 상가 108호", "longitude": "126.6391174", "latitude": "37.636300098"}, {"name": "e해법수학양도학원", "address": "경기도 김포시 풍무동 421-10번지 세명빌딩 302호", "telephone": "031-996-0804", "longitude": "126.72065914", "latitude": "37.602223314"}, {"name": "hair봄", "address": "경기도 김포시 장기동 1933-5번지 101호", "longitude": "126.67696892", "latitude": "37.646654727"}, {"name": "hannah.b(한나비)", "address": "경기도 김포시 장기동 2077-6번지 라베니체마치에비뉴6차 119호", "longitude": "126.6774168", "latitude": "37.637493123"}, {"name": "jsfamily", "address": "경기도 김포시 장기동 1850번지 1층 보로기", "longitude": "126.66825244", "latitude": "37.644792353"}, {"name": "k2 김포모아점", "address": "경기도 김포시 양촌읍 누산리 420번지 가동", "longitude": "126.65678069", "latitude": "37.662985786"}, {"name": "k뽕", "address": "경기도 김포시 장기동 2037-1번지 1층", "telephone": "031-997-0058", "longitude": "126.67519716", "latitude": "37.639856525"}, {"name": "lovelyann(러블리앤)", "address": "경기도 김포시 운양동 1297-9번지 운양프라자 3층 305호", "longitude": "126.68249829", "latitude": "37.654598377"}, {"name": "s모텔", "address": "경기도 김포시 양촌읍 구래리 222-3번지 s모텔", "longitude": "126.62388891", "latitude": "37.652271339"}, {"name": "s쏠레지아", "address": "경기도 김포시 양촌읍 누산리 420번지 모아패션아울렛 s 쏠레지아", "telephone": "031-997-8486", "longitude": "126.65678069", "latitude": "37.662985786"}, {"name": "the그릇 도자기공방", "address": "경기도 김포시 운양동 1297-1번지 1동 2층204-1호", "telephone": "031-981-9632", "longitude": "126.68172457", "latitude": "37.655326055"}, {"name": "the모아뱅뱅", "address": "경기도 김포시 양촌읍 누산리 428-1번지 뱅뱅", "longitude": "126.65599866", "latitude": "37.662992499"}, {"name": "you헤어라인", "address": "경기도 김포시 북변동 376-1번지 you헤어라인", "longitude": "126.71024648", "latitude": "37.626803516"}, {"name": "辛빨간닭발포차", "address": "경기도 김포시 사우동 882번지 사우동 네오빌 101호 오피스텔", "longitude": "126.7219654", "latitude": "37.622246053"}, {"name": "가구마트", "address": "경기도 김포시 양촌읍 석모리 970-1번지 가구마트", "longitude": "126.6453039", "latitude": "37.652707589"}, {"name": "가구사러가는날(한강김포가구단지)", "address": "경기도 김포시 운양동 1129-1번지", "telephone": "031-981-5072", "longitude": "126.66791913", "latitude": "37.658459061"}, {"name": "가구샵하나", "address": "경기도 김포시 북변동 329-7번지", "longitude": "126.70668986", "latitude": "37.626713555"}, {"name": "가구연구소", "address": "경기도 김포시 북변동 817번지 래미안프라자 614호", "longitude": "126.72110171", "latitude": "37.622991801"}, {"name": "가까운약국", "address": "경기도 김포시 사우동 1074번지 가까운약국", "telephone": "031-984-4117", "longitude": "126.71324461", "latitude": "37.62193666"}, {"name": "가나", "address": "경기도 김포시 운양동 1028번지 오스틴리드", "longitude": "126.66993803", "latitude": "37.655545649"}, {"name": "가나동방가스", "address": "경기도 김포시 대곶면 약암리 234-23번지 가나동방가스", "longitude": "126.57503455", "latitude": "37.633048869"}, {"name": "가나텔", "address": "경기도 김포시 북변동 827번지 상지프라자 1층 101호", "longitude": "126.72093432", "latitude": "37.622324682"}, {"name": "가데스에스테틱", "address": "경기도 김포시 장기동 2018-2번지 라베니체1차 2층 208호", "longitude": "126.67843956", "latitude": "37.64199177"}, {"name": "가든플러스", "address": "경기도 김포시 장기동 2053-2번지 1층", "longitude": "126.67288831", "latitude": "37.6393005"}, {"name": "가람약국", "address": "경기도 김포시 고촌읍 신곡리 574-4번지 1층", "longitude": "126.77104761", "latitude": "37.599972491"}, {"name": "가람플러스", "address": "경기도 김포시 감정동 448-15번지 3층", "longitude": "126.70227924", "latitude": "37.627720498"}, {"name": "가마로강정", "address": "경기도 김포시 북변동 825번지 사우테마프라자2 103호", "longitude": "126.72049464", "latitude": "37.621774038"}, {"name": "가마솥", "address": "경기도 김포시 사우동 992번지", "longitude": "126.71710414", "latitude": "37.619774728"}, {"name": "가마솥순대국", "address": "경기도 김포시 양촌읍 학운리 3560번지 골드프라자 1층", "longitude": "126.6179272", "latitude": "37.610771481"}, {"name": "가마솥양평해장국", "address": "경기도 김포시 월곶면 갈산리 389-4번지 가마솥양평해장국", "telephone": "031-982-0171", "longitude": "126.55892928", "latitude": "37.708426753"}, {"name": "가마솥정육식당", "address": "경기도 김포시 북변동 782번지 가마솥 정육식당", "telephone": "031-981-9503", "longitude": "126.70263635", "latitude": "37.626243815"}, {"name": "가반", "address": "경기도 김포시 대곶면 율생리 348-5 가반", "longitude": "126.58942212", "latitude": "37.651461835"}, {"name": "가브리엘헤어 소망", "address": "경기도 김포시 장기동 2055-4번지 한강메디플러스 201호", "longitude": "126.67172084", "latitude": "37.639414354"}, {"name": "가브리엘헤어소망(양곡점)", "address": "경기도 김포시 양촌읍 양곡리 1302-8번지 1층 102호 가브리엘헤어", "longitude": "126.62958249", "latitude": "37.655794245"}, {"name": "가브리엘헤어소망(운양점)", "address": "경기도 김포시 운양동 1297-9번지 운양프라자 가브리엘헤어소망 2층 201호", "longitude": "126.68249829", "latitude": "37.654598377"}, {"name": "가비", "address": "경기도 김포시 하성면 마곡리 622-6번지 가비", "longitude": "126.63082877", "latitude": "37.719396913"}, {"name": "가산이엔지앤김포판넬", "address": "경기도 김포시 대곶면 율생리 41-1번지 김포판넬", "longitude": "126.60053093", "latitude": "37.654959947"}, {"name": "가야성", "address": "경기도 김포시 양촌읍 양곡리 95번지 1층", "longitude": "126.63611219", "latitude": "37.664545067"}, {"name": "가야촌유황오리", "address": "경기도 김포시 감정동 669번지 1층", "longitude": "126.70227161", "latitude": "37.626801488"}, {"name": "가오대칼국수", "address": "경기도 김포시 양촌읍 구래리 276-3번지 1층 일부호 가오대칼국수", "longitude": "126.61855933", "latitude": "37.646379805"}, {"name": "가온누리수학", "address": "경기도 김포시 감정동 532-7번지 A동 2층 2호", "longitude": "126.69966875", "latitude": "37.62338015"}, {"name": "가온보건케어김포지사", "address": "경기도 김포시 사우동 880번지 시그마프라자 7층 701-19", "longitude": "126.72149207", "latitude": "37.621605236"}, {"name": "가온산부인과의원", "address": "경기도 김포시 운양동 1299-1번지 광장프라자 5층", "telephone": "031-984-3532", "longitude": "126.68261397", "latitude": "37.654049102"}, {"name": "가온음악학원", "address": "경기도 김포시 장기동 1886-7번지 그린프라자 5층 503호", "longitude": "126.66130506", "latitude": "37.645159859"}, {"name": "가온정육점", "address": "경기도 김포시 양촌읍 양곡리 610번지 가온정육점", "longitude": "126.63459067", "latitude": "37.662819486"}, {"name": "가윤음악학원", "address": "경기도 김포시 양촌읍 양곡리 1320-4번지 301호", "longitude": "126.63150597", "latitude": "37.654124522"}, {"name": "가자연세병원 김포점", "address": "경기도 김포시 사우동 237-2번지 2층", "telephone": "031-998-8009", "longitude": "126.71783266", "latitude": "37.618830469"}, {"name": "가장맛있는족발", "address": "경기도 김포시 고촌읍 신곡리 484-1번지 가장맛있는족발", "longitude": "126.77085202", "latitude": "37.604612131"}, {"name": "가장맛있는족발", "address": "경기도 김포시 장기동 1382번지 가장맛있는족발", "telephone": "031-985-5849", "longitude": "126.67149545", "latitude": "37.644242908"}, {"name": "가장맛있는족발", "address": "경기도 김포시 풍무동 56-1번지 1층 가장맛있는족발", "longitude": "126.72257589", "latitude": "37.607471552"}, {"name": "가정식자연밥상", "address": "경기도 김포시 양촌읍 학운리 2979번지 이젠몰 다동 218호", "longitude": "126.62098551", "latitude": "37.617331473"}, {"name": "가즈아낚시터", "address": "경기도 김포시 사우동 246-4번지 지하1층 가즈아낚시터", "longitude": "126.71736128", "latitude": "37.617694105"}, {"name": "가지런한S치과의원", "address": "경기도 김포시 사우동 937번지 6층 가지런한S교정치과", "longitude": "126.71835942", "latitude": "37.620300325"}, {"name": "가차샵", "address": "경기도 김포시 장기동 2031번지 캐널시티상가 1층 B18호", "longitude": "126.67749486", "latitude": "37.640376436"}, {"name": "가촌", "address": "경기도 김포시 하성면 전류리 243-1번지", "longitude": "126.65069475", "latitude": "37.706123779"}, {"name": "가현산생고기", "address": "경기도 김포시 운양동 1414-6번지 가현산생고기", "longitude": "126.68133011", "latitude": "37.646936984"}, {"name": "가현산손두부", "address": "경기도 김포시 양촌읍 구래리 681-10번지 가현산손두부", "telephone": "031-982-3375", "longitude": "126.63800241", "latitude": "37.632629716"}, {"name": "가현산손칼국수", "address": "경기도 김포시 양촌읍 대포리 3번지 가현산칼국수", "longitude": "126.63138999", "latitude": "37.625076986"}, {"name": "가현산시골마루", "address": "경기도 김포시 양촌읍 구래리 663-7번지 가현산시골마루", "longitude": "126.63864358", "latitude": "37.631244206"}, {"name": "가현산풍천장어", "address": "경기도 김포시 양촌읍 구래리 760-4번지 1층 가현산풍천장어", "telephone": "031-982-9985", "longitude": "126.62853502", "latitude": "37.631933343"}, {"name": "각구목빌리아드클럽", "address": "경기도 김포시 사우동 942번지 두손이리옴프라자 402호", "telephone": "031-996-0927", "longitude": "126.71785236", "latitude": "37.619605353"}, {"name": "간바레", "address": "경기도 김포시 마산동 648-2번지 이루프라자 104호", "longitude": "126.64366688", "latitude": "37.63732312"}, {"name": "갈비다움김포점", "address": "경기도 김포시 고촌읍 신곡리 610-4번지 1층 101호 갈비다움", "longitude": "126.76771787", "latitude": "37.600137089"}, {"name": "갈비도락김포점", "address": "경기도 김포시 양촌읍 석모리 916-2번지 1.2층", "longitude": "126.65036644", "latitude": "37.650902875"}, {"name": "갈비명가", "address": "경기도 김포시 걸포동 1563-4번지 오스타파라고타워 3층", "longitude": "126.70649855", "latitude": "37.632100876"}, {"name": "갈비명가지리산", "address": "경기도 김포시 장기동 1901-2번지 1층", "telephone": "031-984-9299", "longitude": "126.67038327", "latitude": "37.64718594"}, {"name": "갈비본질 구래직영점", "address": "경기도 김포시 구래동 6892-24번지 1층 갈비본질", "longitude": "126.62772513", "latitude": "37.637543798"}, {"name": "갈비성", "address": "경기도 김포시 사우동 945번지 청운펠리스 701호", "longitude": "126.71775093", "latitude": "37.619469962"}, {"name": "갈비성(고촌)", "address": "경기도 김포시 고촌읍 신곡리 1160번지 필선회관 4층", "longitude": "126.77315896", "latitude": "37.601994805"}, {"name": "갈비와밀밭", "address": "경기도 김포시 사우동 931번지 8층", "longitude": "126.71899519", "latitude": "37.619914438"}, {"name": "갈비천왕", "address": "경기도 김포시 운양동 1297-1번지 한강베네치아 2층 205호 갈비천왕", "telephone": "031-987-4210", "longitude": "126.68172457", "latitude": "37.655326055"}, {"name": "감동국수집", "address": "경기도 김포시 사우동 234-6번지 감동 국수집", "longitude": "126.71502386", "latitude": "37.618769593"}, {"name": "감미옥고촌점", "address": "경기도 김포시 고촌읍 태리 27-4번지 감미옥", "telephone": "031-986-4560", "longitude": "126.75463513", "latitude": "37.604633193"}, {"name": "감사약국", "address": "경기도 김포시 고촌읍 신곡리 532-66번지 1층 감사약국", "telephone": "031-997-3722", "longitude": "126.77157871", "latitude": "37.600333923"}, {"name": "감성공간", "address": "경기도 김포시 장기동 2080-2 엠프라자 감성공간", "longitude": "126.67702389", "latitude": "37.636663148"}, {"name": "감성커피", "address": "경기도 김포시 구래동 6882-4번지 두원타워 104호", "telephone": "070-7576-4789", "longitude": "126.62444783", "latitude": "37.64484918"}, {"name": "감성커피 김포장기점", "address": "경기도 김포시 장기동 1622번지 동서메디칼 1층 103호", "longitude": "126.66769138", "latitude": "37.643574455"}, {"name": "감성커피 풍무점", "address": "경기도 김포시 풍무동 203번지 금강리체 102호", "longitude": "126.72441077", "latitude": "37.607412827"}, {"name": "감성포차우리들", "address": "경기도 김포시 운양동 1298-3번지 운양헤리움타운 1층 112호", "telephone": "031-998-3335", "longitude": "126.6848005", "latitude": "37.654181153"}, {"name": "감정 한미태권도장", "address": "경기도 김포시 감정동 551-6번지 성운코아 2층", "longitude": "126.699637", "latitude": "37.622830476"}, {"name": "감정점기아오토큐", "address": "경기도 김포시 감정동 505번지 기아오토큐", "longitude": "126.6961306", "latitude": "37.624353063"}, {"name": "감정최강학원", "address": "경기도 김포시 감정동 554-5번지 2층 일부", "longitude": "126.6991069", "latitude": "37.62227051"}, {"name": "감천수산", "address": "경기도 김포시 통진읍 마송리 120-1번지 2층", "telephone": "031-983-7810", "longitude": "126.59669973", "latitude": "37.690480713"}, {"name": "감초당한의원", "address": "경기도 김포시 북변동 375-23번지", "longitude": "126.70963587", "latitude": "37.626522699"}, {"name": "감칠맛", "address": "경기도 김포시 운양동 1339-1번지 한신더휴테라스 819동(상가동) 1층 102호", "longitude": "126.68686341", "latitude": "37.654069571"}, {"name": "감탄 양곡점", "address": "경기도 김포시 양촌읍 양곡리 1293번지 고다니마을 상가 104호", "longitude": "126.63306883", "latitude": "37.654318635"}, {"name": "감탄장기2호점", "address": "경기도 김포시 운양동 1438번지 전원마을월드상가107 감탄장기2호점", "longitude": "126.6851652", "latitude": "37.64571305"}, {"name": "갑인스시카츠", "address": "경기도 김포시 사우동 928번지 김포아트프라자 107호", "longitude": "126.71935998", "latitude": "37.619302654"}, {"name": "갓뽑은떡볶이"}, {"name": "강남동태탕찜", "address": "경기도 김포시 양촌읍 양곡리 1312-2번지 양곡독립기념관 앞", "longitude": "126.6291381", "latitude": "37.654017938"}, {"name": "강남스타일헤어디자인", "address": "경기도 김포시 양촌읍 양곡리 415-3번지 강남스타일헤어디자인", "telephone": "031-991-2225", "longitude": "126.62342546", "latitude": "37.654269991"}, {"name": "강남유리샷시", "address": "경기도 김포시 감정동 91-4번지 나동 강남유리샷시", "longitude": "126.68369739", "latitude": "37.633906406"}, {"name": "강남태권도장", "address": "경기도 김포시 풍무동 109-5번지 우체국상가 3층 302호", "longitude": "126.7219383", "latitude": "37.605361757"}, {"name": "강남학원", "address": "경기도 김포시 북변동 823번지 영프라자 402호", "longitude": "126.72005339", "latitude": "37.621637835"}, {"name": "강릉짬뽕순두부", "address": "경기도 김포시 사우동 249 강릉짬뽕순두부", "telephone": "031-981-7810", "longitude": "126.71625022", "latitude": "37.617970713"}, {"name": "강릉해변막국수", "address": "경기도 김포시 월곶면 갈산리 465-43번지 나동 1층", "longitude": "126.57081485", "latitude": "37.700452404"}, {"name": "강릉해변막국수", "address": "경기도 김포시 풍무동 92-83번지 강릉해변 막국수", "telephone": "031-997-0471", "longitude": "126.71738264", "latitude": "37.612108126"}, {"name": "강릉해변메밀막국수", "address": "경기도 김포시 양촌읍 구래리 265-1번지 1층", "longitude": "126.6177253", "latitude": "37.647710514"}, {"name": "강미라헤어샵", "address": "경기도 김포시 사우동 1224번지 강미라헤어", "telephone": "031-998-0087", "longitude": "126.71058224", "latitude": "37.619164112"}, {"name": "강변세탁소", "address": "경기도 김포시 고촌읍 신곡리 1141번지 강변세탁소", "telephone": "031-981-3344", "longitude": "126.77340493", "latitude": "37.603022396"}, {"name": "강부자떡가게", "address": "경기도 김포시 통진읍 서암리 722-5번지 강부자떡가게", "longitude": "126.59945174", "latitude": "37.691039744"}, {"name": "강부자집", "address": "경기도 김포시 장기동 135-11번지 강부자집", "telephone": "031-982-5518", "longitude": "126.66002285", "latitude": "37.650489861"}, {"name": "강샘학원", "address": "경기도 김포시 장기동 1603번지 하나프라자 704호", "longitude": "126.66674568", "latitude": "37.644743022"}, {"name": "강언선플라워", "address": "경기도 김포시 북변동 226-9번지 강언선플라워", "longitude": "126.70629657", "latitude": "37.625910703"}, {"name": "강언선플라워 조경", "address": "경기도 김포시 북변동 226-9번지 강언선플라워조경", "longitude": "126.70629657", "latitude": "37.625910703"}, {"name": "강진청과", "address": "경기도 김포시 북변동 380-6번지 1층", "longitude": "126.71116308", "latitude": "37.627049048"}, {"name": "강철태권도", "address": "경기도 김포시 구래동 6919-11번지 4층", "longitude": "126.62488881", "latitude": "37.647265181"}, {"name": "강철학운태권도", "address": "경기도 김포시 양촌읍 학운리 2824번지 강철학운태권도장", "longitude": "126.6241396", "latitude": "37.620747304"}, {"name": "강한수학학원", "address": "경기도 김포시 장기동 2039-2번지 프레즌스빌딩 4층 401호 강한수학학원", "longitude": "126.674724", "latitude": "37.639242552"}, {"name": "강호동치킨678", "address": "경기도 김포시 사우동 887번지", "longitude": "126.72210288", "latitude": "37.621831934"}, {"name": "강화도집", "address": "경기도 김포시 월곶면 군하리 341-13번지 1층 강화도집", "longitude": "126.55436531", "latitude": "37.709283406"}, {"name": "강화섬쌀밥집(허일범)", "address": "경기도 김포시 월곶면 포내리 28-1번지 2층", "longitude": "126.5324314", "latitude": "37.729253118"}, {"name": "강화약초건강지킴이탕제원", "address": "경기도 김포시 양촌읍 양곡리 446-9번지 강화약초", "longitude": "126.62406113", "latitude": "37.656290194"}, {"name": "강화인삼", "address": "경기도 김포시 대곶면 대명리 391번지 강화인삼", "longitude": "126.56376204", "latitude": "37.646575987"}, {"name": "개구리서적", "address": "경기도 김포시 장기동 1608번지 홍우프라자 6층 603호", "longitude": "126.66797225", "latitude": "37.644106823"}, {"name": "개똥이네김포점", "address": "경기도 김포시 양촌읍 석모리 1035-3번지 개똥이네김포점", "longitude": "126.64227454", "latitude": "37.648797187"}, {"name": "개미식당", "address": "경기도 김포시 대곶면 거물대리 34-1번지", "longitude": "126.60120404", "latitude": "37.668846075"}, {"name": "개별화물", "address": "경기도 김포시 마산동 639-8번지 은여울마을경남아너스빌 204동 1604호", "longitude": "126.63665114", "latitude": "37.637887181"}, {"name": "개성손만두요리전문점", "address": "경기도 김포시 장기동 1929-5번지 개성손만두요리전문점", "longitude": "126.67671672", "latitude": "37.647320745"}, {"name": "개성슈퍼마켓", "address": "경기도 김포시 하성면 마곡리 633-26번지 개성슈퍼", "longitude": "126.63128411", "latitude": "37.719064996"}, {"name": "개인택시(70대)", "address": "경기도 김포시 전 지역"}, {"name": "갤러리PC방", "address": "경기도 김포시 사우동 873번지 신영프라자 5층 갤러리피시방", "longitude": "126.72146761", "latitude": "37.622082692"}, {"name": "갯마을간장게장", "address": "경기도 김포시 대곶면 대명리 440-6번지 갯마을간장게장", "longitude": "126.54870941", "latitude": "37.643707993"}, {"name": "갯배생선구이", "address": "경기도 김포시 월곶면 군하리 321-15번지 1층", "longitude": "126.5565935", "latitude": "37.708372888"}, {"name": "거성축산물판매장", "address": "경기도 김포시 북변동 724번지 거성축산", "telephone": "031-983-7397", "longitude": "126.70316083", "latitude": "37.628218274"}, {"name": "거성카독크", "address": "경기도 김포시 대곶면 송마리 72-12번지 거성카독크", "longitude": "126.57717043", "latitude": "37.657797078"}, {"name": "건강드림내과", "address": "경기도 김포시 풍무동 803번지 오성프라자5차 401호", "longitude": "126.72193836", "latitude": "37.602334483"}, {"name": "건강수기테라피연구회", "address": "경기도 김포시 북변동 380-3번지 b 1층", "longitude": "126.7105543", "latitude": "37.626299735"}, {"name": "건강팩토리", "address": "경기도 김포시 하성면 전류리 159번지 건강팩토리 매장", "telephone": "031-989-7785", "longitude": "126.65582753", "latitude": "37.704598361"}, {"name": "건강프라자약국"}, {"name": "건강플러스점핑", "address": "경기도 김포시 장기동 1342번지 현대2차 상가 2층 204호", "longitude": "126.6682758", "latitude": "37.647161962"}, {"name": "건강한섬완도금딸네건어물", "address": "경기도 김포시 풍무동 598-4번지 금딸네건어물", "longitude": "126.72027752", "latitude": "37.598330189"}, {"name": "건설불러중기(세종기업)", "address": "경기도 김포시 사우동 254-4번지", "longitude": "126.71599687", "latitude": "37.616105084"}, {"name": "건설불러중기(세종기업)", "address": "경기도 김포시 사우동 254-1번지", "longitude": "126.71632416", "latitude": "37.61641221"}, {"name": "건영마트", "address": "경기도 김포시 사우동 1474번지 풍년마을건영아파트 건영마트", "longitude": "126.72598988", "latitude": "37.624408887"}, {"name": "건축사사무소미소건축", "address": "경기도 김포시 고촌읍 신곡리 1104번지 아카데미프라자 가동 202호", "longitude": "126.77313716", "latitude": "37.60540045"}, {"name": "건축사사무소세림", "address": "경기도 김포시 사우동 249-6번지", "longitude": "126.7161374", "latitude": "37.617853312"}, {"name": "건축사사무소신우건축", "address": "경기도 김포시 사우동 247-6번지", "longitude": "126.71538899", "latitude": "37.618076734"}, {"name": "걸포넘버원부동산공인중개사사무소", "address": "경기도 김포시 걸포동 294-38번지 한강파크뷰우방아이유쉘 상가동 101호", "longitude": "126.70793839", "latitude": "37.634690267"}, {"name": "게랑회랑", "address": "경기도 김포시 구래동 6882-6번지 대한수산물센타 2층 206호", "longitude": "126.62574874", "latitude": "37.645267789"}, {"name": "게으른농부영농조합법인", "address": "경기도 김포시 대곶면 송마리 1482번지", "longitude": "126.5753659", "latitude": "37.648375487"}, {"name": "겐텐", "address": "경기도 김포시 장기동 2077-4번지 112, 113호", "longitude": "126.67785586", "latitude": "37.638134021"}, {"name": "경기냉열상사", "address": "경기도 김포시 통진읍 가현리 336-4번지 경기냉열상사", "longitude": "126.5977329", "latitude": "37.677708667"}, {"name": "경기도마을기업사회적협동(조)", "address": "경기도 김포시 북변동 154-2번지 2층", "longitude": "126.70086254", "latitude": "37.630690081"}, {"name": "경기마을교육공동체(하울림2호점)", "address": "경기도 김포시 풍무동 154-7번지 1층 북카페", "longitude": "126.72885129", "latitude": "37.607107881"}, {"name": "경기마을교육공동체사회적협동조합(하울림", "address": "경기도 김포시 운양동 1295-2번지 경기도김포교육지원청 1층", "telephone": "031-8049-3280", "longitude": "126.68691557", "latitude": "37.655132851"}, {"name": "경기서부인삼유통센타34호", "address": "경기도 김포시 대곶면 대명리 391번지 김포파주인삼센타 34호", "longitude": "126.56376204", "latitude": "37.646575987"}, {"name": "경기서부인삼유통센터 19호", "address": "경기도 김포시 대곶면 대명리 391번지 김포파주인삼농협 19호", "longitude": "126.56376204", "latitude": "37.646575987"}, {"name": "경기서부인삼유통센터17호", "address": "경기도 김포시 대곶면 대명리 391번지 김포파주인삼농협 17호", "longitude": "126.56376204", "latitude": "37.646575987"}, {"name": "경기서부인삼유통센터20호", "address": "경기도 김포시 대곶면 대명리 391번지 경기서부인삼 유통센터 20호", "longitude": "126.56376204", "latitude": "37.646575987"}, {"name": "경기서부인삼유통센터25호", "address": "경기도 김포시 대곶면 대명리 391번지 김포파주인삼농협 25호", "longitude": "126.56376204", "latitude": "37.646575987"}, {"name": "경기서부인삼유통센터2호", "address": "경기도 김포시 대곶면 대명리 391번지 김포파주인삼농협 2호", "longitude": "126.56376204", "latitude": "37.646575987"}, {"name": "경기서부인삼유통센터32호", "address": "경기도 김포시 대곶면 대명리 391번지 김포파주인삼유통센터 32호", "longitude": "126.56376204", "latitude": "37.646575987"}, {"name": "경기서부인삼유통센터37호", "address": "경기도 김포시 대곶면 대명리 391번지", "longitude": "126.56376204", "latitude": "37.646575987"}, {"name": "경기서부인삼유통센터제28호", "address": "경기도 김포시 대곶면 대명리 391번지 김포파주인삼농협 28호", "longitude": "126.56376204", "latitude": "37.646575987"}, {"name": "경복공예", "address": "경기도 김포시 북변동 691번지 692, 1층 105호", "longitude": "126.70602643", "latitude": "37.628324625"}, {"name": "경서프라자약국", "address": "경기도 김포시 구래동 6883-16번지 경서프라자 105호", "telephone": "070-4227-0669", "longitude": "126.62730678", "latitude": "37.644128533"}, {"name": "경성종합환경", "address": "경기도 김포시 감정동 696번지 신안실크밸리3차 상가동 211호", "longitude": "126.69577954", "latitude": "37.62157716"}, {"name": "경식이네알쌈쭈구미", "address": "경기도 김포시 대곶면 율생리 344-1번지 경기도 김포시 대곶면율생리344-1", "longitude": "126.58720248", "latitude": "37.649183605"}, {"name": "경애한의원", "address": "경기도 김포시 사우동 929번지 중앙프라자 304호", "telephone": "031-985-4148", "longitude": "126.7196081", "latitude": "37.619582551"}, {"name": "경원산업", "address": "경기도 김포시 대곶면 거물대리 127-3번지", "longitude": "126.60428703", "latitude": "37.664594983"}, {"name": "경인공조", "address": "경기도 김포시 북변동 221-19번지 1층", "longitude": "126.70444146", "latitude": "37.625248317"}, {"name": "경인통진에너지", "address": "경기도 김포시 통진읍 서암리 215-18번지 경인통진에너지", "longitude": "126.59714772", "latitude": "37.699816174"}, {"name": "경인한성에너지", "address": "경기도 김포시 월곶면 고막리 18-8번지 경인한성에너지", "longitude": "126.56520409", "latitude": "37.72709093"}, {"name": "경희대 멘토 태권도장", "address": "경기도 김포시 마산동 626-11번지 대성프라자 5층 경희대멘토태권도장", "longitude": "126.63986646", "latitude": "37.643014609"}, {"name": "경희대 천하 태권도", "address": "경기도 김포시 장기동 2058-1번지 한강신도시초당마을중흥에스-클래스리버티 상가동 201호 202호", "telephone": "031-997-6511", "longitude": "126.66965225", "latitude": "37.638345388"}, {"name": "경희대글로벌태권도장", "address": "경기도 김포시 장기동 1886-6번지 6층", "telephone": "031-997-8883", "longitude": "126.66099839", "latitude": "37.645321145"}, {"name": "경희대석사 MMA&태권도장", "address": "경기도 김포시 장기동 2039-4번지 601호", "longitude": "126.67424974", "latitude": "37.638880845"}, {"name": "경희대석사백호태권도장", "address": "경기도 김포시 북변동 819번지 501호 경희대석사백호태권도", "longitude": "126.72066192", "latitude": "37.622468186"}, {"name": "경희대석사아이스타태권장", "address": "경기도 김포시 구래동 6874-23번지 슈퍼스타타워6층 1,2,3,4호 아이스타태권도", "longitude": "126.63295171", "latitude": "37.650516195"}, {"name": "경희대슈퍼아이태권도", "address": "경기도 김포시 구래동 6890-1번지 노블레스 6층 슈퍼아이 태권도", "longitude": "126.627089", "latitude": "37.640127549"}, {"name": "경희대에이티엠(ATM)태권도장", "address": "경기도 김포시 풍무동 277-9번지 8층", "longitude": "126.73169217", "latitude": "37.610691309"}, {"name": "경희대유현멘토태권도교육관", "address": "경기도 김포시 풍무동 561-2번지 대원프라자 3층 경희대유현멘토태권도", "longitude": "126.72632536", "latitude": "37.598056202"}, {"name": "경희대탑태권도장", "address": "경기도 김포시 운양동 1249-1번지 단지내 상가 1층 103호 경희대 탑 태권도", "longitude": "126.68058664", "latitude": "37.659034929"}, {"name": "경희대태권쏭 태권도장", "address": "경기도 김포시 구래동 6890-4번지 5층", "longitude": "126.62703557", "latitude": "37.639487692"}, {"name": "경희미술학원", "address": "경기도 김포시 북변동 136번지", "telephone": "031-983-7552", "longitude": "126.70551859", "latitude": "37.630683888"}, {"name": "경희솔한의원", "address": "경기도 김포시 운양동 1297-9번지 운양프라자 403호", "telephone": "031-990-2563", "longitude": "126.68249829", "latitude": "37.654598377"}, {"name": "경희어린이집", "address": "경기도 김포시 북변동 136번지", "telephone": "031-983-7552", "longitude": "126.70551859", "latitude": "37.630683888"}, {"name": "경희장수한의원", "address": "경기도 김포시 풍무동 189-3번지 삼성프라자 402호 경희장수한의원", "longitude": "126.72535157", "latitude": "37.6071898"}, {"name": "경희하늘한의원", "address": "경기도 김포시 장기동 1868-8번지 402호", "longitude": "126.66275495", "latitude": "37.647740813"}, {"name": "경희한의원", "address": "경기도 김포시 고촌읍 신곡리 539-8번지 길훈상가2층 203호204호", "longitude": "126.77049145", "latitude": "37.604025787"}, {"name": "계동치킨김포점", "address": "경기도 김포시 북변동 737번지", "longitude": "126.70327389", "latitude": "37.628272619"}, {"name": "계룡나비마을공인중개사사무소1", "address": "경기도 김포시 구래동 6888-2번지 제상가동 제1층101호", "longitude": "126.62722676", "latitude": "37.642020017"}, {"name": "계룡호", "address": "경기도 김포시 대곶면 대명리 551-4번지 계룡호", "longitude": "126.54134944", "latitude": "37.639264708"}, {"name": "계수WHY수학학원", "address": "경기도 김포시 장기동 2039-9번지 비호팰리스 402호", "longitude": "126.67252736", "latitude": "37.638939102"}, {"name": "계약잘하는부동산공인중개사사무소", "address": "경기도 김포시 구래동 6888-4번지 구래역화성파크드림 상가 104호", "longitude": "126.62834205", "latitude": "37.643293925"}, {"name": "고고점핑", "address": "경기도 김포시 풍무동 748번지 월드메르디앙 상가동 3층 301호", "longitude": "126.71777242", "latitude": "37.601973113"}, {"name": "고고점핑다이어트", "address": "경기도 김포시 장기동 2055-4번지 한강메디플러스 601호", "longitude": "126.67172084", "latitude": "37.639414354"}, {"name": "고구려짬뽕10101김포한강신도시점", "address": "경기도 김포시 장기동 1870-2번지 1층", "longitude": "126.661772", "latitude": "37.652071621"}, {"name": "고기굼터육방", "address": "경기도 김포시 풍무동 145-3번지 1층", "longitude": "126.729024", "latitude": "37.606333444"}, {"name": "고기굽는이코치", "address": "경기도 김포시 감정동 551-8번지 이삼메디칼센타 118호", "longitude": "126.69949169", "latitude": "37.622352588"}, {"name": "고기깡돌33", "address": "경기도 김포시 구래동 6891-6번지 101호", "longitude": "126.62819468", "latitude": "37.638797634"}, {"name": "고기데이", "address": "경기도 김포시 양촌읍 양곡리 1309-4번지", "longitude": "126.62875295", "latitude": "37.653989689"}, {"name": "고기야", "address": "경기도 김포시 풍무동 662-1번지 1층 고기야", "longitude": "126.71493967", "latitude": "37.605353899"}, {"name": "고기원칙 김포장기점", "address": "경기도 김포시 장기동 2025-5번지 110,111호 고기원칙", "longitude": "126.67952904", "latitude": "37.638967509"}, {"name": "고기원칙김포풍무점", "address": "경기도 김포시 풍무동 158-2번지 1층", "longitude": "126.72737802", "latitude": "37.607383753"}, {"name": "고노마마", "address": "경기도 김포시 사우동 981번지 1층", "longitude": "126.71608088", "latitude": "37.620772324"}, {"name": "고다니어린이집", "address": "경기도 김포시 양촌읍 양곡리 1318번지 양곡휴먼시아고다니마을 고다니어린이집", "longitude": "126.63300178", "latitude": "37.654129222"}, {"name": "고려공사", "address": "경기도 김포시 통진읍 도사리 896-16번지", "longitude": "126.62591776", "latitude": "37.679072471"}, {"name": "고려당", "address": "경기도 김포시 통진읍 서암리 720-16번지 고려당", "longitude": "126.59955558", "latitude": "37.690706745"}, {"name": "고려대화랑태권도", "address": "경기도 김포시 고촌읍 신곡리 1105번지 다빈치프라자 201호 1,2층 화랑태권도", "longitude": "126.77329618", "latitude": "37.605247593"}, {"name": "고려문고", "address": "경기도 김포시 통진읍 마송리 63-11번지 1층 고려문고", "longitude": "126.60092312", "latitude": "37.689405024"}, {"name": "고려영어전문학원", "address": "경기도 김포시 장기동 1600번지 701호 고려영어전문학원", "longitude": "126.66607844", "latitude": "37.644461819"}, {"name": "고려칠감", "address": "경기도 김포시 양촌읍 학운리 1215번지 고려페인트", "longitude": "126.59301135", "latitude": "37.606606182"}, {"name": "고막리커피", "address": "경기도 김포시 월곶면 고막리 305-10번지 1층", "telephone": "031-981-6178", "longitude": "126.55775545", "latitude": "37.724558396"}, {"name": "고매쓰아카데미", "address": "경기도 김포시 운양동 1298-3번지 김포운양헤리움타운 507호 고수학전문학원", "telephone": "031-996-7675", "longitude": "126.6848005", "latitude": "37.654181153"}, {"name": "고매쓰아카데미광장지점", "address": "경기도 김포시 운양동 1299-1번지 고수학전문학원 광장지점", "telephone": "031-996-7675", "longitude": "126.68261397", "latitude": "37.654049102"}, {"name": "고맥하우스", "address": "경기도 김포시 고촌읍 신곡리 590-3번지 2층 고맥하우스", "telephone": "070-7311-1463", "longitude": "126.77071472", "latitude": "37.597773455"}, {"name": "고봉민김밥김포장기점", "address": "경기도 김포시 장기동 2039-10번지 경서프라자 102호", "telephone": "031-988-9833", "longitude": "126.67230017", "latitude": "37.639073611"}, {"name": "고수꼬치", "address": "경기도 김포시 구래동 6880-7번지 월드에비뉴 110호 고수꼬치", "longitude": "126.62817112", "latitude": "37.64574401"}, {"name": "고스미장", "address": "경기도 김포시 고촌읍 신곡리 1256번지 수기마을 힐스테이트2단지상가 지하 101.102호", "longitude": "126.76896114", "latitude": "37.597274456"}, {"name": "고연아틀리에(KoYeonatelier", "address": "경기도 김포시 풍무동 190-1번지 에비뉴 101호 꽃집", "longitude": "126.72605331", "latitude": "37.607299565"}, {"name": "고운선발레아카데미", "address": "경기도 김포시 고촌읍 신곡리 610-3번지 4층", "longitude": "126.76749105", "latitude": "37.600244754"}, {"name": "고운여성의원", "address": "경기도 김포시 장기동 1607번지 승문프라자 504호", "telephone": "031-988-7582", "longitude": "126.66772237", "latitude": "37.644241259"}, {"name": "고은메디칼약국", "address": "경기도 김포시 구래동 6885-2번지 고은메디타워 105호", "telephone": "070-4115-9107", "longitude": "126.62658487", "latitude": "37.643486547"}, {"name": "고은피부샵", "address": "경기도 김포시 북변동 688번지 대우아파트 상가동 202호", "longitude": "126.7031326", "latitude": "37.629605696"}, {"name": "고창풍천민물장어", "address": "경기도 김포시 운양동 5126-2번지 1층", "telephone": "031-997-5339", "longitude": "126.69238744", "latitude": "37.652795858"}, {"name": "고천성모의원", "address": "경기도 김포시 고촌읍 신곡리 1072번지", "longitude": "126.76996457", "latitude": "37.602303886"}, {"name": "고촌 검도관", "address": "경기도 김포시 고촌읍 신곡리 538-5번지 우성빌딩 고촌검도관", "telephone": "031-986-2334", "longitude": "126.77038054", "latitude": "37.60327776"}, {"name": "고촌129전집", "address": "경기도 김포시 고촌읍 신곡리 1291번지 고촌행정타운한양수자인 12호", "longitude": "10125"}, {"name": "고촌노래연습장", "address": "경기도 김포시 고촌읍 신곡리 538-5번지 고촌노래연습장", "longitude": "126.77038054", "latitude": "37.60327776"}, {"name": "고촌농협 로컬푸드직매장", "address": "경기도 김포시 고촌읍 태리 31-14번지 1층 고촌농협장곡지점 로컬푸드직매장", "telephone": "031-986-4312", "longitude": "126.75293308", "latitude": "37.605638692"}, {"name": "고촌동물병원", "address": "경기도 김포시 고촌읍 신곡리 580-1번지 고촌동물병원", "longitude": "126.77185505", "latitude": "37.598856864"}, {"name": "고촌면 이태리", "address": "경기도 김포시 고촌읍 신곡리 615-18번지 1층 고촌면 이태리", "longitude": "126.76846682", "latitude": "37.599634032"}, {"name": "고촌목욕탕", "address": "경기도 김포시 고촌읍 신곡리 485-2번지 고촌목욕탕", "longitude": "126.7706607", "latitude": "37.604224335"}, {"name": "고촌본정형외과의원", "address": "경기도 김포시 고촌읍 신곡리 567-8번지 5층", "longitude": "126.76979833", "latitude": "37.601141299"}, {"name": "고촌세차", "address": "경기도 김포시 고촌읍 신곡리 1063-1번지 고촌세차", "longitude": "126.76948549", "latitude": "37.603411139"}, {"name": "고촌숙명음악학원", "address": "경기도 김포시 고촌읍 신곡리 1105번지 다빈치프라자 301호", "telephone": "031-989-6542", "longitude": "126.77329618", "latitude": "37.605247593"}, {"name": "고촌스포츠", "address": "경기도 김포시 고촌읍 신곡리 1128번지 고촌스포츠", "longitude": "126.77284882", "latitude": "37.603417742"}, {"name": "고촌약국", "address": "경기도 김포시 고촌읍 신곡리 1072번지 고촌약국", "longitude": "126.76996457", "latitude": "37.602303886"}, {"name": "고촌연탄집", "address": "경기도 김포시 고촌읍 신곡리 1063-3번지 1층", "longitude": "126.76940681", "latitude": "37.603221779"}, {"name": "고촌열쇠", "address": "경기도 김포시 고촌읍 신곡리 538-1번지 1호 고촌열쇠", "longitude": "126.77049274", "latitude": "37.603611341"}, {"name": "고촌이비인후과", "address": "경기도 김포시 고촌읍 신곡리 567-8번지 404호", "telephone": "031-996-1787", "longitude": "126.76979833", "latitude": "37.601141299"}, {"name": "고촌이제마체질독서실", "address": "경기도 김포시 고촌읍 신곡리 1062-8번지 3층", "longitude": "126.76902041", "latitude": "37.603662492"}, {"name": "고촌점기아오토큐 주식회사", "address": "경기도 김포시 고촌읍 신곡리 1080번지 기아오토큐 고촌점", "longitude": "126.77281998", "latitude": "37.601750881"}, {"name": "고촌풍천민물장어", "address": "경기도 김포시 고촌읍 신곡리 532-122번지 고촌풍천민물장어", "longitude": "126.77120363", "latitude": "37.600783676"}, {"name": "고촌피자스쿨", "address": "경기도 김포시 고촌읍 신곡리 533-30번지 1층 104호", "longitude": "126.76960166", "latitude": "37.602474354"}, {"name": "고촌한의원", "address": "경기도 김포시 고촌읍 신곡리 532-82번지 1층", "telephone": "031-985-5750", "longitude": "126.77068093", "latitude": "37.601359273"}, {"name": "고촌해물전골전문점", "address": "경기도 김포시 고촌읍 태리 287-1번지 1층", "longitude": "126.75002377", "latitude": "37.605299134"}, {"name": "고향", "address": "경기도 김포시 사우동 204-11번지", "longitude": "126.71290749", "latitude": "37.621242084"}, {"name": "고향농수산물", "address": "경기도 김포시 양촌읍 양곡리 419-11번지", "longitude": "126.62345327", "latitude": "37.655486382"}, {"name": "고향옥얼큰순대국", "address": "경기도 김포시 구래동 6883-10번지 101,102호", "longitude": "126.62644608", "latitude": "37.644044703"}, {"name": "고향옥얼큰순대국구래점", "address": "경기도 김포시 구래동 6883-10번지 프라임시티 101,102호", "longitude": "126.62644608", "latitude": "37.644044703"}, {"name": "고향옥얼큰순대국풍무점", "address": "경기도 김포시 풍무동 190-1번지 1층(101호,102호)", "telephone": "031-981-8886", "longitude": "126.72605331", "latitude": "37.607299565"}, {"name": "고흐숲미술학원", "address": "경기도 김포시 구래동 6884-8번지 김포센트럴프라자 603호", "longitude": "126.62564527", "latitude": "37.643321372"}, {"name": "곤드레보리밥", "address": "경기도 김포시 풍무동 532-3번지 프라임빌복합상가 217호", "longitude": "126.72776828", "latitude": "37.59674415"}, {"name": "곤지암식당", "address": "경기도 김포시 월곶면 군하리 194-3번지 1층", "longitude": "126.55301353", "latitude": "37.715287616"}, {"name": "골드링", "address": "경기도 김포시 통진읍 마송리 109-16번지 1층 골드링", "telephone": "031-988-8988", "longitude": "126.59833792", "latitude": "37.691540465"}, {"name": "골드뱅크", "address": "경기도 김포시 사우동 934번지 김포코아센타 104호 골드뱅크", "longitude": "126.71844303", "latitude": "37.619165302"}, {"name": "골드아카데미학원", "address": "경기도 김포시 장기동 2019-1번지 강변프라자 304호", "telephone": "031-985-3638", "longitude": "126.6788013", "latitude": "37.642181967"}, {"name": "골드푸르지오공인중개사사무소"}, {"name": "골드헤어", "address": "경기도 김포시 양촌읍 양곡리 418-6번지 골드헤어", "longitude": "126.62355792", "latitude": "37.654964159"}, {"name": "골든벨노래연습장", "address": "경기도 김포시 사우동 998번지", "longitude": "126.71618473", "latitude": "37.620277042"}, {"name": "골든빈스커피", "address": "경기도 김포시 양촌읍 양곡리 1312-3번지 골든빈스커피", "longitude": "126.62925142", "latitude": "37.654018297"}, {"name": "골든타임공인중개사수무소", "address": "경기도 김포시 장기동 2080-2번지 엠프라자 105호", "longitude": "126.67702389", "latitude": "37.636663148"}, {"name": "골목길", "address": "경기도 김포시 북변동 285-2번지 1층", "longitude": "126.71062979", "latitude": "37.627272971"}, {"name": "골목집모듬구이", "address": "경기도 김포시 고촌읍 신곡리 1081-5번지 1층 101호 골목집", "longitude": "126.77154106", "latitude": "37.601523138"}, {"name": "골프굿", "address": "경기도 김포시 사우동 546-3번지 골프굿", "longitude": "126.73499534", "latitude": "37.611771012"}, {"name": "곰사냥을떠나자", "address": "경기도 김포시 고촌읍 신곡리 591-15번지 진성빌라 6동 1층 곰사냥을 떠나자", "telephone": "070-7778-9107", "longitude": "126.77064611", "latitude": "37.597989554"}, {"name": "곱깨비(김포장기점)", "address": "경기도 김포시 장기동 1397번지 1층", "longitude": "126.67099507", "latitude": "37.644655946"}, {"name": "곱깨비통진점", "address": "경기도 김포시 통진읍 마송리 575-1번지", "telephone": "031-981-5010", "longitude": "126.60455542", "latitude": "37.688597476"}, {"name": "곱깨비통진점", "address": "경기도 김포시 통진읍 마송리 575-1번지 반석 102호", "longitude": "126.60455542", "latitude": "37.688597476"}, {"name": "곱창고구래역점", "address": "경기도 김포시 구래동 6883-1번지 120호", "longitude": "126.62622394", "latitude": "37.645404452"}, {"name": "곱창끼리", "address": "경기도 김포시 장기동 1406번지 가동 101호,102호", "longitude": "126.67124766", "latitude": "37.643908853"}, {"name": "곱창끼리2", "address": "경기도 김포시 장기동 1484번지 1층", "longitude": "126.67191456", "latitude": "37.644271113"}, {"name": "곱창이야기김포구래점", "address": "경기도 김포시 구래동 6882-6번지 센터프라자 121호", "telephone": "031-989-0159", "longitude": "126.62574874", "latitude": "37.645267789"}, {"name": "곱창이야기김포사우점", "address": "경기도 김포시 사우동 978번지 1층", "telephone": "031-986-2189", "longitude": "126.71646686", "latitude": "37.620548019"}, {"name": "공간광고", "address": "경기도 김포시 장기동 47-3번지 공간광고", "longitude": "126.66461422", "latitude": "37.657521636"}, {"name": "공간사랑커튼,침구", "address": "경기도 김포시 양촌읍 양곡리 423번지 우먼로드", "telephone": "031-983-5279", "longitude": "126.6236656", "latitude": "37.656072692"}, {"name": "공간호재", "address": "경기도 김포시 장기동 1690번지 201호 공간호재", "longitude": "126.66436099", "latitude": "37.638411412"}, {"name": "공감헤어", "address": "경기도 김포시 풍무동 277-9번지 대우프라자 302호 공감헤어", "longitude": "126.73169217", "latitude": "37.610691309"}, {"name": "공공안경타운", "address": "경기도 김포시 고촌읍 신곡리 573-5번지 1층", "longitude": "126.77076401", "latitude": "37.600134109"}, {"name": "공센트", "address": "경기도 김포시 구래동 6882-17번지 서경프라자6층604A호 공센트", "longitude": "126.62503175", "latitude": "37.643652766"}, {"name": "공유식탁", "address": "경기도 김포시 장기동 1474번지 1층", "longitude": "126.67233283", "latitude": "37.644488518"}, {"name": "공이집", "address": "경기도 김포시 장기동 2025-3번지 장기도베네치아의아침 101동 102호", "longitude": "126.68000321", "latitude": "37.639356224"}, {"name": "공차김포장기점", "address": "경기도 김포시 장기동 1617번지 레드클로버 101호", "telephone": "031-985-5786", "longitude": "126.66699796", "latitude": "37.644077025"}, {"name": "공차코리아김포풍무점", "address": "경기도 김포시 풍무동 803번지 오성프라자 106호", "telephone": "031-983-5129", "longitude": "126.72193836", "latitude": "37.602334483"}, {"name": "공터영어 1학원", "address": "경기도 김포시 장기동 1886-5번지 한강노블레스 2층 203호", "longitude": "126.6606689", "latitude": "37.645518403"}, {"name": "과수원길협동조합", "address": "경기도 김포시 하성면 양택리 72-5번지 1층", "longitude": "126.62532895", "latitude": "37.737065139"}, {"name": "과수원집", "address": "경기도 김포시 운양동 1297-1번지 1층 과수원", "telephone": "031-990-3656", "longitude": "126.68172457", "latitude": "37.655326055"}, {"name": "과일마시랑", "address": "경기도 김포시 풍무동 187-2번지 동방프라자 101호 과일마시랑", "longitude": "126.72519239", "latitude": "37.607360611"}, {"name": "과일바구니", "address": "경기도 김포시 북변동 182-13번지 예전디자인 1층 10호", "telephone": "031-984-7875", "longitude": "126.70427567", "latitude": "37.629878886"}, {"name": "과일언니 야채오빠", "address": "경기도 김포시 장기동 2039-9번지 비호뉴팰리스 105호", "longitude": "126.67252736", "latitude": "37.638939102"}, {"name": "과일연가(한국프루트)", "address": "경기도 김포시 장기동 2029-9번지 라베니체마치에비뉴4 111호", "longitude": "126.67855265", "latitude": "37.639433332"}, {"name": "과일전문점(오빠네)", "address": "경기도 김포시 운양동 1301-1번지 근린상가 107호", "longitude": "126.67891201", "latitude": "37.655822906"}, {"name": "과학고수학교습소", "address": "경기도 김포시 운양동 1339-1번지 한신더휴테라스 820동 206호", "longitude": "126.68686341", "latitude": "37.654069571"}, {"name": "과학러닝센터학원", "address": "경기도 김포시 운양동 1297-9번지 운양프라자 5층 508호", "longitude": "126.68249829", "latitude": "37.654598377"}, {"name": "광고일번지", "address": "경기도 김포시 장기동 147-9번지 광고일번지", "longitude": "126.65877819", "latitude": "37.650098822"}, {"name": "광목이야기", "address": "경기도 김포시 장기동 1948-7번지 101호 광목이야기", "longitude": "126.67214095", "latitude": "37.646875542"}, {"name": "광성1호(젓갈,건어물)", "address": "경기도 김포시 대곶면 대명리 551-4번지 젓갈건어물시장 광성1호", "longitude": "126.54134944", "latitude": "37.639264708"}, {"name": "광성산업", "address": "경기도 김포시 통진읍 수참리 504번지 1", "longitude": "126.62777854", "latitude": "37.678736039"}, {"name": "광장당구장", "address": "경기도 김포시 운양동 1299-1번지 5층 광장당구장", "telephone": "031-992-4614", "longitude": "126.68261397", "latitude": "37.654049102"}, {"name": "교다이", "address": "경기도 김포시 장기동 1966-1번지 교가이", "longitude": "126.67182997", "latitude": "37.645460152"}, {"name": "교동짬뽕(현궁)", "address": "경기도 김포시 사우동 250-7번지 1층", "longitude": "126.71597145", "latitude": "37.616825801"}, {"name": "교촌치킨(고촌점)", "address": "경기도 김포시 고촌읍 신곡리 1052번지 숲속마을대우아파트 상가104호 교촌치킨", "telephone": "031-983-0065", "longitude": "126.76821094", "latitude": "37.605390757"}, {"name": "교촌치킨구래점", "address": "경기도 김포시 구래동 6883-1번지 111호 교촌치킨구래점", "telephone": "031-985-2991", "longitude": "126.62622394", "latitude": "37.645404452"}, {"name": "교촌치킨사우점", "address": "경기도 김포시 사우동 998번지 1층", "telephone": "031-997-9285", "longitude": "126.71618473", "latitude": "37.620277042"}, {"name": "교촌치킨운양점", "address": "경기도 김포시 운양동 1297-6번지 123호 교촌치킨 운양점", "longitude": "126.6831868", "latitude": "37.65523993"}, {"name": "교촌치킨통진1호점", "address": "경기도 김포시 통진읍 서암리 758-79번지 1층", "telephone": "031-989-4545", "longitude": "126.59958785", "latitude": "37.693121422"}, {"name": "교촌치킨풍무점", "address": "경기도 김포시 풍무동 429-11번지 1층", "longitude": "126.72087903", "latitude": "37.600971485"}, {"name": "구구스튜디오", "address": "경기도 김포시 통진읍 마송리 102-3번지 김포파주인삼농협하나로마트 3층", "longitude": "126.59992364", "latitude": "37.689734968"}, {"name": "구래C&C미술학원", "address": "경기도 김포시 구래동 6885-3 웅신프라자 7층 C&C미술학원", "longitude": "126.62694716", "latitude": "37.64354176"}, {"name": "구래경희한의원", "address": "경기도 김포시 구래동 6885-2번지 고은메디타워 3층 303호", "longitude": "126.62658487", "latitude": "37.643486547"}, {"name": "구래동 포장마차", "address": "경기도 김포시 구래동 6883-10번지 프라임시티 108호 구래동 포장마차", "longitude": "126.62644608", "latitude": "37.644044703"}, {"name": "구래동.생각키움연구소(수학.체스)", "address": "경기도 김포시 구래동 6873-8번지 한가람마을우미린 101동 402호", "longitude": "126.62542804", "latitude": "37.648185893"}, {"name": "구래동주민자치센터", "address": "경기도 김포시 구래동 6872-5번지 구래동 주민센처", "longitude": "126.62366943", "latitude": "37.646405351"}, {"name": "구래떡방앗간", "address": "경기도 김포시 양촌읍 구래리 224-7번지 구래떡방앗간", "longitude": "126.62425197", "latitude": "37.652182409"}, {"name": "구래어린이집", "address": "경기도 김포시 구래동 6872-2번지 관리동 구래어린이집", "longitude": "126.62097309", "latitude": "37.646324576"}, {"name": "구래역부동산공인중개사사무소", "address": "경기도 김포시 구래동 6878-14번지 연세6차라스토케더테라스 101호", "telephone": "031-997-4410", "longitude": "126.62178571", "latitude": "37.642516118"}, {"name": "구래역앞 시크릿", "address": "경기도 김포시 구래동 6880-7번지 월드에비뉴 109호", "longitude": "126.62817112", "latitude": "37.64574401"}, {"name": "구래요양보호사 교육원", "address": "경기도 김포시 구래동 6917-1번지 리치프라자2, 4층 403호", "longitude": "126.62508408", "latitude": "37.646743247"}, {"name": "구래점핑다이어트", "address": "경기도 김포시 구래동 6883-4번지 406호 구래점핑다이어트", "longitude": "126.62711094", "latitude": "37.644767595"}, {"name": "구래진볼링장", "address": "경기도 김포시 구래동 6882-4번지 두원타워 7층 진볼링장", "telephone": "031-998-9998", "longitude": "126.62444783", "latitude": "37.64484918"}, {"name": "구래진짜롤라장", "address": "경기도 김포시 구래동 6882-4번지 6층 구래진짜롤러장", "longitude": "126.62444783", "latitude": "37.64484918"}, {"name": "구래참치", "address": "경기도 김포시 구래동 6883-6번지 포인트프라자 106호", "longitude": "126.62647712", "latitude": "37.64463043"}, {"name": "구래한돌바둑학원", "address": "경기도 김포시 구래동 6885-1번지 김포센트럴프라자2 802호", "longitude": "126.62619991", "latitude": "37.64343126"}, {"name": "구래한의원", "address": "경기도 김포시 구래동 6886-6번지 한강신도시반도유보라4차 2007호", "longitude": "126.63006104", "latitude": "37.64620949"}, {"name": "구래회관", "address": "경기도 김포시 구래동 6890-11번지 103호", "telephone": "031-985-2942", "longitude": "126.62697318", "latitude": "37.638379304"}, {"name": "구름아이스", "address": "경기도 김포시 운양동 1435-1번지 상가 아이스크림할인점", "longitude": "126.68419698", "latitude": "37.646908725"}, {"name": "구멍가게편의점", "address": "경기도 김포시 장기동 1642번지 고창마을반도유보라 상가동 103호", "longitude": "126.66438529", "latitude": "37.640546775"}, {"name": "구미(신개념여성건강케어샵)", "address": "경기도 김포시 장기동 1324번지 청송현대쇼핑센타 205호 구미", "telephone": "031-984-9234", "longitude": "126.66677749", "latitude": "37.647743332"}, {"name": "구이가", "address": "경기도 김포시 풍무동 620-11번지 승원스타플래닛 2층", "longitude": "126.72044182", "latitude": "37.599799172"}, {"name": "구이가통진점", "address": "경기도 김포시 통진읍 서암리 916-5번지", "telephone": "031-981-6433", "longitude": "126.5847572", "latitude": "37.697259222"}, {"name": "구자경헤어", "address": "경기도 김포시 사우동 875번지 사우프라자 208호 구자경헤어", "longitude": "126.72124233", "latitude": "37.621748795"}, {"name": "구자경헤어장기점", "address": "경기도 김포시 장기동 1960-4번지 101호 구자경헤어", "longitude": "126.67386173", "latitude": "37.644654966"}, {"name": "구제다락방", "address": "경기도 김포시 장기동 1962-4번지 1층 구제다락방", "longitude": "126.67096832", "latitude": "37.645574857"}, {"name": "구포국수", "address": "경기도 김포시 구래동 6883-16번지 경서프라자 102호", "telephone": "031-996-9492", "longitude": "126.62730678", "latitude": "37.644128533"}, {"name": "구피샵장기점", "address": "경기도 김포시 장기동 1399번지 장기음식주차타운 가동 104호", "telephone": "031-986-0010", "longitude": "126.67062016", "latitude": "37.644880132"}, {"name": "구해진 피부사랑", "address": "경기도 김포시 사우동 247번지 사우동 1층 라호", "longitude": "126.71538791", "latitude": "37.618356033"}, {"name": "국가대표 스타클래스(운양)", "address": "경기도 김포시 운양동 1303-3번지 jk타워 4층", "longitude": "126.67832814", "latitude": "37.657181758"}, {"name": "국대오리", "address": "경기도 김포시 고촌읍 신곡리 185-2번지", "longitude": "126.78415287", "latitude": "37.602637365"}, {"name": "국민자동차공업사", "address": "경기도 김포시 월곶면 군하리 321-12번지 국민자동차", "longitude": "126.55611608", "latitude": "37.70856028"}, {"name": "국밥쟁이", "address": "경기도 김포시 양촌읍 석모리 353-1번지 1호", "longitude": "126.65417085", "latitude": "37.651544857"}, {"name": "국보966옛날두부", "address": "경기도 김포시 대곶면 율생리 604-1번지 1층", "longitude": "126.58112054", "latitude": "37.648657479"}, {"name": "국보두루치기", "address": "경기도 김포시 장기동 1936-3번지 1층 국보두루치기", "longitude": "126.67641501", "latitude": "37.646355877"}, {"name": "국보두루치기", "address": "경기도 김포시 고촌읍 신곡리 1063-4 서익빌딩 국보두루치기", "longitude": "126.76976869", "latitude": "37.60338467"}, {"name": "국보두루치기양곡점", "address": "경기도 김포시 양촌읍 양곡리 1310-10번지 1층 국보두루치기 양곡점", "longitude": "126.63006218", "latitude": "37.655047962"}, {"name": "국선생장기한강센트럴점", "address": "경기도 김포시 장기동 2167-1번지 자이에비뉴2 102호", "telephone": "031-998-9279", "longitude": "126.68011259", "latitude": "37.635022865"}, {"name": "국수나무 김포장기점", "address": "경기도 김포시 장기동 1885-6번지 한강호반베르디움 국수나무", "telephone": "031-982-6167", "longitude": "126.6594075", "latitude": "37.646316597"}, {"name": "국수나무김포운양점", "address": "경기도 김포시 운양동 1297-1번지 한강베네치아 113호", "telephone": "031-998-2298", "longitude": "126.68172457", "latitude": "37.655326055"}, {"name": "국수랑막창이랑", "address": "경기도 김포시 구래동 6882-5번지 국수랑막창이랑", "longitude": "126.62500247", "latitude": "37.644959073"}, {"name": "국시원", "address": "경기도 김포시 운양동 1297-3번지 에비뉴 112호", "longitude": "126.68227961", "latitude": "37.655381623"}, {"name": "국시촌", "address": "경기도 김포시 양촌읍 양곡리 475-48번지 1층", "telephone": "031-989-6672", "longitude": "126.62478626", "latitude": "37.656319549"}, {"name": "국제골프백화점", "address": "경기도 김포시 사우동 384-19번지", "longitude": "126.72516327", "latitude": "37.615190001"}, {"name": "국제광고", "address": "경기도 김포시 대곶면 율생리 431-6번지 1층", "telephone": "031-982-2082", "longitude": "126.59083903", "latitude": "37.653430893"}, {"name": "국제자동차공업사", "address": "경기도 김포시 대곶면 거물대리 183-1번지", "longitude": "126.59975559", "latitude": "37.66631844"}, {"name": "국제조명전기", "address": "경기도 김포시 통진읍 도사리 518-4번지 1층", "longitude": "126.61627729", "latitude": "37.684401977"}, {"name": "군산아구", "address": "경기도 김포시 장기동 2018-2번지 군산아구(라베니체)", "longitude": "126.67843956", "latitude": "37.64199177"}, {"name": "군하영양탕", "address": "경기도 김포시 월곶면 군하리 161번지", "longitude": "126.55439518", "latitude": "37.715617223"}, {"name": "굽네치킨", "address": "경기도 김포시 북변동 230-6번지", "longitude": "126.70419005", "latitude": "37.625797273"}, {"name": "굽네치킨(마산점)", "address": "경기도 김포시 마산동 650-7번지 한강프라자 102호", "longitude": "126.64392133", "latitude": "37.636242733"}, {"name": "굽네치킨마산점", "address": "경기도 김포시 마산동 650-7번지 102호", "telephone": "031-988-9296", "longitude": "126.64392133", "latitude": "37.636242733"}, {"name": "굽네치킨북변/사우점", "address": "경기도 김포시 사우동 1066번지 굽네치킨", "telephone": "031-998-0202", "longitude": "126.71424268", "latitude": "37.621605746"}, {"name": "굽네치킨장기점", "address": "경기도 김포시 장기동 1636번지 고창마을제일풍경채아파트 102호", "telephone": "031-984-0550", "longitude": "126.66333256", "latitude": "37.642823198"}, {"name": "굽네치킨풍무점", "address": "경기도 김포시 풍무동 425번지 그린씨티 102호", "longitude": "126.72008121", "latitude": "37.602330047"}, {"name": "굿드림치과의원", "address": "경기도 김포시 장기동 2055-4번지 한강메디플러스 403호", "longitude": "126.67172084", "latitude": "37.639414354"}, {"name": "굿모닝 꽈배기", "address": "경기도 김포시 양촌읍 양곡리 418-6번지 굿모닝꽈배기 1층", "telephone": "031-981-1511", "longitude": "126.62355792", "latitude": "37.654964159"}, {"name": "굿모닝약국", "address": "경기도 김포시 구래동 6879-1번지 감두리빌딩 114,115호", "telephone": "031-989-7571", "longitude": "126.62533915", "latitude": "37.645599837"}, {"name": "권정현헤어샵", "address": "경기도 김포시 통진읍 마송리 109-39번지 2층 권정현헤어", "telephone": "031-988-4971", "longitude": "126.59775636", "latitude": "37.690069907"}, {"name": "권홍헤어김포운양점", "address": "경기도 김포시 운양동 1306-6번지 현대센트럴스퀘어 305호", "longitude": "126.68272014", "latitude": "37.653076347"}, {"name": "귀빈", "address": "경기도 김포시 양촌읍 양곡리 1310-20번지 101호", "longitude": "126.62899891", "latitude": "37.654657182"}, {"name": "귀빈사우나찜질방", "address": "경기도 김포시 양촌읍 양곡리 408-8 귀빈사우나찜질방", "longitude": "126.62453617", "latitude": "37.65423752"}, {"name": "그날 네일", "address": "경기도 김포시 풍무동 788번지 골든프라자2 7층 705호", "longitude": "126.72638476", "latitude": "37.600362838"}, {"name": "그날스튜디오", "address": "경기도 김포시 구래동 6882-11번지 폴리프라자2 707호", "longitude": "126.6239773", "latitude": "37.643793539"}, {"name": "그남자의 떡볶이집", "address": "경기도 김포시 장기동 2054-2번지 다인빌 101호", "longitude": "126.67369201", "latitude": "37.639464919"}, {"name": "그때,그집 칼국수", "address": "경기도 김포시 풍무동 622-3번지 1층", "longitude": "126.72077796", "latitude": "37.600745999"}, {"name": "그때그집", "address": "경기도 김포시 풍무동 92-25번지 그때그집", "telephone": "031-983-3209", "longitude": "126.71683034", "latitude": "37.611413039"}, {"name": "그라시아(Gracia)", "address": "경기도 김포시 장기동 2051-2번지 그라시아", "longitude": "126.67261568", "latitude": "37.639461911"}, {"name": "그래바", "address": "경기도 김포시 감정동 673번지", "longitude": "126.70243691", "latitude": "37.625135114"}, {"name": "그랜드조명", "address": "경기도 김포시 북변동 135-8번지 2층", "longitude": "126.70474668", "latitude": "37.631078367"}, {"name": "그레이스 건강관리 구래지점", "address": "경기도 김포시 구래동 6886-6번지 반도유보라4차 상업시설 2층 2042호", "longitude": "126.63006104", "latitude": "37.64620949"}, {"name": "그레이스건강관리", "address": "경기도 김포시 장기동 2018-2번지 라베니체마치에비뉴I 2층 203호 장기동 라베니체", "longitude": "126.67843956", "latitude": "37.64199177"}, {"name": "그레이스미용실", "address": "경기도 김포시 통진읍 서암리 764-15번지 그레이스미용실", "telephone": "031-997-3841", "longitude": "126.59569983", "latitude": "37.692954899"}, {"name": "그레이코데", "address": "경기도 김포시 운양동 1264-2번지 경기도 운양동 1264-2번지 그레이코데", "longitude": "126.69747204", "latitude": "37.653629011"}, {"name": "그레텔", "address": "경기도 김포시 통진읍 마송리 109-40번지 카페그레텔 1층", "telephone": "031-982-3526", "longitude": "126.59841758", "latitude": "37.691486681"}, {"name": "그루브헤어", "address": "경기도 김포시 고촌읍 신곡리 1081-8번지 한신위너스 상가 108호", "longitude": "126.77193826", "latitude": "37.601244613"}, {"name": "그루터기동물병원", "address": "경기도 김포시 풍무동 425번지 그루터기동물병원", "telephone": "031-988-0818", "longitude": "126.72008121", "latitude": "37.602330047"}, {"name": "그리다미술학원", "address": "경기도 김포시 장기동 2039-4번지 베스트프라자 501호", "longitude": "126.67424974", "latitude": "37.638880845"}, {"name": "그리드 프리미엄 독서실", "address": "경기도 김포시 장기동 2039-2번지 프레즌스빌딩 403호", "longitude": "126.674724", "latitude": "37.639242552"}, {"name": "그린마트", "address": "경기도 김포시 통진읍 마송리 146-16번지 1층 그린마트", "telephone": "031-989-8946", "longitude": "126.59228727", "latitude": "37.692925048"}, {"name": "그린마트", "address": "경기도 김포시 감정동 690번지 그린마트(1차 상가)", "longitude": "126.70063586", "latitude": "37.619526474"}, {"name": "그린뮤즈(GreenMuse)", "address": "경기도 김포시 장기동 1954-5번지 다온하우스 1층 그린뮤즈", "telephone": "031-984-9841", "longitude": "126.67172639", "latitude": "37.645820248"}, {"name": "그린세탁", "address": "경기도 김포시 운양동 1331-1번지 김포한강신도시2차스위첸 1동 104호", "longitude": "126.69088431", "latitude": "37.643710146"}, {"name": "그린이,감성미술", "address": "경기도 김포시 장기동 1868-2번지 현대성우오스타 단지내상가 2층 204호", "longitude": "126.66364154", "latitude": "37.649626385"}, {"name": "그린조이", "address": "경기도 김포시 북변동 383-8번지 그린조이", "telephone": "031-988-5754", "longitude": "126.71082814", "latitude": "37.62579587"}, {"name": "그린카피", "address": "경기도 김포시 사우동 250-9 그린카피", "longitude": "126.71669313", "latitude": "37.617665457"}, {"name": "그린휴게실", "address": "경기도 김포시 대곶면 율생리 515번지 그린휴게실", "longitude": "126.58256157", "latitude": "37.650320396"}, {"name": "그림나라어린이집", "address": "경기도 김포시 걸포동 18번지 그림나라어린이집", "longitude": "126.70016708", "latitude": "37.645743486"}, {"name": "그림숲미술학원", "address": "경기도 김포시 운양동 1299-1번지 광장프라자 415호", "longitude": "126.68261397", "latitude": "37.654049102"}, {"name": "그림책여행학원", "address": "경기도 김포시 운양동 1298-3번지 헤리움타운 305호", "longitude": "126.6848005", "latitude": "37.654181153"}, {"name": "그믐달", "address": "경기도 김포시 장기동 1527 1층 그믐달", "longitude": "126.6733905", "latitude": "37.643599519"}, {"name": "그옛날우리집", "address": "경기도 김포시 구래동 6886-6번지 한강신도시반도유보라4차 판매시설동 1층 1069호", "longitude": "126.63006104", "latitude": "37.64620949"}, {"name": "글라스미안경원", "address": "경기도 김포시 사우동 924번지 1층", "longitude": "126.71997111", "latitude": "37.619439267"}, {"name": "글라스스토리 김포한강점", "address": "경기도 김포시 구래동 6883-4번지 1층 글라스스토리김포한강점", "telephone": "031-984-0050", "longitude": "126.62711094", "latitude": "37.644767595"}, {"name": "글라스스토리(김포운양점)", "address": "경기도 김포시 운양동 1297-9번지 운양프라자 1층 106호 글라스스토리", "longitude": "126.68249829", "latitude": "37.654598377"}, {"name": "글라스스토리김포고촌점", "address": "경기도 김포시 고촌읍 신곡리 567-8번지 1층 102,103호", "telephone": "031-983-6558", "longitude": "126.76979833", "latitude": "37.601141299"}, {"name": "글라스진", "address": "경기도 김포시 양촌읍 석모리 923번지 글라스진 1층", "telephone": "031-997-7866", "longitude": "126.64958666", "latitude": "37.650459069"}, {"name": "글래드아이안경원", "address": "경기도 김포시 장기동 2018-2번지 라베니체마치에비뉴I 127호", "longitude": "126.67843956", "latitude": "37.64199177"}, {"name": "글레머집합소", "address": "경기도 김포시 양촌읍 양곡리 1306-1번지 새롬프라자 1층 107호", "longitude": "126.62814693", "latitude": "37.655068922"}, {"name": "글렌루나", "address": "경기도 김포시 구래동 6882-5번지 이너매스한강 514호", "longitude": "126.62500247", "latitude": "37.644959073"}, {"name": "글로리", "address": "경기도 김포시 북변동 699번지", "longitude": "126.70602898", "latitude": "37.627684942"}, {"name": "글로리아", "address": "경기도 김포시 사우동 929번지 중앙프라자 글로리아 105호", "longitude": "126.7196081", "latitude": "37.619582551"}, {"name": "글로리이화음악학원", "address": "경기도 김포시 풍무동 13-10번지 2층 글로리이화음악학원", "longitude": "126.72538466", "latitude": "37.613523722"}, {"name": "글로벌미트 정육점", "address": "경기도 김포시 구래동 6884-8번지 김포센트럴프라자 108호", "telephone": "031-982-7249", "longitude": "126.62564527", "latitude": "37.643321372"}, {"name": "글로벌스터디카페", "address": "경기도 김포시 풍무동 807번지 한화프라자 504호,505호", "longitude": "126.72163807", "latitude": "37.600883198"}, {"name": "글리제헤어염색", "address": "경기도 김포시 구래동 6893-5번지 77", "longitude": "126.62597877", "latitude": "37.640105988"}, {"name": "글리제헤어컬러링", "address": "경기도 김포시 마산동 645-14번지 102호 글리제헤어컬러링", "telephone": "031-907-8320", "longitude": "126.64488898", "latitude": "37.637633163"}, {"name": "글리제헤어컬러링전문점", "address": "경기도 김포시 통진읍 마송리 107-4번지 글리제헤어컬러링전문점", "telephone": "031-989-6826", "longitude": "126.5988619", "latitude": "37.691091782"}, {"name": "글리제헤어컬러링학운점", "address": "경기도 김포시 양촌읍 학운리 2853번지 1층", "longitude": "126.62661171", "latitude": "37.620187602"}, {"name": "금강공업사", "address": "경기도 김포시 양촌읍 대포리 34-1번지 금강공업사", "telephone": "031-989-3551", "longitude": "126.63422448", "latitude": "37.619968368"}, {"name": "금강산갈비", "address": "경기도 김포시 풍무동 675-137번지 1층", "longitude": "126.71304756", "latitude": "37.605583521"}, {"name": "금강산감자탕(양곡점)", "address": "경기도 김포시 양촌읍 양곡리 443번지 1층 109호", "telephone": "031-998-2552", "longitude": "126.62289428", "latitude": "37.656214364"}, {"name": "금강전기상사", "address": "경기도 김포시 양촌읍 석모리 11-5번지 금강전기상사", "longitude": "126.65064106", "latitude": "37.667130064"}, {"name": "금강제화김포모아점", "address": "경기도 김포시 양촌읍 누산리 428-1번지 금강제화김포모아점", "telephone": "031-997-1137", "longitude": "126.65599866", "latitude": "37.662992499"}, {"name": "금강측량설계공사", "address": "경기도 김포시 사우동 253-3번지 유림회관 2층 202호", "longitude": "126.71566692", "latitude": "37.6164917"}, {"name": "금돌멩이", "address": "경기도 김포시 풍무동 83-5번지 104호 금돌멩이", "longitude": "126.72215938", "latitude": "37.606803841"}, {"name": "금릉건축사사무소", "address": "경기도 김포시 사우동 253-3번지", "longitude": "126.71566692", "latitude": "37.6164917"}, {"name": "금빛과일", "address": "경기도 김포시 장기동 2039-10번지 1층 107호 금빛과일", "longitude": "126.67230017", "latitude": "37.639073611"}, {"name": "금빛과일(면세사업자)", "address": "경기도 김포시 장기동 2039-10번지 경서프라자 107호", "longitude": "126.67230017", "latitude": "37.639073611"}, {"name": "금빛부동산까페공인중개사사무소", "address": "경기도 김포시 운양동 1306-6번지 115호", "longitude": "126.68272014", "latitude": "37.653076347"}, {"name": "금빛우리땅갈비", "address": "경기도 김포시 장기동 129-1번지", "telephone": "031-984-9242", "longitude": "126.6585594", "latitude": "37.650854995"}, {"name": "금빛자이음악학원", "address": "경기도 김포시 장기동 2170번지 211호 금빛자이음악학원", "longitude": "126.68105174", "latitude": "37.635295721"}, {"name": "금빛카페", "address": "경기도 김포시 운양동 1306-6번지 115호", "longitude": "126.68272014", "latitude": "37.653076347"}, {"name": "금빛테이블", "address": "경기도 김포시 장기동 2170번지 자이에비뉴 1동 118호 금빛테이블", "longitude": "126.68105174", "latitude": "37.635295721"}, {"name": "금성숯불장어", "address": "경기도 김포시 양촌읍 학운리 2844번지 1층 금성숯불갈비", "longitude": "126.62674876", "latitude": "37.619962796"}, {"name": "금약국", "address": "경기도 김포시 고촌읍 신곡리 1069번지 김포빌딩 1층 금약국", "longitude": "126.7697711", "latitude": "37.602609835"}, {"name": "금진한의원", "address": "경기도 김포시 양촌읍 양곡리 414-16번지 금진한의원", "longitude": "126.62470136", "latitude": "37.655184062"}, {"name": "금탑공인중개사", "address": "경기도 김포시 구래동 6880-5번지 한강메디플라자 103호", "longitude": "126.62597212", "latitude": "37.645908189"}, {"name": "금파꽃농원(홍성열)", "address": "경기도 김포시 하성면 마곡리 329-3번지 금파꽃농원", "longitude": "126.6454777", "latitude": "37.708621751"}, {"name": "금파내장건설", "address": "경기도 김포시 통진읍 도사리 449-1번지 1층", "longitude": "126.61219304", "latitude": "37.684983151"}, {"name": "금파약국", "address": "경기도 김포시 걸포동 389-17번지", "longitude": "126.71116718", "latitude": "37.631797171"}, {"name": "금파이용원", "address": "경기도 김포시 북변동 404-10번지 금파이용원", "longitude": "126.71130521", "latitude": "37.62546369"}, {"name": "금파전기", "address": "경기도 김포시 북변동 808번지 풍년마을 302동 1805호", "longitude": "126.71577831", "latitude": "37.622870852"}, {"name": "금포왕만두", "address": "경기도 김포시 하성면 원산리 610-1번지 금포왕만두", "longitude": "126.6206932", "latitude": "37.711958643"}, {"name": "금호카센타", "address": "경기도 김포시 사우동 1371-1번지", "longitude": "126.71066362", "latitude": "37.621524859"}, {"name": "금화왕돈까스 김포운양점", "address": "경기도 김포시 운양동 1079번지 가동 101호", "longitude": "126.66855997", "latitude": "37.657073393"}, {"name": "금화정남원추어탕", "address": "경기도 김포시 양촌읍 구래리 821-6번지", "longitude": "126.62172389", "latitude": "37.636875868"}, {"name": "금희슈퍼", "address": "경기도 김포시 하성면 원산리 608번지 금희슈퍼", "longitude": "126.62069621", "latitude": "37.711373032"}, {"name": "기독교백화점큰사랑", "address": "경기도 김포시 북변동 134-22번지 바우1동 2층", "longitude": "126.7049658", "latitude": "37.630105873"}, {"name": "기린텔레콤", "address": "경기도 김포시 걸포동 1574-3번지 케이탑리츠 1층 106호 티월드", "longitude": "126.70730259", "latitude": "37.632174971"}, {"name": "기본한의원", "address": "경기도 김포시 사우동 247-1번지", "longitude": "126.71527517", "latitude": "37.618220613"}, {"name": "기분전환", "address": "경기도 김포시 구래동 6884-8번지 김포센트럴프라자 111호", "longitude": "126.62564527", "latitude": "37.643321372"}, {"name": "기쁨약국", "address": "경기도 김포시 장기동 2039-4번지 베스트프라자 104호", "telephone": "031-989-4322", "longitude": "126.67424974", "latitude": "37.638880845"}, {"name": "기쁨어린이집", "address": "경기도 김포시 구래동 6895-4번지 김포한강나비마을엘에이치3단지 기쁨어린이집", "longitude": "126.62531348", "latitude": "37.641716591"}, {"name": "기절초풍생고기", "address": "경기도 김포시 구래동 6883-2번지 아스타프라자 204호", "telephone": "031-984-0073", "longitude": "126.62700602", "latitude": "37.645352889"}, {"name": "기탄사고력 풍무센트럴 제1교실", "address": "경기도 김포시 풍무동 289번지 풍무센트럴푸르지오", "longitude": "126.7287406", "latitude": "37.609495204"}, {"name": "기탄사고력교실 마산동힐스테이트", "address": "경기도 김포시 마산동 636-1번지 힐스테이트 508동 2302호", "longitude": "126.63530787", "latitude": "37.639180396"}, {"name": "기탄사고력교실풍무센트럴푸르지오2교실", "address": "경기도 김포시 풍무동 289번지 풍무센트럴푸르지오 211동 302호", "longitude": "126.7287406", "latitude": "37.609495204"}, {"name": "길동수산", "address": "경기도 김포시 양촌읍 양곡리 1308-12번지 1층 길동수산", "longitude": "126.62872568", "latitude": "37.654908586"}, {"name": "길선상사", "address": "경기도 김포시 장기동 37 김포패션아울렛 매점", "longitude": "126.66774878", "latitude": "37.656016962"}, {"name": "길참치", "address": "경기도 김포시 장기동 1513번지", "longitude": "126.67205276", "latitude": "37.643766959"}, {"name": "길한의원", "address": "경기도 김포시 풍무동 383-6번지 2층 길한의원", "longitude": "126.72802386", "latitude": "37.604222839"}, {"name": "길훈공인중개사", "address": "경기도 김포시 고촌읍 신곡리 538-1번지 1층", "longitude": "126.77049274", "latitude": "37.603611341"}, {"name": "김가네김포마산점", "address": "경기도 김포시 마산동 648-2번지 103호", "longitude": "126.64366688", "latitude": "37.63732312"}, {"name": "김가네김포호수마을점", "address": "경기도 김포시 구래동 6874-22번지 112호", "telephone": "031-985-1369", "longitude": "126.63264603", "latitude": "37.650461179"}, {"name": "김가네바지락칼국수", "address": "경기도 김포시 북변동 383-14번지", "longitude": "126.71102177", "latitude": "37.625526058"}, {"name": "김경민헤어", "address": "경기도 김포시 통진읍 마송리 104-73번지 2층 김경민헤어", "longitude": "126.59836589", "latitude": "37.690567526"}, {"name": "김구원선생두부", "address": "경기도 김포시 고촌읍 신곡리 624-1번지", "longitude": "126.77179182", "latitude": "37.59733409"}, {"name": "김대기4프로국어학원", "address": "경기도 김포시 장기동 2039-4번지 베스트프라자 502호", "longitude": "126.67424974", "latitude": "37.638880845"}, {"name": "김대박양꼬치", "address": "경기도 김포시 풍무동 187-1번지 2층 213.214호", "longitude": "126.72502241", "latitude": "37.60738724"}, {"name": "김대박양꼬치", "address": "경기도 김포시 사우동 1040번지 1층 김대박양꼬치", "longitude": "126.71454862", "latitude": "37.621579465"}, {"name": "김명자낙지마당", "address": "경기도 김포시 통진읍 도사리 490-2번지 김명자낙지마당", "telephone": "031-987-3445", "longitude": "126.61411927", "latitude": "37.685178718"}, {"name": "김민주헤어", "address": "경기도 김포시 장기동 2004-4번지 수정마을쌍용예가근린생활시설 3동 103호", "longitude": "126.68056728", "latitude": "37.642538182"}, {"name": "김민희황후피부관리", "address": "경기도 김포시 장기동 1324번지 현대쇼핑센타 204호", "telephone": "031-989-4595", "longitude": "126.66677749", "latitude": "37.647743332"}, {"name": "김밥713", "address": "경기도 김포시 마산동 654-13번지 101호", "longitude": "126.6486138", "latitude": "37.633409857"}, {"name": "김밥공감(풍무점)", "address": "경기도 김포시 풍무동 787번지 웨스트787 101호", "longitude": "126.72613647", "latitude": "37.600137013"}, {"name": "김밥공방", "address": "경기도 김포시 장기동 1868-5번지 훼밀리플라자 105호", "longitude": "126.66294594", "latitude": "37.64810175"}, {"name": "김밥다옴", "address": "경기도 김포시 장기동 1619번지 1층 김밥다옴", "telephone": "031-989-8889", "longitude": "126.66747562", "latitude": "37.643681958"}, {"name": "김밥마루", "address": "경기도 김포시 사우동 873번지 1층 108호", "longitude": "126.72146761", "latitude": "37.622082692"}, {"name": "김밥매니아", "address": "경기도 김포시 북변동 826번지 테마프라자 105호", "telephone": "031-981-7004", "longitude": "126.72068624", "latitude": "37.622026768"}, {"name": "김밥슈퍼", "address": "경기도 김포시 고촌읍 신곡리 541-4번지 김밥슈퍼", "telephone": "031-986-9466", "longitude": "126.76913261", "latitude": "37.603996075"}, {"name": "김밥제일가", "address": "경기도 김포시 양촌읍 양곡리 1306-7번지 김포메디컬시티 102호", "longitude": "126.62752898", "latitude": "37.654012829"}, {"name": "김밥짱", "address": "경기도 김포시 풍무동 213번지 105호", "telephone": "031-982-2737", "longitude": "126.72568573", "latitude": "37.608695212"}, {"name": "김밥천국 양곡점", "address": "경기도 김포시 양촌읍 양곡리 419-4번지 김밥천국", "longitude": "126.62355622", "latitude": "37.655297511"}, {"name": "김밥천국(김포장기점)", "address": "경기도 김포시 장기동 2077-2번지 현대메디컬프라자 107호", "telephone": "031-997-0250", "longitude": "126.67835487", "latitude": "37.638018268"}, {"name": "김밥천국(풍무점)", "address": "경기도 김포시 풍무동 421-10번지 101호", "longitude": "126.72065914", "latitude": "37.602223314"}, {"name": "김밥천국마송점", "address": "경기도 김포시 통진읍 마송리 109-16번지 1층 김밥천국", "telephone": "031-983-5009", "longitude": "126.59833792", "latitude": "37.691540465"}, {"name": "김밥천국북변점", "address": "경기도 김포시 북변동 404-10번지", "telephone": "031-996-5858", "longitude": "126.71130521", "latitude": "37.62546369"}, {"name": "김밥천국운양점", "address": "경기도 김포시 운양동 1299-1번지 광장프라자 1동 127호", "longitude": "126.68261397", "latitude": "37.654049102"}, {"name": "김밥천국장기점", "address": "경기도 김포시 장기동 1610번지 신한프라자 108호", "telephone": "031-987-1009", "longitude": "126.66843833", "latitude": "37.643765778"}, {"name": "김밥천국학운리", "address": "경기도 김포시 양촌읍 학운리 2979번지 이젠아파트형공장 다동 104호", "longitude": "126.62098551", "latitude": "37.617331473"}, {"name": "김상우의원", "address": "경기도 김포시 구래동 6874-23번지 305호", "longitude": "126.63295171", "latitude": "37.650516195"}, {"name": "김상희헤어", "address": "경기도 김포시 사우동 880번지 시그마프라자 103호", "longitude": "126.72149207", "latitude": "37.621605236"}, {"name": "김서방참숯불닭갈비", "address": "경기도 김포시 하성면 마곡리 635-17번지 김서방참숯닭갈비", "longitude": "126.63163764", "latitude": "37.718678699"}, {"name": "김성훈고3수능영어학원", "address": "경기도 김포시 북변동 826번지 사우테마프라자 601호", "longitude": "126.72068624", "latitude": "37.622026768"}, {"name": "김성희헤어크리닉", "address": "경기도 김포시 풍무동 620-13번지 1층", "longitude": "126.7207226", "latitude": "37.600412506"}, {"name": "김송정 머리터 풍무점", "address": "경기도 김포시 풍무동 770번지 한화유로메트로아파트 202호", "longitude": "126.72399969", "latitude": "37.602249274"}, {"name": "김앤서", "address": "경기도 김포시 구래동 6892-4번지 101호", "longitude": "126.6275261", "latitude": "37.638822538"}, {"name": "김앤오소아청소년과의원", "address": "경기도 김포시 운양동 1299-1번지 광장프라자 307호", "telephone": "031-988-6383", "longitude": "126.68261397", "latitude": "37.654049102"}, {"name": "김영화부대찌개", "address": "경기도 김포시 장기동 1916-5번지 1층 김영화부대찌개", "telephone": "031-984-8636", "longitude": "126.66616079", "latitude": "37.646300027"}, {"name": "김용식해물손칼국수", "address": "경기도 김포시 구래동 6889-10번지", "telephone": "031-986-6013", "longitude": "126.62775464", "latitude": "37.640688266"}, {"name": "김인순헤어", "address": "경기도 김포시 마산동 625-3번지 주원빌 1층", "telephone": "031-988-3009", "longitude": "126.64159", "latitude": "37.6427406"}, {"name": "김일부페식당", "address": "경기도 김포시 대곶면 쇄암리 240-3번지 1층", "longitude": "126.53922954", "latitude": "37.681376322"}, {"name": "김일체육사", "address": "경기도 김포시 북변동 408-15번지", "longitude": "126.7123288", "latitude": "37.624412079"}, {"name": "김지연", "address": "경기도 김포시 고촌읍 신곡리 1256번지 힐스테이트 223동 1101호", "longitude": "126.76769507", "latitude": "37.596587198"}, {"name": "김태희헤어샵", "address": "경기도 김포시 양촌읍 구래리 224-6번지 ㅣ층", "longitude": "126.62428556", "latitude": "37.652263603"}, {"name": "김포 대한권투체육관", "address": "경기도 김포시 고촌읍 신곡리 539-8번지 4층", "telephone": "031-984-1216", "longitude": "126.77049145", "latitude": "37.604025787"}, {"name": "김포 메이크존", "address": "경기도 김포시 감정동 673번지 금영빌딩 1층 메이크존", "longitude": "126.70243691", "latitude": "37.625135114"}, {"name": "김포 목우촌 닭고기", "address": "경기도 김포시 양촌읍 양곡리 441-7번지 9호10호", "longitude": "126.62236153", "latitude": "37.656239675"}, {"name": "김포1번가 구이센터", "address": "경기도 김포시 대곶면 율생리 345-8번지 2층", "longitude": "126.58761541", "latitude": "37.650320274"}, {"name": "김포1번가 축산물도매시장", "address": "경기도 김포시 대곶면 율생리 345-8번지 1층", "longitude": "126.58761541", "latitude": "37.650320274"}, {"name": "김포24시메디엘동물병원", "address": "경기도 김포시 구래동 6880-5번지 한강메디플라자 201호", "longitude": "126.62597212", "latitude": "37.645908189"}, {"name": "김포24시호수동물의료센터", "address": "경기도 김포시 운양동 1296-3번지 더리버뷰 212호", "longitude": "126.68549798", "latitude": "37.655381316"}, {"name": "김포24시힐동물의료센터", "address": "경기도 김포시 장기동 2004-4번지 수정마을쌍용예가아파트 1동 2층 202호", "telephone": "031-987-7585", "longitude": "126.68056728", "latitude": "37.642538182"}, {"name": "김포9시아이폰수리센터", "address": "경기도 김포시 장기동 1399번지 장기음식주차타운 113호", "longitude": "126.67064318", "latitude": "37.64479911"}, {"name": "김포G가든", "address": "경기도 김포시 월곶면 포내리 37-5번지 김포G가든", "longitude": "126.53461791", "latitude": "37.727892379"}, {"name": "김포KCC 공인중개사사무소", "address": "경기도 김포시 장기동 1886-2번지 고창마을 kcc스위첸 단지상가 1-106호", "telephone": "031-996-3350", "longitude": "126.66359011", "latitude": "37.645986333"}, {"name": "김포가구스타", "address": "경기도 김포시 양촌읍 구래리 821-6번지 가구스타", "telephone": "031-986-8936", "longitude": "126.62172389", "latitude": "37.636875868"}, {"name": "김포가마솥24시해장국", "address": "경기도 김포시 감정동 528-1번지 2층 김포가마솥24시해장국", "longitude": "126.69904722", "latitude": "37.623018163"}, {"name": "김포가마솥해장국", "address": "경기도 김포시 양촌읍 양곡리 1291-3번지 예약문의:031-982-6699", "longitude": "126.63028561", "latitude": "37.657958782"}, {"name": "김포가야밀면", "address": "경기도 김포시 대곶면 율생리 351-27번지 1층", "longitude": "126.58978288", "latitude": "37.651796455"}, {"name": "김포건강원", "address": "경기도 김포시 북변동 387-2번지 1층", "longitude": "126.71158393", "latitude": "37.626608612"}, {"name": "김포경희25병원", "address": "경기도 김포시 구래동 6885-2번지 9층", "longitude": "126.62658487", "latitude": "37.643486547"}, {"name": "김포경희한의원", "address": "경기도 김포시 양촌읍 양곡리 403-4번지 동호빌딩 1층 김포 경희한의원", "longitude": "126.62667231", "latitude": "37.655352538"}, {"name": "김포고깃집", "address": "경기도 김포시 하성면 마곡리 611-21번지 하성로타리(옆)", "telephone": "031-989-5135", "longitude": "126.63489155", "latitude": "37.718923148"}, {"name": "김포고창어린이집", "address": "경기도 김포시 장기동 1888-18번지 김포고창어린이집", "longitude": "126.65808105", "latitude": "37.641573642"}, {"name": "김포고촌꽃배달부동산공인중개사", "address": "경기도 김포시 고촌읍 신곡리 581-1번지 김포부동산대표 브랜드 꽃배달부동산", "telephone": "031-986-1000", "longitude": "126.77191098", "latitude": "37.599082217"}, {"name": "김포곤드레밥", "address": "경기도 김포시 사우동 923번지 보보스프라자 1층 108호 김포곤드레밥", "longitude": "126.72027744", "latitude": "37.619304855"}, {"name": "김포곱창구래본점", "address": "경기도 김포시 구래동 6882-5번지 이너매스한강 113호 김포곱창", "telephone": "031-984-3322", "longitude": "126.62500247", "latitude": "37.644959073"}, {"name": "김포공인중개사사무소", "address": "경기도 김포시 풍무동 598-8번지 당곡마을상가 B108호", "telephone": "031-984-9100", "longitude": "126.72169005", "latitude": "37.599108401"}, {"name": "김포공장공인중개사사무소", "address": "경기도 김포시 양촌읍 양곡리 122-5번지 김포공장공인중개사사무소", "longitude": "126.63533205", "latitude": "37.66646169"}, {"name": "김포관광협동(조)", "address": "경기도 김포시 대곶면 율생리 207번지 김포관광협동조합", "longitude": "126.59605987", "latitude": "37.6436285"}, {"name": "김포광장약국", "address": "경기도 김포시 장기동 1607번지 승문프라자 102호", "longitude": "126.66772237", "latitude": "37.644241259"}, {"name": "김포그릇백화점", "address": "경기도 김포시 북변동 380-8번지", "longitude": "126.7108814", "latitude": "37.626660934"}, {"name": "김포금빛농원", "address": "경기도 김포시 대곶면 대벽리 1221번지", "longitude": "126.58745216", "latitude": "37.616551472"}, {"name": "김포금쌀영농조합법인", "address": "경기도 김포시 통진읍 도사리 610-4 김포금쌀영농", "telephone": "031-988-9914", "longitude": "126.62372163", "latitude": "37.68070518"}, {"name": "김포꽃백화점", "address": "경기도 김포시 사우동 447-1번지 김포꽃백화점", "longitude": "126.72632402", "latitude": "37.616769429"}, {"name": "김포꿩만두", "address": "경기도 김포시 사우동 249-1번지 김포꿩만두", "longitude": "126.71616078", "latitude": "37.617664165"}, {"name": "김포다은병원", "address": "경기도 김포시 북변동 374-2번지 김포다은병원", "longitude": "126.71052381", "latitude": "37.625407699"}, {"name": "김포다하누촌(주)(명품관점)", "address": "경기도 김포시 월곶면 군하리 194-3번지 김포다하누촌 명품관점", "longitude": "126.55301353", "latitude": "37.715287616"}, {"name": "김포다하누촌(주)(본점)", "address": "경기도 김포시 월곶면 군하리 110-5번지 한우마을 김포다하누촌 본점", "longitude": "126.55281975", "latitude": "37.715449048"}, {"name": "김포닭강정", "address": "경기도 김포시 풍무동 218번지 홍맥프라자 102호", "longitude": "126.72519483", "latitude": "37.609748197"},