{"region": "gimpo", "data": [{"name": "(A)마터피아-김포지사", "longitude": "126.72149207", "latitude": "37.621605236"}, {"name": "(주)G1230교육 김포지점", "telephone": "031-984-1230", "longitude": "126.72113725", "latitude": "37.622577439"}, {"name": "(주)김포엘피지", "longitude": "126.69291885", "latitude": "37.633994059"}, {"name": "(주)꿈에여행사", "longitude": "126.62589117", "latitude": "37.643988873"}, {"name": "(주)데코라인퍼니처", "longitude": "126.61386883", "latitude": "37.622380686"}, {"name": "(주)밸런스로", "longitude": "126.6848005", "latitude": "37.654181153"}, {"name": "(주)석향기술", "longitude": "126.71700066", "latitude": "37.617215716"}, {"name": "(주)써밋포인트", "longitude": "126.664113", "latitude": "37.638131401"}, {"name": "(주)씨앤에스", "longitude": "126.63067163", "latitude": "37.737199253"}, {"name": "(주)에듀피아", "telephone": "031-982-0509", "longitude": "126.71899519", "latitude": "37.619914438"}, {"name": "(주)에스엠에듀", "longitude": "126.72132876", "latitude": "37.622857197"}, {"name": "(주)에어패스", "longitude": "127.06538423", "latitude": "37.511824101"}, {"name": "(주)에코로", "longitude": "126.68469613", "latitude": "37.65473947"}, {"name": "(주)우리고속관광", "longitude": "126.70305157", "latitude": "37.627217919"}, {"name": "(주)우성환경", "longitude": "126.62764328", "latitude": "37.660572211"}, {"name": "(주)자하브", "telephone": "070-8808-0852", "longitude": "126.67855265", "latitude": "37.639433332"}, {"name": "(주)중앙통신", "longitude": "126.70930637", "latitude": "37.626774152"}, {"name": "(주)친환경상품지원센터", "longitude": "126.70658244", "latitude": "37.645210183"}, {"name": "(주)하모니여행사 하나투어김포점", "longitude": "126.71224197", "latitude": "37.623438817"}, {"name": "(주)한강가온누리", "telephone": "031-8049-3535", "longitude": "126.67777934", "latitude": "37.637494122"}, {"name": "(주)화사랑", "telephone": "031-998-8222", "longitude": "126.67005017", "latitude": "37.645653357"}, {"name": "100억알곱창", "longitude": "126.62495116", "latitude": "37.643904779"}, {"name": "10TAN김포한강점", "longitude": "126.62711094", "latitude": "37.644767595"}, {"name": "12시편한약국", "longitude": "126.67064318", "latitude": "37.64479911"}, {"name": "15시실내포장마차", "longitude": "126.699637", "latitude": "37.622830476"}, {"name": "173살롱드보떼", "longitude": "126.62574874", "latitude": "37.645267789"}, {"name": "180국민돈가스", "longitude": "126.66683848", "latitude": "37.644265774"}, {"name": "1991아빠빵집", "longitude": "126.70243691", "latitude": "37.625135114"}, {"name": "19TEA 김포구래점", "longitude": "126.62533915", "latitude": "37.645599837"}, {"name": "1급대진자동차공업사", "longitude": "126.56506775", "latitude": "37.705927033"}, {"name": "1급성일카랜드", "longitude": "126.63719568", "latitude": "37.70934415"}, {"name": "1등급국어논술", "longitude": "126.72030293", "latitude": "37.621548336"}, {"name": "1인야식", "telephone": "031-988-7892", "longitude": "126.62869745", "latitude": "37.656016683"}, {"name": "201트레이닝박스", "longitude": "126.68046628", "latitude": "37.64493448"}, {"name": "2040스타일", "longitude": "126.709806", "latitude": "37.626469064"}, {"name": "209헤어", "telephone": "031-985-2090", "longitude": "126.72493459", "latitude": "37.606639225"}, {"name": "21세기안경원", "telephone": "031-981-2175", "longitude": "126.71835942", "latitude": "37.620300325"}, {"name": "21세기헤어샵", "longitude": "126.62317121", "latitude": "37.655242214"}, {"name": "3030영어공부방", "longitude": "126.72496178", "latitude": "37.599332385"}, {"name": "33떡볶이", "longitude": "126.6788911", "latitude": "37.631938203"}, {"name": "33떡볶이김포구래호수점", "telephone": "031-982-5455", "longitude": "126.63352894", "latitude": "37.650653149"}, {"name": "33떡볶이장기점", "longitude": "126.66130506", "latitude": "37.645159859"}, {"name": "33한우고집", "longitude": "126.671357", "latitude": "37.644801118"}, {"name": "365PLUS김포양곡", "longitude": "126.63044994", "latitude": "37.656824086"}, {"name": "4U 수학원", "longitude": "126.66611235", "latitude": "37.644479935"}, {"name": "5.9(오구)쌀피자,치킨", "longitude": "126.66730477", "latitude": "37.643879685"}, {"name": "59피자", "telephone": "031-982-5459", "longitude": "126.62289428", "latitude": "37.656214364"}, {"name": "5번지짬뽕전문점", "longitude": "126.53678979", "latitude": "37.72342326"}, {"name": "5테이블 운양본점", "telephone": "031-997-5599", "longitude": "126.68227961", "latitude": "37.655381623"}, {"name": "604AVENUE / BAKERY", "telephone": "031-998-1448", "longitude": "126.68249829", "latitude": "37.654598377"}, {"name": "60계 치킨 김포구래점", "longitude": "126.62817112", "latitude": "37.64574401"}, {"name": "60계 치킨 양촌점", "telephone": "031-999-7272", "longitude": "126.62098551", "latitude": "37.617331473"}, {"name": "60계치킨김포고촌점", "longitude": "10125"}, {"name": "60계치킨장기점", "telephone": "031-997-6068", "longitude": "126.67949638", "latitude": "37.641273897"}, {"name": "692대구막창", "longitude": "126.67044333", "latitude": "37.643879561"}, {"name": "7번가피자(김포사우점)", "longitude": "126.72132876", "latitude": "37.622857197"}, {"name": "84번길", "longitude": "126.67161576", "latitude": "37.64521629"}, {"name": "995인이탈리아(inItaly)"}, {"name": "A-CLASS영어전문학원", "longitude": "126.67252736", "latitude": "37.638939102"}, {"name": "A0706", "telephone": "031-983-9500", "longitude": "126.62896997", "latitude": "37.655909431"}, {"name": "AFRICA 376길", "longitude": "126.63556111", "latitude": "37.663678428"}, {"name": "AbleGym", "longitude": "126.62694716", "latitude": "37.64354176"}, {"name": "Amitie(아미띠에)", "telephone": "031-984-0922", "longitude": "126.76827432", "latitude": "37.59963365"}, {"name": "B&G 헤어살롱 김포점", "longitude": "126.71357383", "latitude": "37.621748263"}, {"name": "BHC 고촌점", "telephone": "031-986-9272", "longitude": "126.76976973", "latitude": "37.603051311"}, {"name": "BHC(대곶점)", "longitude": "126.5848389", "latitude": "37.650373536"}, {"name": "BHC치킨장기점", "longitude": "126.66575475", "latitude": "37.643379734"}, {"name": "BLEU", "longitude": "126.67952904", "latitude": "37.638967509"}, {"name": "BMP복싱", "longitude": "126.60159129", "latitude": "37.689542443"}, {"name": "BM마트(행운복권방)", "telephone": "031-983-7805", "longitude": "126.7066861", "latitude": "37.627659564"}, {"name": "BOAZ보아즈", "longitude": "126.67313892", "latitude": "37.638994871"}, {"name": "BS피트니스", "longitude": "126.69774341", "latitude": "37.623303109"}, {"name": "BYC통진점", "longitude": "126.59919958", "latitude": "37.691543418"}, {"name": "BYC할인마트", "telephone": "031-997-5258", "longitude": "126.70819525", "latitude": "37.627023654"}, {"name": "BYSEASON(바이시즌)", "longitude": "126.72316253", "latitude": "37.608076596"}, {"name": "Bottega(보테가)", "longitude": "126.67883167", "latitude": "37.640407144"}, {"name": "C&C자동차마을", "longitude": "126.67261238", "latitude": "37.642768453"}, {"name": "CICA미술관", "longitude": "126.59783847", "latitude": "37.608190537"}, {"name": "COCO", "longitude": "126.72105068", "latitude": "37.597494131"}, {"name": "CU 김포이편한점", "longitude": "126.6391174", "latitude": "37.636300098"}, {"name": "CU 김포헤리움점(운양역2번출구후문)", "longitude": "126.6848005", "latitude": "37.654181153"}, {"name": "CU 운양에뜰점", "longitude": "126.67291619", "latitude": "37.653490805"}, {"name": "CU김포걸포공원점", "longitude": "126.71024301", "latitude": "37.636353789"}, {"name": "CU김포사우중앙점", "longitude": "126.71538717", "latitude": "37.621491413"}, {"name": "CU김포한강프라자점", "longitude": "126.68338172", "latitude": "37.654708889"}, {"name": "CU양곡탑점", "longitude": "126.63308787", "latitude": "37.661904812"}, {"name": "Cafe_remember", "longitude": "126.68469613", "latitude": "37.65473947"}, {"name": "D cafe(디카페)", "longitude": "126.67324825", "latitude": "37.64502265"}, {"name": "DEPAUSE(드포즈)", "longitude": "126.6774168", "latitude": "37.637493123"}, {"name": "DM태권도센터성균관대", "telephone": "031-986-1219", "longitude": "126.63150597", "latitude": "37.654124522"}, {"name": "Dewy coffee(듀이커피)", "longitude": "126.68686341", "latitude": "37.654069571"}, {"name": "Do헤어", "longitude": "126.72041388", "latitude": "37.622161262"}, {"name": "D마트 이륙상사", "longitude": "126.72024483", "latitude": "37.621935615"}, {"name": "E-코딩", "longitude": "126.73268861", "latitude": "37.610747653"}, {"name": "EASTCORE SALON", "telephone": "031-987-8018", "longitude": "126.64460934", "latitude": "37.634523976"}, {"name": "EAT PASTA7(잇파스타세븐)", "telephone": "070-4099-1919", "longitude": "126.72202679", "latitude": "37.602911317"}, {"name": "EBASE 영어전문서점", "longitude": "126.72068624", "latitude": "37.622026768"}, {"name": "ECC외국어학원", "longitude": "126.72093432", "latitude": "37.622324682"}, {"name": "EIE고려대국제어학원", "longitude": "126.62619991", "latitude": "37.64343126"}, {"name": "EM종합학원", "longitude": "126.70007767", "latitude": "37.623101899"}, {"name": "Eie고려대국제어학원운양캠퍼스", "longitude": "126.68338172", "latitude": "37.654708889"}, {"name": "FM커피", "longitude": "126.64214261", "latitude": "37.640931348"}, {"name": "G1230R학원", "telephone": "031-987-1230", "longitude": "126.62514201", "latitude": "37.646491162"}, {"name": "GFA 유소년 축구 아카데미", "longitude": "126.68080534", "latitude": "37.645133619"}, {"name": "GNB영어분석수학학원", "longitude": "126.6848005", "latitude": "37.654181153"}, {"name": "GNB유현영수전문학원", "telephone": "031-981-0917", "longitude": "126.72574796", "latitude": "37.598027819"}, {"name": "GNG김포한강", "longitude": "126.64069881", "latitude": "37.641936008"}, {"name": "GOGO헤어샵", "longitude": "126.71468861", "latitude": "37.62052567"}, {"name": "GO곱창이땡기는날", "longitude": "126.67041465", "latitude": "37.647771657"}, {"name": "GS25 김포1동점", "longitude": "126.70421734", "latitude": "37.630302194"}, {"name": "GS25 김포누산점", "longitude": "126.66072496", "latitude": "37.662934226"}, {"name": "GS25 운양시티", "telephone": "031-984-3733", "longitude": "126.68580242", "latitude": "37.653075662"}, {"name": "GS25고촌현대점", "longitude": "126.76896114", "latitude": "37.597274456"}, {"name": "GS25김포장기점", "longitude": "126.67213355", "latitude": "37.643433828"}, {"name": "GS25김포중흥점", "longitude": "126.66855308", "latitude": "37.651027894"}, {"name": "GS25김포프라자점", "longitude": "126.72066192", "latitude": "37.622468186"}, {"name": "GTC영어", "longitude": "126.66230404", "latitude": "37.649712628"}, {"name": "H2O피부관리", "longitude": "126.6594075", "latitude": "37.646316597"}, {"name": "HEE헤어코디", "longitude": "126.70210867", "latitude": "37.627882238"}, {"name": "HEO'S헤어살롱", "longitude": "126.66438529", "latitude": "37.640546775"}, {"name": "HI5영어학원", "longitude": "126.66647603", "latitude": "37.644237712"}, {"name": "HKF&D에이치케이에프앤디", "longitude": "126.6788911", "latitude": "37.631938203"}, {"name": "Hairby제니", "longitude": "126.76976973", "latitude": "37.603051311"}, {"name": "IGA MART 감정점", "longitude": "126.69982523", "latitude": "37.621110104"}, {"name": "ILUhairshop/일루헤어", "longitude": "126.71277671", "latitude": "37.631575897"}, {"name": "J&J문화예술원", "longitude": "126.66647326", "latitude": "37.644850361"}, {"name": "J(제이)수학학원", "longitude": "126.68408111", "latitude": "37.655458582"}, {"name": "J-GRIDA(제이그리다)", "longitude": "126.62358537", "latitude": "37.642882304"}, {"name": "J. Y. T 어학원", "longitude": "126.68469613", "latitude": "37.65473947"}, {"name": "J.H무용학원", "longitude": "126.68580242", "latitude": "37.653075662"}, {"name": "J2MSPORTS", "longitude": "126.72088177", "latitude": "37.62124339"}, {"name": "JAIN", "longitude": "126.63006104", "latitude": "37.64620949"}, {"name": "JB마트", "longitude": "126.62819555", "latitude": "37.652158961"}, {"name": "JDX김포점", "telephone": "031-997-5071", "longitude": "126.66774878", "latitude": "37.656016962"}, {"name": "JD입시전문학원", "longitude": "126.72068624", "latitude": "37.622026768"}, {"name": "JE(제이이)과일담음", "longitude": "126.73268861", "latitude": "37.610747653"}, {"name": "JINjewelry", "longitude": "126.72193836", "latitude": "37.602334483"}, {"name": "JJ당구클럽", "longitude": "126.62644608", "latitude": "37.644044703"}, {"name": "JM연세음악학원", "longitude": "126.72776828", "latitude": "37.59674415"}, {"name": "JPG컴퓨터", "longitude": "126.71488569", "latitude": "37.619354888"}, {"name": "JY English 영어", "longitude": "126.62736888", "latitude": "37.640795155"}, {"name": "Jeep 김포장기점", "telephone": "031-984-4900", "longitude": "126.66774878", "latitude": "37.656016962"}, {"name": "JinaKim뉴욕영어", "longitude": "126.62333853", "latitude": "37.655765312"}, {"name": "J커스텀", "longitude": "126.62050593", "latitude": "37.682181382"}, {"name": "K2수학바움영어학원", "telephone": "031-988-9030", "longitude": "126.68261397", "latitude": "37.654049102"}, {"name": "K2헤어", "longitude": "126.6345062", "latitude": "37.643214227"}, {"name": "KCC2차공인중개사사무소", "telephone": "031-985-3885", "longitude": "126.69088431", "latitude": "37.643710146"}, {"name": "KCC참조은공인중개사사무소", "longitude": "126.66359011", "latitude": "37.645986333"}, {"name": "KL-LINE WORLD", "longitude": "126.6235041", "latitude": "37.654405389"}, {"name": "KNS 입시학원", "longitude": "126.72124233", "latitude": "37.621748795"}, {"name": "KS유소년스포츠클럽", "longitude": "126.67878023", "latitude": "37.657462301"}, {"name": "KTH 김포", "longitude": "126.60553638", "latitude": "37.644958186"}, {"name": "Kim's호두과자카페(cafe)", "longitude": "126.63588754", "latitude": "37.666436391"}, {"name": "KnK디지털타워스팀세차", "longitude": "126.68469613", "latitude": "37.65473947"}, {"name": "K디베이트코칭학원", "longitude": "126.72132876", "latitude": "37.622857197"}, {"name": "K용인대체육관", "longitude": "126.62700633", "latitude": "37.640794001"}, {"name": "L'scafe(엘스카페)", "telephone": "031-997-7923", "longitude": "126.62700814", "latitude": "37.620188865"}, {"name": "L.K헤어", "longitude": "126.68416575", "latitude": "37.654215478"}, {"name": "LG전자 베스트샵 김포점", "telephone": "031-997-1400", "longitude": "126.6966648", "latitude": "37.623912975"}, {"name": "LINEPLUS+관광호텔", "longitude": "126.58781207", "latitude": "37.694368932"}, {"name": "LION PC김포풍무런던점", "longitude": "126.72021231", "latitude": "37.597609253"}, {"name": "LK에듀학원", "longitude": "126.67777934", "latitude": "37.637494122"}, {"name": "LUEX(럭스)헤어살롱", "longitude": "126.67294596", "latitude": "37.639075419"}, {"name": "Lois헤어", "longitude": "126.72652161", "latitude": "37.621527025"}, {"name": "M hair studio m헤어", "telephone": "031-988-1912", "longitude": "126.6807798", "latitude": "37.645800265"}, {"name": "M(엠)커피", "telephone": "031-988-1965", "longitude": "126.67777934", "latitude": "37.637494122"}, {"name": "MJ공인중개사사무소", "telephone": "031-997-8998", "longitude": "126.66824669", "latitude": "37.643549003"}, {"name": "MNM팬덤학원", "telephone": "031-981-9818", "longitude": "126.6730494", "latitude": "37.63874235"}, {"name": "MP아티클 헤어샵", "longitude": "126.72563695", "latitude": "37.60963211"}, {"name": "MS세이빙", "telephone": "031-984-9436", "longitude": "126.65858179", "latitude": "37.64845849"}, {"name": "MTB사랑", "longitude": "126.60266585", "latitude": "37.687897341"}, {"name": "MTM수학학원", "longitude": "126.67489312", "latitude": "37.639432225"}, {"name": "MY캘리(마이캘리)", "longitude": "126.62939526", "latitude": "37.654712496"}, {"name": "MaSSe전자담배전문점", "longitude": "126.68408111", "latitude": "37.655458582"}, {"name": "M스크린 골프존파크", "longitude": "126.67041508", "latitude": "37.645131825"}, {"name": "M스포츠", "longitude": "126.58392482", "latitude": "37.64768542"}, {"name": "NSR아라", "longitude": "126.78946638", "latitude": "37.593862572"}, {"name": "NuHairSalon", "telephone": "031-998-9590", "longitude": "126.72065914", "latitude": "37.602223314"}, {"name": "O.K기획", "longitude": "126.70021188", "latitude": "37.626318709"}, {"name": "OA-테크", "longitude": "126.7049658", "latitude": "37.630105873"}, {"name": "OKLED조명", "longitude": "126.7050744", "latitude": "37.625601295"}, {"name": "OK단지앞공인중개사사무소", "longitude": "126.62358537", "latitude": "37.642882304"}, {"name": "OK세탁소"}, {"name": "OSK마트(김포점)", "longitude": "126.69880129", "latitude": "37.622215665"}, {"name": "Openspace(오픈스페이스)", "longitude": "126.72049464", "latitude": "37.621774038"}, {"name": "Ora(오라)", "longitude": "126.66647326", "latitude": "37.644850361"}, {"name": "P A T 모아점", "telephone": "031-986-0750", "longitude": "126.65599866", "latitude": "37.662992499"}, {"name": "PLATIN당구클럽", "longitude": "126.66424834", "latitude": "37.638266934"}, {"name": "PLC어학원", "longitude": "126.67952904", "latitude": "37.638967509"}, {"name": "PS이화음악학원", "longitude": "126.62703557", "latitude": "37.639487692"}, {"name": "Pub.치감(치킨&감자)", "telephone": "031-986-1171", "longitude": "126.71368745", "latitude": "37.621658445"}, {"name": "S. Skin", "longitude": "126.71527517", "latitude": "37.618220613"}, {"name": "SACAFE(사카페)", "longitude": "126.68391429", "latitude": "37.652070499"}, {"name": "SAEM태권도장", "telephone": "031-991-7788", "longitude": "126.68135829", "latitude": "37.645657688"}, {"name": "SDFC유소년축구교실", "longitude": "126.72776828", "latitude": "37.59674415"}, {"name": "SLJ연기뮤지컬학원", "longitude": "126.67166423", "latitude": "37.639405186"}, {"name": "SOUL(소울)", "longitude": "126.72124233", "latitude": "37.621748795"}, {"name": "SR휘트니스", "telephone": "031-988-6428", "longitude": "126.68032611", "latitude": "37.645907141"}, {"name": "SR휘트니스", "longitude": "126.70730259", "latitude": "37.632174971"}, {"name": "SUNAROI(수나로이)", "telephone": "031-8049-3388", "longitude": "126.67443989", "latitude": "37.639439974"}, {"name": "SW영재코딩학원", "telephone": "031-991-9871", "longitude": "126.68338172", "latitude": "37.654708889"}, {"name": "S헤어미용실", "longitude": "126.62492553", "latitude": "37.619884893"}, {"name": "TEMS영수학원 / 리드인", "longitude": "126.64334019", "latitude": "37.636934709"}, {"name": "THE LAMB'S 양고기 전문점", "longitude": "126.77304314", "latitude": "37.602832487"}, {"name": "THE PUB with DRAFTBE", "telephone": "031-982-4998", "longitude": "126.71721475", "latitude": "37.620468744"}, {"name": "THE 이화음악학원", "longitude": "126.6606689", "latitude": "37.645518403"}, {"name": "TNS학원", "longitude": "126.72107473", "latitude": "37.621135735"}, {"name": "Takea(r)rest(테이크어레스트)"}, {"name": "The Giving Tree(더기빙트리) 아카데미학원", "longitude": "126.68338172", "latitude": "37.654708889"}, {"name": "The Hair by 백은채", "telephone": "070-4197-8285", "longitude": "126.72135771", "latitude": "37.603161996"}, {"name": "The.#(더.샵)", "longitude": "126.70097122", "latitude": "37.617824496"}, {"name": "Thetable더테이블(공방&카페)", "longitude": "126.67605353", "latitude": "37.646102605"}, {"name": "The끌림", "telephone": "031-988-7959", "longitude": "126.59986025", "latitude": "37.693068296"}, {"name": "UNA네일", "longitude": "126.68227961", "latitude": "37.655381623"}, {"name": "UTS영어학원", "longitude": "126.70300112", "latitude": "37.628497169"}, {"name": "VIP세탁", "telephone": "031-981-5535", "longitude": "126.66575475", "latitude": "37.643379734"}, {"name": "WEE", "longitude": "126.70574531", "latitude": "37.627801354"}, {"name": "W당구클럽", "longitude": "126.7181566", "latitude": "37.620020534"}, {"name": "W당구클럽", "telephone": "070-4107-0909", "longitude": "126.62647712", "latitude": "37.64463043"}, {"name": "W당구클럽", "longitude": "126.58206111", "latitude": "37.650651968"}, {"name": "Y2K화장품", "longitude": "126.72088177", "latitude": "37.62124339"}, {"name": "YBM시사영어수학학원", "longitude": "126.70730259", "latitude": "37.632174971"}, {"name": "YG국제결혼", "longitude": "126.62750107", "latitude": "37.646048209"}, {"name": "YJ골프클럽", "longitude": "126.62574874", "latitude": "37.645267789"}, {"name": "YJ바움영어학원", "longitude": "126.72638476", "latitude": "37.600362838"}, {"name": "YJ음악학원", "longitude": "126.6730494", "latitude": "37.63874235"}, {"name": "YS실용음악학원", "longitude": "126.62619991", "latitude": "37.64343126"}, {"name": "Y미술교습소", "longitude": "126.70063586", "latitude": "37.619526474"}, {"name": "all가전프라자", "telephone": "031-989-1510", "longitude": "126.59930773", "latitude": "37.692507813"}, {"name": "bhc김포한강신도시점", "longitude": "126.66294594", "latitude": "37.64810175"}, {"name": "by yeon make-up", "longitude": "126.72518831", "latitude": "37.623686226"}, {"name": "cafeMARS(카페막스)", "telephone": "031-988-5380", "longitude": "126.68391429", "latitude": "37.652070499"}, {"name": "cafe글린공원", "longitude": "126.64933946", "latitude": "37.650016855"}, {"name": "cubby(커비)", "longitude": "126.68188498", "latitude": "37.647019582"}, {"name": "cu양곡신협점", "longitude": "126.62366756", "latitude": "37.653459901"}, {"name": "e-편한치과", "telephone": "031-985-2828", "longitude": "126.72054983", "latitude": "37.619161351"}, {"name": "e고려힐링태권도", "longitude": "126.6788013", "latitude": "37.642181967"}, {"name": "e마트24김포구래골드점", "longitude": "126.62409202", "latitude": "37.643514608"}, {"name": "e발소", "longitude": "126.6391174", "latitude": "37.636300098"}, {"name": "e해법수학양도학원", "telephone": "031-996-0804", "longitude": "126.72065914", "latitude": "37.602223314"}, {"name": "hair봄", "longitude": "126.67696892", "latitude": "37.646654727"}, {"name": "hannah.b(한나비)", "longitude": "126.6774168", "latitude": "37.637493123"}, {"name": "jsfamily", "longitude": "126.66825244", "latitude": "37.644792353"}, {"name": "k2 김포모아점", "longitude": "126.65678069", "latitude": "37.662985786"}, {"name": "k뽕", "telephone": "031-997-0058", "longitude": "126.67519716", "latitude": "37.639856525"}, {"name": "lovelyann(러블리앤)", "longitude": "126.68249829", "latitude": "37.654598377"}, {"name": "s모텔", "longitude": "126.62388891", "latitude": "37.652271339"}, {"name": "s쏠레지아", "telephone": "031-997-8486", "longitude": "126.65678069", "latitude": "37.662985786"}, {"name": "the그릇 도자기공방", "telephone": "031-981-9632", "longitude": "126.68172457", "latitude": "37.655326055"}, {"name": "the모아뱅뱅", "longitude": "126.65599866", "latitude": "37.662992499"}, {"name": "you헤어라인", "longitude": "126.71024648", "latitude": "37.626803516"}, {"name": "辛빨간닭발포차", "longitude": "126.7219654", "latitude": "37.622246053"}, {"name": "가구마트", "longitude": "126.6453039", "latitude": "37.652707589"}, {"name": "가구사러가는날(한강김포가구단지)", "telephone": "031-981-5072", "longitude": "126.66791913", "latitude": "37.658459061"}, {"name": "가구샵하나", "longitude": "126.70668986", "latitude": "37.626713555"}, {"name": "가구연구소", "longitude": "126.72110171", "latitude": "37.622991801"}, {"name": "가까운약국", "telephone": "031-984-4117", "longitude": "126.71324461", "latitude": "37.62193666"}, {"name": "가나", "longitude": "126.66993803", "latitude": "37.655545649"}, {"name": "가나동방가스", "longitude": "126.57503455", "latitude": "37.633048869"}, {"name": "가나텔", "longitude": "126.72093432", "latitude": "37.622324682"}, {"name": "가데스에스테틱", "longitude": "126.67843956", "latitude": "37.64199177"}, {"name": "가든플러스", "longitude": "126.67288831", "latitude": "37.6393005"}, {"name": "가람약국", "longitude": "126.77104761", "latitude": "37.599972491"}, {"name": "가람플러스", "longitude": "126.70227924", "latitude": "37.627720498"}, {"name": "가마로강정", "longitude": "126.72049464", "latitude": "37.621774038"}, {"name": "가마솥", "longitude": "126.71710414", "latitude": "37.619774728"}, {"name": "가마솥순대국", "longitude": "126.6179272", "latitude": "37.610771481"}, {"name": "가마솥양평해장국", "telephone": "031-982-0171", "longitude": "126.55892928", "latitude": "37.708426753"}, {"name": "가마솥정육식당", "telephone": "031-981-9503", "longitude": "126.70263635", "latitude": "37.626243815"}, {"name": "가반", "longitude": "126.58942212", "latitude": "37.651461835"}, {"name": "가브리엘헤어 소망", "longitude": "126.67172084", "latitude": "37.639414354"}, {"name": "가브리엘헤어소망(양곡점)", "longitude": "126.62958249", "latitude": "37.655794245"}, {"name": "가브리엘헤어소망(운양점)", "longitude": "126.68249829", "latitude": "37.654598377"}, {"name": "가비", "longitude": "126.63082877", "latitude": "37.719396913"}, {"name": "가산이엔지앤김포판넬", "longitude": "126.60053093", "latitude": "37.654959947"}, {"name": "가야성", "longitude": "126.63611219", "latitude": "37.664545067"}, {"name": "가야촌유황오리", "longitude": "126.70227161", "latitude": "37.626801488"}, {"name": "가오대칼국수", "longitude": "126.61855933", "latitude": "37.646379805"}, {"name": "가온누리수학", "longitude": "126.69966875", "latitude": "37.62338015"}, {"name": "가온보건케어김포지사", "longitude": "126.72149207", "latitude": "37.621605236"}, {"name": "가온산부인과의원", "telephone": "031-984-3532", "longitude": "126.68261397", "latitude": "37.654049102"}, {"name": "가온음악학원", "longitude": "126.66130506", "latitude": "37.645159859"}, {"name": "가온정육점", "longitude": "126.63459067", "latitude": "37.662819486"}, {"name": "가윤음악학원", "longitude": "126.63150597", "latitude": "37.654124522"}, {"name": "가자연세병원 김포점", "telephone": "031-998-8009", "longitude": "126.71783266", "latitude": "37.618830469"}, {"name": "가장맛있는족발", "longitude": "126.77085202", "latitude": "37.604612131"}, {"name": "가장맛있는족발", "telephone": "031-985-5849", "longitude": "126.67149545", "latitude": "37.644242908"}, {"name": "가장맛있는족발", "longitude": "126.72257589", "latitude": "37.607471552"}, {"name": "가정식자연밥상", "longitude": "126.62098551", "latitude": "37.617331473"}, {"name": "가즈아낚시터", "longitude": "126.71736128", "latitude": "37.617694105"}, {"name": "가지런한S치과의원", "longitude": "126.71835942", "latitude": "37.620300325"}, {"name": "가차샵", "longitude": "126.67749486", "latitude": "37.640376436"}, {"name": "가촌", "longitude": "126.65069475", "latitude": "37.706123779"}, {"name": "가현산생고기", "longitude": "126.68133011", "latitude": "37.646936984"}, {"name": "가현산손두부", "telephone": "031-982-3375", "longitude": "126.63800241", "latitude": "37.632629716"}, {"name": "가현산손칼국수", "longitude": "126.63138999", "latitude": "37.625076986"}, {"name": "가현산시골마루", "longitude": "126.63864358", "latitude": "37.631244206"}, {"name": "가현산풍천장어", "telephone": "031-982-9985", "longitude": "126.62853502", "latitude": "37.631933343"}, {"name": "각구목빌리아드클럽", "telephone": "031-996-0927", "longitude": "126.71785236", "latitude": "37.619605353"}, {"name": "간바레", "longitude": "126.64366688", "latitude": "37.63732312"}, {"name": "갈비다움김포점", "longitude": "126.76771787", "latitude": "37.600137089"}, {"name": "갈비도락김포점", "longitude": "126.65036644", "latitude": "37.650902875"}, {"name": "갈비명가", "longitude": "126.70649855", "latitude": "37.632100876"}, {"name": "갈비명가지리산", "telephone": "031-984-9299", "longitude": "126.67038327", "latitude": "37.64718594"}, {"name": "갈비본질 구래직영점", "longitude": "126.62772513", "latitude": "37.637543798"}, {"name": "갈비성", "longitude": "126.71775093", "latitude": "37.619469962"}, {"name": "갈비성(고촌)", "longitude": "126.77315896", "latitude": "37.601994805"}, {"name": "갈비와밀밭", "longitude": "126.71899519", "latitude": "37.619914438"}, {"name": "갈비천왕", "telephone": "031-987-4210", "longitude": "126.68172457", "latitude": "37.655326055"}, {"name": "감동국수집", "longitude": "126.71502386", "latitude": "37.618769593"}, {"name": "감미옥고촌점", "telephone": "031-986-4560", "longitude": "126.75463513", "latitude": "37.604633193"}, {"name": "감사약국", "telephone": "031-997-3722", "longitude": "126.77157871", "latitude": "37.600333923"}, {"name": "감성공간", "longitude": "126.67702389", "latitude": "37.636663148"}, {"name": "감성커피", "telephone": "070-7576-4789", "longitude": "126.62444783", "latitude": "37.64484918"}, {"name": "감성커피 김포장기점", "longitude": "126.66769138", "latitude": "37.643574455"}, {"name": "감성커피 풍무점", "longitude": "126.72441077", "latitude": "37.607412827"}, {"name": "감성포차우리들", "telephone": "031-998-3335", "longitude": "126.6848005", "latitude": "37.654181153"}, {"name": "감정 한미태권도장", "longitude": "126.699637", "latitude": "37.622830476"}, {"name": "감정점기아오토큐", "longitude": "126.6961306", "latitude": "37.624353063"}, {"name": "감정최강학원", "longitude": "126.6991069", "latitude": "37.62227051"}, {"name": "감천수산", "telephone": "031-983-7810", "longitude": "126.59669973", "latitude": "37.690480713"}, {"name": "감초당한의원", "longitude": "126.70963587", "latitude": "37.626522699"}, {"name": "감칠맛", "longitude": "126.68686341", "latitude": "37.654069571"}, {"name": "감탄 양곡점", "longitude": "126.63306883", "latitude": "37.654318635"}, {"name": "감탄장기2호점", "longitude": "126.6851652", "latitude": "37.64571305"}, {"name": "갑인스시카츠", "longitude": "126.71935998", "latitude": "37.619302654"}, {"name": "갓뽑은떡볶이"}, {"name": "강남동태탕찜", "longitude": "126.6291381", "latitude": "37.654017938"}, {"name": "강남스타일헤어디자인", "telephone": "031-991-2225", "longitude": "126.62342546", "latitude": "37.654269991"}, {"name": "강남유리샷시", "longitude": "126.68369739", "latitude": "37.633906406"}, {"name": "강남태권도장", "longitude": "126.7219383", "latitude": "37.605361757"}, {"name": "강남학원", "longitude": "126.72005339", "latitude": "37.621637835"}, {"name": "강릉짬뽕순두부", "telephone": "031-981-7810", "longitude": "126.71625022", "latitude": "37.617970713"}, {"name": "강릉해변막국수", "longitude": "126.57081485", "latitude": "37.700452404"}, {"name": "강릉해변막국수", "telephone": "031-997-0471", "longitude": "126.71738264", "latitude": "37.612108126"}, {"name": "강릉해변메밀막국수", "longitude": "126.6177253", "latitude": "37.647710514"}, {"name": "강미라헤어샵", "telephone": "031-998-0087", "longitude": "126.71058224", "latitude": "37.619164112"}, {"name": "강변세탁소", "telephone": "031-981-3344", "longitude": "126.77340493", "latitude": "37.603022396"}, {"name": "강부자떡가게", "longitude": "126.59945174", "latitude": "37.691039744"}, {"name": "강부자집", "telephone": "031-982-5518", "longitude": "126.66002285", "latitude": "37.650489861"}, {"name": "강샘학원", "longitude": "126.66674568", "latitude": "37.644743022"}, {"name": "강언선플라워", "longitude": "126.70629657", "latitude": "37.625910703"}, {"name": "강언선플라워 조경", "longitude": "126.70629657", "latitude": "37.625910703"}, {"name": "강진청과", "longitude": "126.71116308", "latitude": "37.627049048"}, {"name": "강철태권도", "longitude": "126.62488881", "latitude": "37.647265181"}, {"name": "강철학운태권도", "longitude": "126.6241396", "latitude": "37.620747304"}, {"name": "강한수학학원", "longitude": "126.674724", "latitude": "37.639242552"}, {"name": "강호동치킨678", "longitude": "126.72210288", "latitude": "37.621831934"}, {"name": "강화도집", "longitude": "126.55436531", "latitude": "37.709283406"}, {"name": "강화섬쌀밥집(허일범)", "longitude": "126.5324314", "latitude": "37.729253118"}, {"name": "강화약초건강지킴이탕제원", "longitude": "126.62406113", "latitude": "37.656290194"}, {"name": "강화인삼", "longitude": "126.56376204", "latitude": "37.646575987"}, {"name": "개구리서적", "longitude": "126.66797225", "latitude": "37.644106823"}, {"name": "개똥이네김포점", "longitude": "126.64227454", "latitude": "37.648797187"}, {"name": "개미식당", "longitude": "126.60120404", "latitude": "37.668846075"}, {"name": "개별화물", "longitude": "126.63665114", "latitude": "37.637887181"}, {"name": "개성손만두요리전문점", "longitude": "126.67671672", "latitude": "37.647320745"}, {"name": "개성슈퍼마켓", "longitude": "126.63128411", "latitude": "37.719064996"}, {"name": "개인택시(70대)"}, {"name": "갤러리PC방", "longitude": "126.72146761", "latitude": "37.622082692"}, {"name": "갯마을간장게장", "longitude": "126.54870941", "latitude": "37.643707993"}, {"name": "갯배생선구이", "longitude": "126.5565935", "latitude": "37.708372888"}, {"name": "거성축산물판매장", "telephone": "031-983-7397", "longitude": "126.70316083", "latitude": "37.628218274"}, {"name": "거성카독크", "longitude": "126.57717043", "latitude": "37.657797078"}, {"name": "건강드림내과", "longitude": "126.72193836", "latitude": "37.602334483"}, {"name": "건강수기테라피연구회", "longitude": "126.7105543", "latitude": "37.626299735"}, {"name": "건강팩토리", "telephone": "031-989-7785", "longitude": "126.65582753", "latitude": "37.704598361"}, {"name": "건강프라자약국"}, {"name": "건강플러스점핑", "longitude": "126.6682758", "latitude": "37.647161962"}, {"name": "건강한섬완도금딸네건어물", "longitude": "126.72027752", "latitude": "37.598330189"}, {"name": "건설불러중기(세종기업)", "longitude": "126.71599687", "latitude": "37.616105084"}, {"name": "건설불러중기(세종기업)", "longitude": "126.71632416", "latitude": "37.61641221"}, {"name": "건영마트", "longitude": "126.72598988", "latitude": "37.624408887"}, {"name": "건축사사무소미소건축", "longitude": "126.77313716", "latitude": "37.60540045"}, {"name": "건축사사무소세림", "longitude": "126.7161374", "latitude": "37.617853312"}, {"name": "건축사사무소신우건축", "longitude": "126.71538899", "latitude": "37.618076734"}, {"name": "걸포넘버원부동산공인중개사사무소", "longitude": "126.70793839", "latitude": "37.634690267"}, {"name": "게랑회랑", "longitude": "126.62574874", "latitude": "37.645267789"}, {"name": "게으른농부영농조합법인", "longitude": "126.5753659", "latitude": "37.648375487"}, {"name": "겐텐", "longitude": "126.67785586", "latitude": "37.638134021"}, {"name": "경기냉열상사", "longitude": "126.5977329", "latitude": "37.677708667"}, {"name": "경기도마을기업사회적협동(조)", "longitude": "126.70086254", "latitude": "37.630690081"}, {"name": "경기마을교육공동체(하울림2호점)", "longitude": "126.72885129", "latitude": "37.607107881"}, {"name": "경기마을교육공동체사회적협동조합(하울림", "telephone": "031-8049-3280", "longitude": "126.68691557", "latitude": "37.655132851"}, {"name": "경기서부인삼유통센타34호", "longitude": "126.56376204", "latitude": "37.646575987"}, {"name": "경기서부인삼유통센터 19호", "longitude": "126.56376204", "latitude": "37.646575987"}, {"name": "경기서부인삼유통센터17호", "longitude": "126.56376204", "latitude": "37.646575987"}, {"name": "경기서부인삼유통센터20호", "longitude": "126.56376204", "latitude": "37.646575987"}, {"name": "경기서부인삼유통센터25호", "longitude": "126.56376204", "latitude": "37.646575987"}, {"name": "경기서부인삼유통센터2호", "longitude": "126.56376204", "latitude": "37.646575987"}, {"name": "경기서부인삼유통센터32호", "longitude": "126.56376204", "latitude": "37.646575987"}, {"name": "경기서부인삼유통센터37호", "longitude": "126.56376204", "latitude": "37.646575987"}, {"name": "경기서부인삼유통센터제28호", "longitude": "126.56376204", "latitude": "37.646575987"}, {"name": "경복공예", "longitude": "126.70602643", "latitude": "37.628324625"}, {"name": "경서프라자약국", "telephone": "070-4227-0669", "longitude": "126.62730678", "latitude": "37.644128533"}, {"name": "경성종합환경", "longitude": "126.69577954", "latitude": "37.62157716"}, {"name": "경식이네알쌈쭈구미", "longitude": "126.58720248", "latitude": "37.649183605"}, {"name": "경애한의원", "telephone": "031-985-4148", "longitude": "126.7196081", "latitude": "37.619582551"}, {"name": "경원산업", "longitude": "126.60428703", "latitude": "37.664594983"}, {"name": "경인공조", "longitude": "126.70444146", "latitude": "37.625248317"}, {"name": "경인통진에너지", "longitude": "126.59714772", "latitude": "37.699816174"}, {"name": "경인한성에너지", "longitude": "126.56520409", "latitude": "37.72709093"}, {"name": "경희대 멘토 태권도장", "longitude": "126.63986646", "latitude": "37.643014609"}, {"name": "경희대 천하 태권도", "telephone": "031-997-6511", "longitude": "126.66965225", "latitude": "37.638345388"}, {"name": "경희대글로벌태권도장", "telephone": "031-997-8883", "longitude": "126.66099839", "latitude": "37.645321145"}, {"name": "경희대석사 MMA&태권도장", "longitude": "126.67424974", "latitude": "37.638880845"}, {"name": "경희대석사백호태권도장", "longitude": "126.72066192", "latitude": "37.622468186"}, {"name": "경희대석사아이스타태권장", "longitude": "126.63295171", "latitude": "37.650516195"}, {"name": "경희대슈퍼아이태권도", "longitude": "126.627089", "latitude": "37.640127549"}, {"name": "경희대에이티엠(ATM)태권도장", "longitude": "126.73169217", "latitude": "37.610691309"}, {"name": "경희대유현멘토태권도교육관", "longitude": "126.72632536", "latitude": "37.598056202"}, {"name": "경희대탑태권도장", "longitude": "126.68058664", "latitude": "37.659034929"}, {"name": "경희대태권쏭 태권도장", "longitude": "126.62703557", "latitude": "37.639487692"}, {"name": "경희미술학원", "telephone": "031-983-7552", "longitude": "126.70551859", "latitude": "37.630683888"}, {"name": "경희솔한의원", "telephone": "031-990-2563", "longitude": "126.68249829", "latitude": "37.654598377"}, {"name": "경희어린이집", "telephone": "031-983-7552", "longitude": "126.70551859", "latitude": "37.630683888"}, {"name": "경희장수한의원", "longitude": "126.72535157", "latitude": "37.6071898"}, {"name": "경희하늘한의원", "longitude": "126.66275495", "latitude": "37.647740813"}, {"name": "경희한의원", "longitude": "126.77049145", "latitude": "37.604025787"}, {"name": "계동치킨김포점", "longitude": "126.70327389", "latitude": "37.628272619"}, {"name": "계룡나비마을공인중개사사무소1", "longitude": "126.62722676", "latitude": "37.642020017"}, {"name": "계룡호", "longitude": "126.54134944", "latitude": "37.639264708"}, {"name": "계수WHY수학학원", "longitude": "126.67252736", "latitude": "37.638939102"}, {"name": "계약잘하는부동산공인중개사사무소", "longitude": "126.62834205", "latitude": "37.643293925"}, {"name": "고고점핑", "longitude": "126.71777242", "latitude": "37.601973113"}, {"name": "고고점핑다이어트", "longitude": "126.67172084", "latitude": "37.639414354"}, {"name": "고구려짬뽕10101김포한강신도시점", "longitude": "126.661772", "latitude": "37.652071621"}, {"name": "고기굼터육방", "longitude": "126.729024", "latitude": "37.606333444"}, {"name": "고기굽는이코치", "longitude": "126.69949169", "latitude": "37.622352588"}, {"name": "고기깡돌33", "longitude": "126.62819468", "latitude": "37.638797634"}, {"name": "고기데이", "longitude": "126.62875295", "latitude": "37.653989689"}, {"name": "고기야", "longitude": "126.71493967", "latitude": "37.605353899"}, {"name": "고기원칙 김포장기점", "longitude": "126.67952904", "latitude": "37.638967509"}, {"name": "고기원칙김포풍무점", "longitude": "126.72737802", "latitude": "37.607383753"}, {"name": "고노마마", "longitude": "126.71608088", "latitude": "37.620772324"}, {"name": "고다니어린이집", "longitude": "126.63300178", "latitude": "37.654129222"}, {"name": "고려공사", "longitude": "126.62591776", "latitude": "37.679072471"}, {"name": "고려당", "longitude": "126.59955558", "latitude": "37.690706745"}, {"name": "고려대화랑태권도", "longitude": "126.77329618", "latitude": "37.605247593"}, {"name": "고려문고", "longitude": "126.60092312", "latitude": "37.689405024"}, {"name": "고려영어전문학원", "longitude": "126.66607844", "latitude": "37.644461819"}, {"name": "고려칠감", "longitude": "126.59301135", "latitude": "37.606606182"}, {"name": "고막리커피", "telephone": "031-981-6178", "longitude": "126.55775545", "latitude": "37.724558396"}, {"name": "고매쓰아카데미", "telephone": "031-996-7675", "longitude": "126.6848005", "latitude": "37.654181153"}, {"name": "고매쓰아카데미광장지점", "telephone": "031-996-7675", "longitude": "126.68261397", "latitude": "37.654049102"}, {"name": "고맥하우스", "telephone": "070-7311-1463", "longitude": "126.77071472", "latitude": "37.597773455"}, {"name": "고봉민김밥김포장기점", "telephone": "031-988-9833", "longitude": "126.67230017", "latitude": "37.639073611"}, {"name": "고수꼬치", "longitude": "126.62817112", "latitude": "37.64574401"}, {"name": "고스미장", "longitude": "126.76896114", "latitude": "37.597274456"}, {"name": "고연아틀리에(KoYeonatelier", "longitude": "126.72605331", "latitude": "37.607299565"}, {"name": "고운선발레아카데미", "longitude": "126.76749105", "latitude": "37.600244754"}, {"name": "고운여성의원", "telephone": "031-988-7582", "longitude": "126.66772237", "latitude": "37.644241259"}, {"name": "고은메디칼약국", "telephone": "070-4115-9107", "longitude": "126.62658487", "latitude": "37.643486547"}, {"name": "고은피부샵", "longitude": "126.7031326", "latitude": "37.629605696"}, {"name": "고창풍천민물장어", "telephone": "031-997-5339", "longitude": "126.69238744", "latitude": "37.652795858"}, {"name": "고천성모의원", "longitude": "126.76996457", "latitude": "37.602303886"}, {"name": "고촌 검도관", "telephone": "031-986-2334", "longitude": "126.77038054", "latitude": "37.60327776"}, {"name": "고촌129전집", "longitude": "10125"}, {"name": "고촌노래연습장", "longitude": "126.77038054", "latitude": "37.60327776"}, {"name": "고촌농협 로컬푸드직매장", "telephone": "031-986-4312", "longitude": "126.75293308", "latitude": "37.605638692"}, {"name": "고촌동물병원", "longitude": "126.77185505", "latitude": "37.598856864"}, {"name": "고촌면 이태리", "longitude": "126.76846682", "latitude": "37.599634032"}, {"name": "고촌목욕탕", "longitude": "126.7706607", "latitude": "37.604224335"}, {"name": "고촌본정형외과의원", "longitude": "126.76979833", "latitude": "37.601141299"}, {"name": "고촌세차", "longitude": "126.76948549", "latitude": "37.603411139"}, {"name": "고촌숙명음악학원", "telephone": "031-989-6542", "longitude": "126.77329618", "latitude": "37.605247593"}, {"name": "고촌스포츠", "longitude": "126.77284882", "latitude": "37.603417742"}, {"name": "고촌약국", "longitude": "126.76996457", "latitude": "37.602303886"}, {"name": "고촌연탄집", "longitude": "126.76940681", "latitude": "37.603221779"}, {"name": "고촌열쇠", "longitude": "126.77049274", "latitude": "37.603611341"}, {"name": "고촌이비인후과", "telephone": "031-996-1787", "longitude": "126.76979833", "latitude": "37.601141299"}, {"name": "고촌이제마체질독서실", "longitude": "126.76902041", "latitude": "37.603662492"}, {"name": "고촌점기아오토큐 주식회사", "longitude": "126.77281998", "latitude": "37.601750881"}, {"name": "고촌풍천민물장어", "longitude": "126.77120363", "latitude": "37.600783676"}, {"name": "고촌피자스쿨", "longitude": "126.76960166", "latitude": "37.602474354"}, {"name": "고촌한의원", "telephone": "031-985-5750", "longitude": "126.77068093", "latitude": "37.601359273"}, {"name": "고촌해물전골전문점", "longitude": "126.75002377", "latitude": "37.605299134"}, {"name": "고향", "longitude": "126.71290749", "latitude": "37.621242084"}, {"name": "고향농수산물", "longitude": "126.62345327", "latitude": "37.655486382"}, {"name": "고향옥얼큰순대국", "longitude": "126.62644608", "latitude": "37.644044703"}, {"name": "고향옥얼큰순대국구래점", "longitude": "126.62644608", "latitude": "37.644044703"}, {"name": "고향옥얼큰순대국풍무점", "telephone": "031-981-8886", "longitude": "126.72605331", "latitude": "37.607299565"}, {"name": "고흐숲미술학원", "longitude": "126.62564527", "latitude": "37.643321372"}, {"name": "곤드레보리밥", "longitude": "126.72776828", "latitude": "37.59674415"}, {"name": "곤지암식당", "longitude": "126.55301353", "latitude": "37.715287616"}, {"name": "골드링", "telephone": "031-988-8988", "longitude": "126.59833792", "latitude": "37.691540465"}, {"name": "골드뱅크", "longitude": "126.71844303", "latitude": "37.619165302"}, {"name": "골드아카데미학원", "telephone": "031-985-3638", "longitude": "126.6788013", "latitude": "37.642181967"}, {"name": "골드푸르지오공인중개사사무소"}, {"name": "골드헤어", "longitude": "126.62355792", "latitude": "37.654964159"}, {"name": "골든벨노래연습장", "longitude": "126.71618473", "latitude": "37.620277042"}, {"name": "골든빈스커피", "longitude": "126.62925142", "latitude": "37.654018297"}, {"name": "골든타임공인중개사수무소", "longitude": "126.67702389", "latitude": "37.636663148"}, {"name": "골목길", "longitude": "126.71062979", "latitude": "37.627272971"}, {"name": "골목집모듬구이", "longitude": "126.77154106", "latitude": "37.601523138"}, {"name": "골프굿", "longitude": "126.73499534", "latitude": "37.611771012"}, {"name": "곰사냥을떠나자", "telephone": "070-7778-9107", "longitude": "126.77064611", "latitude": "37.597989554"}, {"name": "곱깨비(김포장기점)", "longitude": "126.67099507", "latitude": "37.644655946"}, {"name": "곱깨비통진점", "telephone": "031-981-5010", "longitude": "126.60455542", "latitude": "37.688597476"}, {"name": "곱깨비통진점", "longitude": "126.60455542", "latitude": "37.688597476"}, {"name": "곱창고구래역점", "longitude": "126.62622394", "latitude": "37.645404452"}, {"name": "곱창끼리", "longitude": "126.67124766", "latitude": "37.643908853"}, {"name": "곱창끼리2", "longitude": "126.67191456", "latitude": "37.644271113"}, {"name": "곱창이야기김포구래점", "telephone": "031-989-0159", "longitude": "126.62574874", "latitude": "37.645267789"}, {"name": "곱창이야기김포사우점", "telephone": "031-986-2189", "longitude": "126.71646686", "latitude": "37.620548019"}, {"name": "공간광고", "longitude": "126.66461422", "latitude": "37.657521636"}, {"name": "공간사랑커튼,침구", "telephone": "031-983-5279", "longitude": "126.6236656", "latitude": "37.656072692"}, {"name": "공간호재", "longitude": "126.66436099", "latitude": "37.638411412"}, {"name": "공감헤어", "longitude": "126.73169217", "latitude": "37.610691309"}, {"name": "공공안경타운", "longitude": "126.77076401", "latitude": "37.600134109"}, {"name": "공센트", "longitude": "126.62503175", "latitude": "37.643652766"}, {"name": "공유식탁", "longitude": "126.67233283", "latitude": "37.644488518"}, {"name": "공이집", "longitude": "126.68000321", "latitude": "37.639356224"}, {"name": "공차김포장기점", "telephone": "031-985-5786", "longitude": "126.66699796", "latitude": "37.644077025"}, {"name": "공차코리아김포풍무점", "telephone": "031-983-5129", "longitude": "126.72193836", "latitude": "37.602334483"}, {"name": "공터영어 1학원", "longitude": "126.6606689", "latitude": "37.645518403"}, {"name": "과수원길협동조합", "longitude": "126.62532895", "latitude": "37.737065139"}, {"name": "과수원집", "telephone": "031-990-3656", "longitude": "126.68172457", "latitude": "37.655326055"}, {"name": "과일마시랑", "longitude": "126.72519239", "latitude": "37.607360611"}, {"name": "과일바구니", "telephone": "031-984-7875", "longitude": "126.70427567", "latitude": "37.629878886"}, {"name": "과일언니 야채오빠", "longitude": "126.67252736", "latitude": "37.638939102"}, {"name": "과일연가(한국프루트)", "longitude": "126.67855265", "latitude": "37.639433332"}, {"name": "과일전문점(오빠네)", "longitude": "126.67891201", "latitude": "37.655822906"}, {"name": "과학고수학교습소", "longitude": "126.68686341", "latitude": "37.654069571"}, {"name": "과학러닝센터학원", "longitude": "126.68249829", "latitude": "37.654598377"}, {"name": "광고일번지", "longitude": "126.65877819", "latitude": "37.650098822"}, {"name": "광목이야기", "longitude": "126.67214095", "latitude": "37.646875542"}, {"name": "광성1호(젓갈,건어물)", "longitude": "126.54134944", "latitude": "37.639264708"}, {"name": "광성산업", "longitude": "126.62777854", "latitude": "37.678736039"}, {"name": "광장당구장", "telephone": "031-992-4614", "longitude": "126.68261397", "latitude": "37.654049102"}, {"name": "교다이", "longitude": "126.67182997", "latitude": "37.645460152"}, {"name": "교동짬뽕(현궁)", "longitude": "126.71597145", "latitude": "37.616825801"}, {"name": "교촌치킨(고촌점)", "telephone": "031-983-0065", "longitude": "126.76821094", "latitude": "37.605390757"}, {"name": "교촌치킨구래점", "telephone": "031-985-2991", "longitude": "126.62622394", "latitude": "37.645404452"}, {"name": "교촌치킨사우점", "telephone": "031-997-9285", "longitude": "126.71618473", "latitude": "37.620277042"}, {"name": "교촌치킨운양점", "longitude": "126.6831868", "latitude": "37.65523993"}, {"name": "교촌치킨통진1호점", "telephone": "031-989-4545", "longitude": "126.59958785", "latitude": "37.693121422"}, {"name": "교촌치킨풍무점", "longitude": "126.72087903", "latitude": "37.600971485"}, {"name": "구구스튜디오", "longitude": "126.59992364", "latitude": "37.689734968"}, {"name": "구래C&C미술학원", "longitude": "126.62694716", "latitude": "37.64354176"}, {"name": "구래경희한의원", "longitude": "126.62658487", "latitude": "37.643486547"}, {"name": "구래동 포장마차", "longitude": "126.62644608", "latitude": "37.644044703"}, {"name": "구래동.생각키움연구소(수학.체스)", "longitude": "126.62542804", "latitude": "37.648185893"}, {"name": "구래동주민자치센터", "longitude": "126.62366943", "latitude": "37.646405351"}, {"name": "구래떡방앗간", "longitude": "126.62425197", "latitude": "37.652182409"}, {"name": "구래어린이집", "longitude": "126.62097309", "latitude": "37.646324576"}, {"name": "구래역부동산공인중개사사무소", "telephone": "031-997-4410", "longitude": "126.62178571", "latitude": "37.642516118"}, {"name": "구래역앞 시크릿", "longitude": "126.62817112", "latitude": "37.64574401"}, {"name": "구래요양보호사 교육원", "longitude": "126.62508408", "latitude": "37.646743247"}, {"name": "구래점핑다이어트", "longitude": "126.62711094", "latitude": "37.644767595"}, {"name": "구래진볼링장", "telephone": "031-998-9998", "longitude": "126.62444783", "latitude": "37.64484918"}, {"name": "구래진짜롤라장", "longitude": "126.62444783", "latitude": "37.64484918"}, {"name": "구래참치", "longitude": "126.62647712", "latitude": "37.64463043"}, {"name": "구래한돌바둑학원", "longitude": "126.62619991", "latitude": "37.64343126"}, {"name": "구래한의원", "longitude": "126.63006104", "latitude": "37.64620949"}, {"name": "구래회관", "telephone": "031-985-2942", "longitude": "126.62697318", "latitude": "37.638379304"}, {"name": "구름아이스", "longitude": "126.68419698", "latitude": "37.646908725"}, {"name": "구멍가게편의점", "longitude": "126.66438529", "latitude": "37.640546775"}, {"name": "구미(신개념여성건강케어샵)", "telephone": "031-984-9234", "longitude": "126.66677749", "latitude": "37.647743332"}, {"name": "구이가", "longitude": "126.72044182", "latitude": "37.599799172"}, {"name": "구이가통진점", "telephone": "031-981-6433", "longitude": "126.5847572", "latitude": "37.697259222"}, {"name": "구자경헤어", "longitude": "126.72124233", "latitude": "37.621748795"}, {"name": "구자경헤어장기점", "longitude": "126.67386173", "latitude": "37.644654966"}, {"name": "구제다락방", "longitude": "126.67096832", "latitude": "37.645574857"}, {"name": "구포국수", "telephone": "031-996-9492", "longitude": "126.62730678", "latitude": "37.644128533"}, {"name": "구피샵장기점", "telephone": "031-986-0010", "longitude": "126.67062016", "latitude": "37.644880132"}, {"name": "구해진 피부사랑", "longitude": "126.71538791", "latitude": "37.618356033"}, {"name": "국가대표 스타클래스(운양)", "longitude": "126.67832814", "latitude": "37.657181758"}, {"name": "국대오리", "longitude": "126.78415287", "latitude": "37.602637365"}, {"name": "국민자동차공업사", "longitude": "126.55611608", "latitude": "37.70856028"}, {"name": "국밥쟁이", "longitude": "126.65417085", "latitude": "37.651544857"}, {"name": "국보966옛날두부", "longitude": "126.58112054", "latitude": "37.648657479"}, {"name": "국보두루치기", "longitude": "126.67641501", "latitude": "37.646355877"}, {"name": "국보두루치기", "longitude": "126.76976869", "latitude": "37.60338467"}, {"name": "국보두루치기양곡점", "longitude": "126.63006218", "latitude": "37.655047962"}, {"name": "국선생장기한강센트럴점", "telephone": "031-998-9279", "longitude": "126.68011259", "latitude": "37.635022865"}, {"name": "국수나무 김포장기점", "telephone": "031-982-6167", "longitude": "126.6594075", "latitude": "37.646316597"}, {"name": "국수나무김포운양점", "telephone": "031-998-2298", "longitude": "126.68172457", "latitude": "37.655326055"}, {"name": "국수랑막창이랑", "longitude": "126.62500247", "latitude": "37.644959073"}, {"name": "국시원", "longitude": "126.68227961", "latitude": "37.655381623"}, {"name": "국시촌", "telephone": "031-989-6672", "longitude": "126.62478626", "latitude": "37.656319549"}, {"name": "국제골프백화점", "longitude": "126.72516327", "latitude": "37.615190001"}, {"name": "국제광고", "telephone": "031-982-2082", "longitude": "126.59083903", "latitude": "37.653430893"}, {"name": "국제자동차공업사", "longitude": "126.59975559", "latitude": "37.66631844"}, {"name": "국제조명전기", "longitude": "126.61627729", "latitude": "37.684401977"}, {"name": "군산아구", "longitude": "126.67843956", "latitude": "37.64199177"}, {"name": "군하영양탕", "longitude": "126.55439518", "latitude": "37.715617223"}, {"name": "굽네치킨", "longitude": "126.70419005", "latitude": "37.625797273"}, {"name": "굽네치킨(마산점)", "longitude": "126.64392133", "latitude": "37.636242733"}, {"name": "굽네치킨마산점", "telephone": "031-988-9296", "longitude": "126.64392133", "latitude": "37.636242733"}, {"name": "굽네치킨북변/사우점", "telephone": "031-998-0202", "longitude": "126.71424268", "latitude": "37.621605746"}, {"name": "굽네치킨장기점", "telephone": "031-984-0550", "longitude": "126.66333256", "latitude": "37.642823198"}, {"name": "굽네치킨풍무점", "longitude": "126.72008121", "latitude": "37.602330047"}, {"name": "굿드림치과의원", "longitude": "126.67172084", "latitude": "37.639414354"}, {"name": "굿모닝 꽈배기", "telephone": "031-981-1511", "longitude": "126.62355792", "latitude": "37.654964159"}, {"name": "굿모닝약국", "telephone": "031-989-7571", "longitude": "126.62533915", "latitude": "37.645599837"}, {"name": "권정현헤어샵", "telephone": "031-988-4971", "longitude": "126.59775636", "latitude": "37.690069907"}, {"name": "권홍헤어김포운양점", "longitude": "126.68272014", "latitude": "37.653076347"}, {"name": "귀빈", "longitude": "126.62899891", "latitude": "37.654657182"}, {"name": "귀빈사우나찜질방", "longitude": "126.62453617", "latitude": "37.65423752"}, {"name": "그날 네일", "longitude": "126.72638476", "latitude": "37.600362838"}, {"name": "그날스튜디오", "longitude": "126.6239773", "latitude": "37.643793539"}, {"name": "그남자의 떡볶이집", "longitude": "126.67369201", "latitude": "37.639464919"}, {"name": "그때,그집 칼국수", "longitude": "126.72077796", "latitude": "37.600745999"}, {"name": "그때그집", "telephone": "031-983-3209", "longitude": "126.71683034", "latitude": "37.611413039"}, {"name": "그라시아(Gracia)", "longitude": "126.67261568", "latitude": "37.639461911"}, {"name": "그래바", "longitude": "126.70243691", "latitude": "37.625135114"}, {"name": "그랜드조명", "longitude": "126.70474668", "latitude": "37.631078367"}, {"name": "그레이스 건강관리 구래지점", "longitude": "126.63006104", "latitude": "37.64620949"}, {"name": "그레이스건강관리", "longitude": "126.67843956", "latitude": "37.64199177"}, {"name": "그레이스미용실", "telephone": "031-997-3841", "longitude": "126.59569983", "latitude": "37.692954899"}, {"name": "그레이코데", "longitude": "126.69747204", "latitude": "37.653629011"}, {"name": "그레텔", "telephone": "031-982-3526", "longitude": "126.59841758", "latitude": "37.691486681"}, {"name": "그루브헤어", "longitude": "126.77193826", "latitude": "37.601244613"}, {"name": "그루터기동물병원", "telephone": "031-988-0818", "longitude": "126.72008121", "latitude": "37.602330047"}, {"name": "그리다미술학원", "longitude": "126.67424974", "latitude": "37.638880845"}, {"name": "그리드 프리미엄 독서실", "longitude": "126.674724", "latitude": "37.639242552"}, {"name": "그린마트", "telephone": "031-989-8946", "longitude": "126.59228727", "latitude": "37.692925048"}, {"name": "그린마트", "longitude": "126.70063586", "latitude": "37.619526474"}, {"name": "그린뮤즈(GreenMuse)", "telephone": "031-984-9841", "longitude": "126.67172639", "latitude": "37.645820248"}, {"name": "그린세탁", "longitude": "126.69088431", "latitude": "37.643710146"}, {"name": "그린이,감성미술", "longitude": "126.66364154", "latitude": "37.649626385"}, {"name": "그린조이", "telephone": "031-988-5754", "longitude": "126.71082814", "latitude": "37.62579587"}, {"name": "그린카피", "longitude": "126.71669313", "latitude": "37.617665457"}, {"name": "그린휴게실", "longitude": "126.58256157", "latitude": "37.650320396"}, {"name": "그림나라어린이집", "longitude": "126.70016708", "latitude": "37.645743486"}, {"name": "그림숲미술학원", "longitude": "126.68261397", "latitude": "37.654049102"}, {"name": "그림책여행학원", "longitude": "126.6848005", "latitude": "37.654181153"}, {"name": "그믐달", "longitude": "126.6733905", "latitude": "37.643599519"}, {"name": "그옛날우리집", "longitude": "126.63006104", "latitude": "37.64620949"}, {"name": "글라스미안경원", "longitude": "126.71997111", "latitude": "37.619439267"}, {"name": "글라스스토리 김포한강점", "telephone": "031-984-0050", "longitude": "126.62711094", "latitude": "37.644767595"}, {"name": "글라스스토리(김포운양점)", "longitude": "126.68249829", "latitude": "37.654598377"}, {"name": "글라스스토리김포고촌점", "telephone": "031-983-6558", "longitude": "126.76979833", "latitude": "37.601141299"}, {"name": "글라스진", "telephone": "031-997-7866", "longitude": "126.64958666", "latitude": "37.650459069"}, {"name": "글래드아이안경원", "longitude": "126.67843956", "latitude": "37.64199177"}, {"name": "글레머집합소", "longitude": "126.62814693", "latitude": "37.655068922"}, {"name": "글렌루나", "longitude": "126.62500247", "latitude": "37.644959073"}, {"name": "글로리", "longitude": "126.70602898", "latitude": "37.627684942"}, {"name": "글로리아", "longitude": "126.7196081", "latitude": "37.619582551"}, {"name": "글로리이화음악학원", "longitude": "126.72538466", "latitude": "37.613523722"}, {"name": "글로벌미트 정육점", "telephone": "031-982-7249", "longitude": "126.62564527", "latitude": "37.643321372"}, {"name": "글로벌스터디카페", "longitude": "126.72163807", "latitude": "37.600883198"}, {"name": "글리제헤어염색", "longitude": "126.62597877", "latitude": "37.640105988"}, {"name": "글리제헤어컬러링", "telephone": "031-907-8320", "longitude": "126.64488898", "latitude": "37.637633163"}, {"name": "글리제헤어컬러링전문점", "telephone": "031-989-6826", "longitude": "126.5988619", "latitude": "37.691091782"}, {"name": "글리제헤어컬러링학운점", "longitude": "126.62661171", "latitude": "37.620187602"}, {"name": "금강공업사", "telephone": "031-989-3551", "longitude": "126.63422448", "latitude": "37.619968368"}, {"name": "금강산갈비", "longitude": "126.71304756", "latitude": "37.605583521"}, {"name": "금강산감자탕(양곡점)", "telephone": "031-998-2552", "longitude": "126.62289428", "latitude": "37.656214364"}, {"name": "금강전기상사", "longitude": "126.65064106", "latitude": "37.667130064"}, {"name": "금강제화김포모아점", "telephone": "031-997-1137", "longitude": "126.65599866", "latitude": "37.662992499"}, {"name": "금강측량설계공사", "longitude": "126.71566692", "latitude": "37.6164917"}, {"name": "금돌멩이", "longitude": "126.72215938", "latitude": "37.606803841"}, {"name": "금릉건축사사무소", "longitude": "126.71566692", "latitude": "37.6164917"}, {"name": "금빛과일", "longitude": "126.67230017", "latitude": "37.639073611"}, {"name": "금빛과일(면세사업자)", "longitude": "126.67230017", "latitude": "37.639073611"}, {"name": "금빛부동산까페공인중개사사무소", "longitude": "126.68272014", "latitude": "37.653076347"}, {"name": "금빛우리땅갈비", "telephone": "031-984-9242", "longitude": "126.6585594", "latitude": "37.650854995"}, {"name": "금빛자이음악학원", "longitude": "126.68105174", "latitude": "37.635295721"}, {"name": "금빛카페", "longitude": "126.68272014", "latitude": "37.653076347"}, {"name": "금빛테이블", "longitude": "126.68105174", "latitude": "37.635295721"}, {"name": "금성숯불장어", "longitude": "126.62674876", "latitude": "37.619962796"}, {"name": "금약국", "longitude": "126.7697711", "latitude": "37.602609835"}, {"name": "금진한의원", "longitude": "126.62470136", "latitude": "37.655184062"}, {"name": "금탑공인중개사", "longitude": "126.62597212", "latitude": "37.645908189"}, {"name": "금파꽃농원(홍성열)", "longitude": "126.6454777", "latitude": "37.708621751"}, {"name": "금파내장건설", "longitude": "126.61219304", "latitude": "37.684983151"}, {"name": "금파약국", "longitude": "126.71116718", "latitude": "37.631797171"}, {"name": "금파이용원", "longitude": "126.71130521", "latitude": "37.62546369"}, {"name": "금파전기", "longitude": "126.71577831", "latitude": "37.622870852"}, {"name": "금포왕만두", "longitude": "126.6206932", "latitude": "37.711958643"}, {"name": "금호카센타", "longitude": "126.71066362", "latitude": "37.621524859"}, {"name": "금화왕돈까스 김포운양점", "longitude": "126.66855997", "latitude": "37.657073393"}, {"name": "금화정남원추어탕", "longitude": "126.62172389", "latitude": "37.636875868"}, {"name": "금희슈퍼", "longitude": "126.62069621", "latitude": "37.711373032"}, {"name": "기독교백화점큰사랑", "longitude": "126.7049658", "latitude": "37.630105873"}, {"name": "기린텔레콤", "longitude": "126.70730259", "latitude": "37.632174971"}, {"name": "기본한의원", "longitude": "126.71527517", "latitude": "37.618220613"}, {"name": "기분전환", "longitude": "126.62564527", "latitude": "37.643321372"}, {"name": "기쁨약국", "telephone": "031-989-4322", "longitude": "126.67424974", "latitude": "37.638880845"}, {"name": "기쁨어린이집", "longitude": "126.62531348", "latitude": "37.641716591"}, {"name": "기절초풍생고기", "telephone": "031-984-0073", "longitude": "126.62700602", "latitude": "37.645352889"}, {"name": "기탄사고력 풍무센트럴 제1교실", "longitude": "126.7287406", "latitude": "37.609495204"}, {"name": "기탄사고력교실 마산동힐스테이트", "longitude": "126.63530787", "latitude": "37.639180396"}, {"name": "기탄사고력교실풍무센트럴푸르지오2교실", "longitude": "126.7287406", "latitude": "37.609495204"}, {"name": "길동수산", "longitude": "126.62872568", "latitude": "37.654908586"}, {"name": "길선상사", "longitude": "126.66774878", "latitude": "37.656016962"}, {"name": "길참치", "longitude": "126.67205276", "latitude": "37.643766959"}, {"name": "길한의원", "longitude": "126.72802386", "latitude": "37.604222839"}, {"name": "길훈공인중개사", "longitude": "126.77049274", "latitude": "37.603611341"}, {"name": "김가네김포마산점", "longitude": "126.64366688", "latitude": "37.63732312"}, {"name": "김가네김포호수마을점", "telephone": "031-985-1369", "longitude": "126.63264603", "latitude": "37.650461179"}, {"name": "김가네바지락칼국수", "longitude": "126.71102177", "latitude": "37.625526058"}, {"name": "김경민헤어", "longitude": "126.59836589", "latitude": "37.690567526"}, {"name": "김구원선생두부", "longitude": "126.77179182", "latitude": "37.59733409"}, {"name": "김대기4프로국어학원", "longitude": "126.67424974", "latitude": "37.638880845"}, {"name": "김대박양꼬치", "longitude": "126.72502241", "latitude": "37.60738724"}, {"name": "김대박양꼬치", "longitude": "126.71454862", "latitude": "37.621579465"}, {"name": "김명자낙지마당", "telephone": "031-987-3445", "longitude": "126.61411927", "latitude": "37.685178718"}, {"name": "김민주헤어", "longitude": "126.68056728", "latitude": "37.642538182"}, {"name": "김민희황후피부관리", "telephone": "031-989-4595", "longitude": "126.66677749", "latitude": "37.647743332"}, {"name": "김밥713", "longitude": "126.6486138", "latitude": "37.633409857"}, {"name": "김밥공감(풍무점)", "longitude": "126.72613647", "latitude": "37.600137013"}, {"name": "김밥공방", "longitude": "126.66294594", "latitude": "37.64810175"}, {"name": "김밥다옴", "telephone": "031-989-8889", "longitude": "126.66747562", "latitude": "37.643681958"}, {"name": "김밥마루", "longitude": "126.72146761", "latitude": "37.622082692"}, {"name": "김밥매니아", "telephone": "031-981-7004", "longitude": "126.72068624", "latitude": "37.622026768"}, {"name": "김밥슈퍼", "telephone": "031-986-9466", "longitude": "126.76913261", "latitude": "37.603996075"}, {"name": "김밥제일가", "longitude": "126.62752898", "latitude": "37.654012829"}, {"name": "김밥짱", "telephone": "031-982-2737", "longitude": "126.72568573", "latitude": "37.608695212"}, {"name": "김밥천국 양곡점", "longitude": "126.62355622", "latitude": "37.655297511"}, {"name": "김밥천국(김포장기점)", "telephone": "031-997-0250", "longitude": "126.67835487", "latitude": "37.638018268"}, {"name": "김밥천국(풍무점)", "longitude": "126.72065914", "latitude": "37.602223314"}, {"name": "김밥천국마송점", "telephone": "031-983-5009", "longitude": "126.59833792", "latitude": "37.691540465"}, {"name": "김밥천국북변점", "telephone": "031-996-5858", "longitude": "126.71130521", "latitude": "37.62546369"}, {"name": "김밥천국운양점", "longitude": "126.68261397", "latitude": "37.654049102"}, {"name": "김밥천국장기점", "telephone": "031-987-1009", "longitude": "126.66843833", "latitude": "37.643765778"}, {"name": "김밥천국학운리", "longitude": "126.62098551", "latitude": "37.617331473"}, {"name": "김상우의원", "longitude": "126.63295171", "latitude": "37.650516195"}, {"name": "김상희헤어", "longitude": "126.72149207", "latitude": "37.621605236"}, {"name": "김서방참숯불닭갈비", "longitude": "126.63163764", "latitude": "37.718678699"}, {"name": "김성훈고3수능영어학원", "longitude": "126.72068624", "latitude": "37.622026768"}, {"name": "김성희헤어크리닉", "longitude": "126.7207226", "latitude": "37.600412506"}, {"name": "김송정 머리터 풍무점", "longitude": "126.72399969", "latitude": "37.602249274"}, {"name": "김앤서", "longitude": "126.6275261", "latitude": "37.638822538"}, {"name": "김앤오소아청소년과의원", "telephone": "031-988-6383", "longitude": "126.68261397", "latitude": "37.654049102"}, {"name": "김영화부대찌개", "telephone": "031-984-8636", "longitude": "126.66616079", "latitude": "37.646300027"}, {"name": "김용식해물손칼국수", "telephone": "031-986-6013", "longitude": "126.62775464", "latitude": "37.640688266"}, {"name": "김인순헤어", "telephone": "031-988-3009", "longitude": "126.64159", "latitude": "37.6427406"}, {"name": "김일부페식당", "longitude": "126.53922954", "latitude": "37.681376322"}, {"name": "김일체육사", "longitude": "126.7123288", "latitude": "37.624412079"}, {"name": "김지연", "longitude": "126.76769507", "latitude": "37.596587198"}, {"name": "김태희헤어샵", "longitude": "126.62428556", "latitude": "37.652263603"}, {"name": "김포 대한권투체육관", "telephone": "031-984-1216", "longitude": "126.77049145", "latitude": "37.604025787"}, {"name": "김포 메이크존", "longitude": "126.70243691", "latitude": "37.625135114"}, {"name": "김포 목우촌 닭고기", "longitude": "126.62236153", "latitude": "37.656239675"}, {"name": "김포1번가 구이센터", "longitude": "126.58761541", "latitude": "37.650320274"}, {"name": "김포1번가 축산물도매시장", "longitude": "126.58761541", "latitude": "37.650320274"}, {"name": "김포24시메디엘동물병원", "longitude": "126.62597212", "latitude": "37.645908189"}, {"name": "김포24시호수동물의료센터", "longitude": "126.68549798", "latitude": "37.655381316"}, {"name": "김포24시힐동물의료센터", "telephone": "031-987-7585", "longitude": "126.68056728", "latitude": "37.642538182"}, {"name": "김포9시아이폰수리센터", "longitude": "126.67064318", "latitude": "37.64479911"}, {"name": "김포G가든", "longitude": "126.53461791", "latitude": "37.727892379"}, {"name": "김포KCC 공인중개사사무소", "telephone": "031-996-3350", "longitude": "126.66359011", "latitude": "37.645986333"}, {"name": "김포가구스타", "telephone": "031-986-8936", "longitude": "126.62172389", "latitude": "37.636875868"}, {"name": "김포가마솥24시해장국", "longitude": "126.69904722", "latitude": "37.623018163"}, {"name": "김포가마솥해장국", "longitude": "126.63028561", "latitude": "37.657958782"}, {"name": "김포가야밀면", "longitude": "126.58978288", "latitude": "37.651796455"}, {"name": "김포건강원", "longitude": "126.71158393", "latitude": "37.626608612"}, {"name": "김포경희25병원", "longitude": "126.62658487", "latitude": "37.643486547"}, {"name": "김포경희한의원", "longitude": "126.62667231", "latitude": "37.655352538"}, {"name": "김포고깃집", "telephone": "031-989-5135", "longitude": "126.63489155", "latitude": "37.718923148"}, {"name": "김포고창어린이집", "longitude": "126.65808105", "latitude": "37.641573642"}, {"name": "김포고촌꽃배달부동산공인중개사", "telephone": "031-986-1000", "longitude": "126.77191098", "latitude": "37.599082217"}, {"name": "김포곤드레밥", "longitude": "126.72027744", "latitude": "37.619304855"}, {"name": "김포곱창구래본점", "telephone": "031-984-3322", "longitude": "126.62500247", "latitude": "37.644959073"}, {"name": "김포공인중개사사무소", "telephone": "031-984-9100", "longitude": "126.72169005", "latitude": "37.599108401"}, {"name": "김포공장공인중개사사무소", "longitude": "126.63533205", "latitude": "37.66646169"}, {"name": "김포관광협동(조)", "longitude": "126.59605987", "latitude": "37.6436285"}, {"name": "김포광장약국", "longitude": "126.66772237", "latitude": "37.644241259"}, {"name": "김포그릇백화점", "longitude": "126.7108814", "latitude": "37.626660934"}, {"name": "김포금빛농원", "longitude": "126.58745216", "latitude": "37.616551472"}, {"name": "김포금쌀영농조합법인", "telephone": "031-988-9914", "longitude": "126.62372163", "latitude": "37.68070518"}, {"name": "김포꽃백화점", "longitude": "126.72632402", "latitude": "37.616769429"}, {"name": "김포꿩만두", "longitude": "126.71616078", "latitude": "37.617664165"}, {"name": "김포다은병원", "longitude": "126.71052381", "latitude": "37.625407699"}, {"name": "김포다하누촌(주)(명품관점)", "longitude": "126.55301353", "latitude": "37.715287616"}, {"name": "김포다하누촌(주)(본점)", "longitude": "126.55281975", "latitude": "37.715449048"}, {"name": "김포닭강정", "longitude": "126.72519483", "latitude": "37.609748197"}, {"name": "김포닷미술학원", "longitude": "126.68105174", "latitude": "37.635295721"}, {"name": "김포당구클럽", "longitude": "126.70602643", "latitude": "37.628324625"}, {"name": "김포대박가구도매(주문제작)", "longitude": "126.7254621", "latitude": "37.614019439"}, {"name": "김포도가 두두", "longitude": "126.64492229", "latitude": "37.668464292"}, {"name": "김포도담약국", "longitude": "126.62816681", "latitude": "37.644347499"}, {"name": "김포동우탁구회관", "longitude": "126.71224197", "latitude": "37.623438817"}, {"name": "김포디자인(간판명함현수막 도장기념품)", "telephone": "031-986-8282", "longitude": "126.73585947", "latitude": "37.610826948"}, {"name": "김포디지털랜드", "longitude": "126.60070401", "latitude": "37.683791304"}, {"name": "김포떡방앗간", "longitude": "126.71015935", "latitude": "37.625911339"}, {"name": "김포랜드로바", "longitude": "126.7101892", "latitude": "37.626965549"}, {"name": "김포리아한의원", "telephone": "031-986-4975", "longitude": "126.6680775", "latitude": "37.643377339"}, {"name": "김포모아뱅뱅", "telephone": "031-996-7654", "longitude": "126.65599866", "latitude": "37.662992499"}, {"name": "김포민물장어초벌구이", "longitude": "126.67812196", "latitude": "37.644675779"}, {"name": "김포버섯농원", "longitude": "126.69186163", "latitude": "37.640298057"}, {"name": "김포베이비플러스김포점(유아용품할인점)", "telephone": "031-996-2353", "longitude": "126.62750107", "latitude": "37.646048209"}, {"name": "김포부부한의원", "telephone": "031-982-8055", "longitude": "126.66700929", "latitude": "37.644077057"}, {"name": "김포불닭발", "longitude": "126.67158573", "latitude": "37.644324248"}, {"name": "김포비와이씨", "longitude": "126.71040803", "latitude": "37.626047101"}, {"name": "김포사우공인중개사사무소", "longitude": "126.72171919", "latitude": "37.618443366"}, {"name": "김포사우소마학원", "telephone": "031-8049-3688", "longitude": "126.72113725", "latitude": "37.622577439"}, {"name": "김포서비스기아오토큐", "longitude": "126.64927884", "latitude": "37.650854572"}, {"name": "김포세탁소", "longitude": "126.72446288", "latitude": "37.605583973"}, {"name": "김포센트럴공인중개사사무소", "longitude": "126.72493459", "latitude": "37.606639225"}, {"name": "김포속편한내과의원", "longitude": "126.72493459", "latitude": "37.606639225"}, {"name": "김포쇼핑아울렛", "longitude": "126.62984102", "latitude": "37.663011783"}, {"name": "김포수산시장", "longitude": "126.62316657", "latitude": "37.64279987"}, {"name": "김포숭무관", "longitude": "126.72065914", "latitude": "37.602223314"}, {"name": "김포스터디뱅크독서실", "telephone": "031-988-3760", "longitude": "126.72093432", "latitude": "37.622324682"}, {"name": "김포스포츠 걸포점", "longitude": "126.71005063", "latitude": "37.636299253"}, {"name": "김포시대", "longitude": "126.71055592", "latitude": "37.622993176"}, {"name": "김포시보듬이나눔이어린이집", "longitude": "126.62317337", "latitude": "37.616969136"}, {"name": "김포시북부노인복지관", "longitude": "126.60683814", "latitude": "37.683595832"}, {"name": "김포시사계절썰매장", "longitude": "126.55564554", "latitude": "37.72081146"}, {"name": "김포시아마튜어복싱연맹", "longitude": "126.72002399", "latitude": "37.617439235"}, {"name": "김포시장애아동재활치료센터", "telephone": "031-989-8662", "longitude": "126.72226862", "latitude": "37.622940523"}, {"name": "김포시종합사회복지관", "telephone": "031-989-8271", "longitude": "126.72226862", "latitude": "37.622940523"}, {"name": "김포시포도연구회", "longitude": "126.55615269", "latitude": "37.694901938"}, {"name": "김포쌀상회", "longitude": "126.72087903", "latitude": "37.600971485"}, {"name": "김포쌀양곡", "longitude": "126.69285532", "latitude": "37.641102534"}, {"name": "김포아동발달센터", "longitude": "126.72030293", "latitude": "37.621548336"}, {"name": "김포아동발달센터장기점", "longitude": "126.6680775", "latitude": "37.643377339"}, {"name": "김포아이미래로", "telephone": "031-998-6692", "longitude": "126.72149207", "latitude": "37.621605236"}, {"name": "김포아이제일병원", "longitude": "126.62658487", "latitude": "37.643486547"}, {"name": "김포아이폰수리점", "longitude": "126.72238351", "latitude": "37.604416793"}, {"name": "김포안경백화점", "longitude": "126.72054983", "latitude": "37.619161351"}, {"name": "김포애견클럽", "longitude": "126.7065013", "latitude": "37.631407136"}, {"name": "김포야채통닭", "telephone": "031-988-8343", "longitude": "126.68152429", "latitude": "37.646577127"}, {"name": "김포약국", "longitude": "126.70963403", "latitude": "37.626991199"}, {"name": "김포양촌점이화수전통육개장", "telephone": "031-998-7134", "longitude": "126.63422448", "latitude": "37.619968368"}, {"name": "김포어린이집[아이사랑]", "longitude": "126.70440951", "latitude": "37.627572741"}, {"name": "김포에셋부동산중개법인(주)", "longitude": "126.64908227", "latitude": "37.651682871"}, {"name": "김포엠", "longitude": "126.66683848", "latitude": "37.644265774"}, {"name": "김포엠싸인", "longitude": "126.71693567", "latitude": "37.616440723"}, {"name": "김포연세언어치료교육", "telephone": "031-984-1175", "longitude": "126.7181566", "latitude": "37.620020534"}, {"name": "김포연탄집", "longitude": "126.72463508", "latitude": "37.61408056"}, {"name": "김포연탄집", "longitude": "126.72463508", "latitude": "37.61408056"}, {"name": "김포예미지세탁", "longitude": "126.62431266", "latitude": "37.637992392"}, {"name": "김포오에이서비스", "longitude": "126.63033328", "latitude": "37.657490432"}, {"name": "김포원어민중국어교실", "longitude": "126.72008121", "latitude": "37.602330047"}, {"name": "김포원조닭한마리", "longitude": "126.62750107", "latitude": "37.646048209"}, {"name": "김포원조돌곱창", "longitude": "126.7101892", "latitude": "37.626965549"}, {"name": "김포웨딩홀부페", "telephone": "031-984-3123", "longitude": "126.70310662", "latitude": "37.630434523"}, {"name": "김포웰피부과비뇨기과", "telephone": "031-986-2112", "longitude": "126.62694716", "latitude": "37.64354176"}, {"name": "김포유나간호학원", "longitude": "126.66843833", "latitude": "37.643765778"}, {"name": "김포은여울마스터클럽", "longitude": "126.64202979", "latitude": "37.638489382"}, {"name": "김포이브자리북변점", "longitude": "126.70763854", "latitude": "37.627436709"}, {"name": "김포이정재탁구클럽", "longitude": "126.72124233", "latitude": "37.621748795"}, {"name": "김포인테리어", "longitude": "126.71779601", "latitude": "37.622497336"}, {"name": "김포장기르까프", "telephone": "031-985-7547", "longitude": "126.66733543", "latitude": "37.65721407"}, {"name": "김포장기점네파", "longitude": "126.66724404", "latitude": "37.657375984"}, {"name": "김포장기푸마", "longitude": "126.66688944", "latitude": "37.658104756"}, {"name": "김포장기한의원", "telephone": "031-983-8408", "longitude": "126.66677749", "latitude": "37.647743332"}, {"name": "김포장문외과", "telephone": "031-986-9082", "longitude": "126.71835942", "latitude": "37.620300325"}, {"name": "김포정육", "longitude": "126.6682758", "latitude": "37.647161962"}, {"name": "김포정육도매센터", "telephone": "031-981-3414", "longitude": "126.72132594", "latitude": "37.602576287"}, {"name": "김포제일자동차", "longitude": "126.59298122", "latitude": "37.65334826"}, {"name": "김포제일한의원", "longitude": "126.72776828", "latitude": "37.59674415"}, {"name": "김포족발", "telephone": "031-985-0405", "longitude": "126.71638799", "latitude": "37.620439711"}, {"name": "김포종로약국", "telephone": "031-983-8800", "longitude": "126.70315895", "latitude": "37.628686774"}, {"name": "김포종합악기", "longitude": "126.69791357", "latitude": "37.623240481"}, {"name": "김포중앙공인중개사학원", "longitude": "126.7196081", "latitude": "37.619582551"}, {"name": "김포중앙요리제과학원", "longitude": "126.66772237", "latitude": "37.644241259"}, {"name": "김포중장비자동차정비학원", "telephone": "031-984-9923", "longitude": "126.65575243", "latitude": "37.650153025"}, {"name": "김포쥬니어치과", "telephone": "031-986-7928", "longitude": "126.66674568", "latitude": "37.644743022"}, {"name": "김포지도", "longitude": "126.7157496", "latitude": "37.618555128"}, {"name": "김포지사사임당홈케어"}, {"name": "김포차", "longitude": "126.72008121", "latitude": "37.602330047"}, {"name": "김포참조은내과의원", "longitude": "126.62749819", "latitude": "37.655625458"}, {"name": "김포창조의아침미술학원", "longitude": "126.66611235", "latitude": "37.644479935"}, {"name": "김포채움학원", "telephone": "031-988-9698", "longitude": "126.64377922", "latitude": "37.637521675"}, {"name": "김포청과도매센터", "longitude": "126.66410699", "latitude": "37.661907878"}, {"name": "김포축산도매센터", "longitude": "126.7108543", "latitude": "37.62779609"}, {"name": "김포치과의원", "longitude": "126.71063381", "latitude": "37.626245874"}, {"name": "김포카페바리스타아카데미학원", "longitude": "126.7196081", "latitude": "37.619582551"}, {"name": "김포커피바리스타전문학원", "longitude": "126.62564527", "latitude": "37.643321372"}, {"name": "김포컴퓨터 컴플러스", "telephone": "031-997-7799", "longitude": "126.70444146", "latitude": "37.625248317"}, {"name": "김포큰화원", "longitude": "126.63105601", "latitude": "37.719316544"}, {"name": "김포타이어", "longitude": "126.64202852", "latitude": "37.650463222"}, {"name": "김포탑공인중개사사무소", "longitude": "126.62581276", "latitude": "37.655016436"}, {"name": "김포테마24시한증막", "longitude": "126.57650722", "latitude": "37.680625029"}, {"name": "김포튼튼한의원", "longitude": "126.62694716", "latitude": "37.64354176"}, {"name": "김포파주인삼농협 하나로마트", "longitude": "126.59992364", "latitude": "37.689734968"}, {"name": "김포파주인삼농협(현지네)", "longitude": "126.56376204", "latitude": "37.646575987"}, {"name": "김포파주인삼농협33호", "longitude": "126.56376204", "latitude": "37.646575987"}, {"name": "김포파주인삼농협소의네", "longitude": "126.56376204", "latitude": "37.646575987"}, {"name": "김포파주인삼농협유통센타24호", "longitude": "126.56376204", "latitude": "37.646575987"}, {"name": "김포패밀리한의원", "longitude": "126.62536997", "latitude": "37.643987207"}, {"name": "김포팬텀 유소년축구클럽", "longitude": "126.71266371", "latitude": "37.605276246"}, {"name": "김포펜타스학원", "longitude": "126.72124233", "latitude": "37.621748795"}, {"name": "김포프라자", "longitude": "126.72457989", "latitude": "37.613693011"}, {"name": "김포프리마뉴스터디학원", "longitude": "126.67166423", "latitude": "37.639405186"}, {"name": "김포하나이비인후과", "telephone": "031-981-7979", "longitude": "126.68261397", "latitude": "37.654049102"}, {"name": "김포하이스트학원", "longitude": "126.67166423", "latitude": "37.639405186"}, {"name": "김포한강SLP어학원", "longitude": "126.68122302", "latitude": "37.645495145"}, {"name": "김포한강공인중개사", "longitude": "126.64311509", "latitude": "37.636627694"}, {"name": "김포한강금거래소", "longitude": "126.67155603", "latitude": "37.645909867"}, {"name": "김포한강브레인학원", "longitude": "126.68338172", "latitude": "37.654708889"}, {"name": "김포한강유도관", "longitude": "126.62613762", "latitude": "37.644548259"}, {"name": "김포한강전자담배", "longitude": "126.63006104", "latitude": "37.64620949"}, {"name": "김포한강정철어학원", "telephone": "031-998-0533", "longitude": "126.62730678", "latitude": "37.644128533"}, {"name": "김포한옥스튜디오", "longitude": "126.68705724", "latitude": "37.64843905"}, {"name": "김포한우곱창", "longitude": "126.62613762", "latitude": "37.644548259"}, {"name": "김포한의원", "telephone": "031-996-9955", "longitude": "126.72088177", "latitude": "37.62124339"}, {"name": "김포한탄강", "telephone": "031-985-6556", "longitude": "126.67007735", "latitude": "37.654798241"}, {"name": "김포해독원"}, {"name": "김포해품닭", "longitude": "126.66922239", "latitude": "37.645795174"}, {"name": "김포헤어샵", "longitude": "126.7096119", "latitude": "37.626855999"}, {"name": "김포현대상사", "longitude": "126.71063381", "latitude": "37.626245874"}, {"name": "김필영어학원", "longitude": "126.72110171", "latitude": "37.622991801"}, {"name": "김형제고기의철학구래점", "telephone": "031-984-1929", "longitude": "126.62444783", "latitude": "37.64484918"}, {"name": "김호정의그릿필라테스", "longitude": "126.72638476", "latitude": "37.600362838"}, {"name": "김희라돈까스", "longitude": "126.67119569", "latitude": "37.645404313"}, {"name": "깊고푸른참치", "longitude": "126.71671647", "latitude": "37.620440508"}, {"name": "까까머리", "telephone": "031-984-3772", "longitude": "126.71560204", "latitude": "37.618635856"}, {"name": "까롱하오", "longitude": "126.62661137", "latitude": "37.64721663"}, {"name": "까치공인중개사사무소", "longitude": "126.72446288", "latitude": "37.605583973"}, {"name": "까치환경(주)", "longitude": "126.58636856", "latitude": "37.676759112"}, {"name": "까페감동", "telephone": "031-983-2277", "longitude": "126.71351883", "latitude": "37.621324672"}, {"name": "까페리아 두피/탈모 클리닉", "telephone": "031-982-5475", "longitude": "126.62597212", "latitude": "37.645908189"}, {"name": "까페인연2호점", "longitude": "126.64431008", "latitude": "37.640217182"}, {"name": "깐부치킨", "longitude": "126.67250298", "latitude": "37.63932645"}, {"name": "깐부치킨고촌점", "telephone": "031-985-3972", "longitude": "126.77215453", "latitude": "37.600884646"}, {"name": "깡왕새우튀김전문점", "longitude": "126.67702389", "latitude": "37.636663148"}, {"name": "깨비", "telephone": "031-983-2720", "longitude": "126.62658711", "latitude": "37.654271109"}, {"name": "꼬꼬봉투", "longitude": "126.76993107", "latitude": "37.594888786"}, {"name": "꼬꼬앤부대", "longitude": "126.62333853", "latitude": "37.655765312"}, {"name": "꼬꼬오리주물럭", "longitude": "126.60858717", "latitude": "37.68298904"}, {"name": "꼬망스레노마김포장기점", "longitude": "126.67341207", "latitude": "37.638716334"}, {"name": "꼬망스레노마김포풍무점", "longitude": "126.72105068", "latitude": "37.597494131"}, {"name": "꼬메르꼬뜨", "telephone": "070-7774-4572", "longitude": "126.67749486", "latitude": "37.640376436"}, {"name": "꼬모블럭", "telephone": "031-998-5360", "longitude": "126.72638476", "latitude": "37.600362838"}, {"name": "꼬불꼬불쭈꾸미", "telephone": "031-983-8944", "longitude": "126.72535157", "latitude": "37.6071898"}, {"name": "꼬야꼬야어린이집", "longitude": "126.76631927", "latitude": "37.594800515"}, {"name": "꼼빠니아김포장기대리점", "longitude": "126.66688944", "latitude": "37.658104756"}, {"name": "꽁뜨르헤어샬롱", "longitude": "126.77306943", "latitude": "37.60532824"}, {"name": "꽃가게N", "longitude": "126.59989663", "latitude": "37.690536729"}, {"name": "꽃길만 걸어요", "longitude": "126.71997111", "latitude": "37.619439267"}, {"name": "꽃네일", "longitude": "126.72399969", "latitude": "37.602249274"}, {"name": "꽃누리화원", "longitude": "126.73455154", "latitude": "37.612355636"}, {"name": "꽃담은소김포풍무점", "longitude": "126.72519483", "latitude": "37.609748197"}, {"name": "꽃들어린이집"}, {"name": "꽃보다꽈배기", "longitude": "126.7254651", "latitude": "37.61016328"}, {"name": "꽃빙 김포풍무점", "longitude": "126.72469151", "latitude": "37.608053181"}, {"name": "꽃사랑", "longitude": "126.73455154", "latitude": "37.612355636"}, {"name": "꽃사세요", "longitude": "126.61650533", "latitude": "37.684150455"}, {"name": "꽃이내게.", "longitude": "126.67061552", "latitude": "37.648465967"}, {"name": "꽃이되는시간", "telephone": "031-981-2494", "longitude": "126.7161314", "latitude": "37.616465801"}, {"name": "꽃피는 솜사탕", "longitude": "126.63006104", "latitude": "37.64620949"}, {"name": "꽃피우는기와보쌈", "longitude": "126.67277164", "latitude": "37.645183491"}, {"name": "꽃향기를가꾸는남자", "longitude": "126.69113388", "latitude": "37.6382149"}, {"name": "꽈배기는당연하다", "longitude": "126.60266585", "latitude": "37.687897341"}, {"name": "꽈배스커피스(뉴욕핫도그)하성점", "longitude": "126.6260535", "latitude": "37.719453824"}, {"name": "꽈배스커피스감정점", "longitude": "126.69913688", "latitude": "37.620468645"}, {"name": "꽈배스커피스운양점", "longitude": "126.68172457", "latitude": "37.655326055"}, {"name": "꽈배스커피스장기점", "longitude": "126.67230926", "latitude": "37.639578179"}, {"name": "꾸러기건강식품", "longitude": "126.73465816", "latitude": "37.611049467"}, {"name": "꾸러기분식", "longitude": "126.69577954", "latitude": "37.62157716"}, {"name": "꿀꿀이정육점", "longitude": "126.67483618", "latitude": "37.652378963"}, {"name": "꿀찬", "longitude": "126.62297226", "latitude": "37.640907215"}, {"name": "꿈꾸는세상어린이집[아이사랑]", "longitude": "126.69190745", "latitude": "37.645613888"}, {"name": "꿈꾸는숲미술학원", "longitude": "126.68105174", "latitude": "37.635295721"}, {"name": "꿈꾸는아이들어린이집[아이사랑]", "longitude": "126.63308787", "latitude": "37.661904812"}, {"name": "꿈나무피아노학원", "longitude": "126.60289527", "latitude": "37.69795281"}, {"name": "꿈밀", "longitude": "126.71260566", "latitude": "37.620214234"}, {"name": "꿈사랑어린이집", "longitude": "126.66547019", "latitude": "37.64366723"}, {"name": "꿈앤카페", "longitude": "126.72010945", "latitude": "37.618799908"}, {"name": "꿈터어린이집", "longitude": "126.68541967", "latitude": "37.647155282"}, {"name": "꿈트리공방", "longitude": "126.7031326", "latitude": "37.629605696"}, {"name": "꿈틀책방", "telephone": "070-4950-6457", "longitude": "126.70282736", "latitude": "37.626631719"}, {"name": "꿉꺼나뽁꺼나", "longitude": "126.59956257", "latitude": "37.691508621"}, {"name": "끄러모아미용실"}, {"name": "끄레앙헤어", "longitude": "126.70069436", "latitude": "37.624662159"}, {"name": "끌림헤어"}, {"name": "나누리알뜰매장", "longitude": "126.70896281", "latitude": "37.627719316"}, {"name": "나누리한식기사부페", "telephone": "031-984-1324", "longitude": "126.6012024", "latitude": "37.633384115"}, {"name": "나는바다다구래직영점", "longitude": "126.62814473", "latitude": "37.637464045"}, {"name": "나는바다다장기점", "longitude": "126.68027658", "latitude": "37.64688005"}, {"name": "나들이헤어샵", "longitude": "126.7066861", "latitude": "37.627659564"}, {"name": "나래공인중개사사무소", "longitude": "126.66617141", "latitude": "37.648966918"}, {"name": "나래음악학원", "longitude": "126.77306943", "latitude": "37.60532824"}, {"name": "나로호송선주의집", "longitude": "126.69577954", "latitude": "37.62157716"}, {"name": "나룻터숯불장어", "telephone": "031-981-1071", "longitude": "126.52623568", "latitude": "37.731363482"}, {"name": "나를위한시간미술학원", "telephone": "031-981-8846", "longitude": "126.66525156", "latitude": "37.646910085"}, {"name": "나리산후조리원", "telephone": "031-986-6301", "longitude": "126.7107157", "latitude": "37.622687241"}, {"name": "나리여성병원", "telephone": "031-982-5700", "longitude": "126.71268979", "latitude": "37.621881238"}, {"name": "나리카페", "longitude": "126.71268979", "latitude": "37.621881238"}, {"name": "나무꾼이야기", "longitude": "126.67305218", "latitude": "37.643238187"}, {"name": "나무꾼이야기", "longitude": "126.71633059", "latitude": "37.620637785"}, {"name": "나무꾼이야기", "longitude": "126.59777998", "latitude": "37.691980019"}, {"name": "나무꾼이야기 양곡점", "longitude": "126.62791841", "latitude": "37.637409268"}, {"name": "나무서리만두", "telephone": "031-998-7731", "longitude": "126.63200186", "latitude": "37.634160672"}, {"name": "나무서리어죽", "telephone": "031-988-8957", "longitude": "126.63133539", "latitude": "37.633771159"}, {"name": "나무약국", "longitude": "126.67166423", "latitude": "37.639405186"}, {"name": "나무영어학원", "longitude": "126.66797225", "latitude": "37.644106823"}, {"name": "나비동산 어린이집", "longitude": "126.62834205", "latitude": "37.643293925"}, {"name": "나비마을 어린이집", "longitude": "126.62722676", "latitude": "37.642020017"}, {"name": "나비문구", "longitude": "126.627089", "latitude": "37.640127549"}, {"name": "나비미술교습소", "telephone": "031-986-2660", "longitude": "126.62531348", "latitude": "37.641716591"}, {"name": "나비요가번지&플라잉", "longitude": "126.66843833", "latitude": "37.643765778"}, {"name": "나비점핑", "longitude": "126.62709108", "latitude": "37.639713111"}, {"name": "나사모터스", "longitude": "126.65735677", "latitude": "37.663401919"}, {"name": "나야볼테기탕.찜", "telephone": "031-982-7795", "longitude": "126.59944783", "latitude": "37.691760497"}, {"name": "나우약국", "telephone": "031-983-3855", "longitude": "126.71332355", "latitude": "37.622026951"}, {"name": "나이스가이", "longitude": "126.60050199", "latitude": "37.689709914"}, {"name": "나이스가이장기점", "longitude": "126.68122302", "latitude": "37.645495145"}, {"name": "나이키 김포장기점", "telephone": "031-997-3020", "longitude": "126.66774878", "latitude": "37.656016962"}, {"name": "나인노래연습장 장기점", "longitude": "126.66994157", "latitude": "37.644598919"}, {"name": "나인세무회계", "longitude": "126.68085978", "latitude": "37.637772861"}, {"name": "나인커피로스터스", "telephone": "070-8801-9517", "longitude": "126.72346372", "latitude": "37.621411707"}, {"name": "나인커피로스터스사우점", "telephone": "031-997-4517", "longitude": "126.7253057", "latitude": "37.622578308"}, {"name": "나인커피로스터스풍무점", "telephone": "031-987-9517", "longitude": "126.72624737", "latitude": "37.606885572"}, {"name": "나인테이블", "longitude": "126.73301757", "latitude": "37.61060425"}, {"name": "나정수학전문학원", "longitude": "126.66624763", "latitude": "37.644633486"}, {"name": "나주곰탕", "telephone": "031-981-5990", "longitude": "126.71597145", "latitude": "37.616825801"}, {"name": "나진카센타", "telephone": "031-984-3336", "longitude": "126.69671806", "latitude": "37.633021921"}, {"name": "나희 HAIR SALON", "longitude": "126.66797225", "latitude": "37.644106823"}, {"name": "낚시1번지", "longitude": "126.57386441", "latitude": "37.649379115"}, {"name": "낚시꾼김춘복의 도시어부 구래점", "longitude": "126.62455501", "latitude": "37.643822422"}, {"name": "낚시만세", "longitude": "126.70550024", "latitude": "37.629602678"}, {"name": "남도복국", "longitude": "126.67103037", "latitude": "37.646908462"}, {"name": "남도술상", "longitude": "126.71471898", "latitude": "37.621462754"}, {"name": "남도술상고촌점", "longitude": "126.77307592", "latitude": "37.60321997"}, {"name": "남도술상구래점", "longitude": "126.62409202", "latitude": "37.643514608"}, {"name": "남도술상김포장기점", "telephone": "031-997-3592", "longitude": "126.67253183", "latitude": "37.643047528"}, {"name": "남도애꽃(김포점)", "telephone": "031-984-4440", "longitude": "126.66544405", "latitude": "37.659461087"}, {"name": "남도홍문갑", "longitude": "126.62503175", "latitude": "37.643652766"}, {"name": "남산수제돈까스", "longitude": "126.67055471", "latitude": "37.646853065"}, {"name": "남성복 듐(DIUM)", "longitude": "126.62622394", "latitude": "37.645404452"}, {"name": "남언니(옷가게)", "longitude": "126.68580242", "latitude": "37.653075662"}, {"name": "남원명가", "longitude": "126.56356589", "latitude": "37.702930276"}, {"name": "남원추어탕동태탕", "telephone": "031-996-3325", "longitude": "126.7172474", "latitude": "37.617856004"}, {"name": "남자만들기", "longitude": "126.72776828", "latitude": "37.59674415"}, {"name": "남정골", "longitude": "126.59505657", "latitude": "37.711034869"}, {"name": "남해아구", "longitude": "126.71397125", "latitude": "37.621496965"}, {"name": "낭만치맥", "longitude": "126.627061", "latitude": "37.638938183"}, {"name": "낭만치맥김포고촌점", "telephone": "031-997-8830", "longitude": "10125"}, {"name": "낭만치맥김포풍무점", "longitude": "126.72913603", "latitude": "37.606667064"}, {"name": "낯선커피", "telephone": "031-998-7786", "longitude": "126.67385986", "latitude": "37.645078415"}, {"name": "내고향숯불갈비", "longitude": "126.72596712", "latitude": "37.615272977"}, {"name": "내셔날지오그래픽 LPGA골프", "telephone": "031-981-6314", "longitude": "126.66774878", "latitude": "37.656016962"}, {"name": "내여자를부탁해", "longitude": "126.67702389", "latitude": "37.636663148"}, {"name": "내일봬요 베이커리", "telephone": "031-984-2032", "longitude": "126.67313832", "latitude": "37.639130015"}, {"name": "냠냠쩝쩝", "longitude": "126.67149829", "latitude": "37.643603229"}, {"name": "너구리굴전자담배김포풍무점", "longitude": "126.72441077", "latitude": "37.607412827"}, {"name": "너와봄", "telephone": "070-8802-0214", "longitude": "126.59739298", "latitude": "37.692257986"}, {"name": "넘버원부동산", "longitude": "126.73202021", "latitude": "37.610800179"}, {"name": "넘버원양꼬치", "longitude": "126.63006104", "latitude": "37.64620949"}, {"name": "넝쿨식당", "telephone": "031-986-4773", "longitude": "126.59844894", "latitude": "37.694063528"}, {"name": "넝쿨양푼찌개마을", "longitude": "126.67749486", "latitude": "37.640376436"}, {"name": "네게행복한일상", "telephone": "031-982-8277", "longitude": "126.6831868", "latitude": "37.65523993"}, {"name": "네네치킨", "telephone": "031-982-5592", "longitude": "126.72446288", "latitude": "37.605583973"}, {"name": "네네치킨(장기점)", "telephone": "031-985-9945", "longitude": "126.66163658", "latitude": "37.642043473"}, {"name": "네네치킨피자", "longitude": "126.71400102", "latitude": "37.619659056"}, {"name": "네모야", "telephone": "031-986-8719", "longitude": "126.6275261", "latitude": "37.638822538"}, {"name": "네모음악교습소", "longitude": "126.62661137", "latitude": "37.64721663"}, {"name": "네비365", "longitude": "126.64369925", "latitude": "37.670595855"}, {"name": "네오사진관", "telephone": "031-981-8874", "longitude": "126.72215938", "latitude": "37.606803841"}, {"name": "네일그리다", "telephone": "031-998-8918", "longitude": "126.72563695", "latitude": "37.60963211"}, {"name": "네일깜봉", "longitude": "126.67716237", "latitude": "37.646466058"}, {"name": "네일로와", "longitude": "126.68105174", "latitude": "37.635295721"}, {"name": "네일리츠", "telephone": "031-997-1131", "longitude": "126.7219167", "latitude": "37.605082403"}, {"name": "네일빛:熙", "telephone": "031-983-0201", "longitude": "126.6606689", "latitude": "37.645518403"}, {"name": "네일숲"}, {"name": "네일스토리", "longitude": "126.73224796", "latitude": "37.607331952"}, {"name": "네일애(愛)행복", "longitude": "126.73268861", "latitude": "37.610747653"}, {"name": "네일앤꾸밈", "longitude": "126.67313247", "latitude": "37.635327912"}, {"name": "네일어반(NAILURBAN)", "longitude": "126.68249829", "latitude": "37.654598377"}, {"name": "네일에반하다", "longitude": "126.67338634", "latitude": "37.639410008"}, {"name": "네일이야기", "longitude": "126.72044182", "latitude": "37.599799172"}, {"name": "네일이야기", "longitude": "126.67216238", "latitude": "37.63948767"}, {"name": "네일이피다", "longitude": "126.68391447", "latitude": "37.644078924"}, {"name": "네일퀸", "telephone": "031-990-3553", "longitude": "126.77435091", "latitude": "37.604745094"}, {"name": "노랑태 본사직영점", "longitude": "126.67072046", "latitude": "37.647799547"}, {"name": "노랑통닭구래점", "longitude": "126.62500247", "latitude": "37.644959073"}, {"name": "노바헤어", "telephone": "031-998-9732", "longitude": "126.62331343", "latitude": "37.656242742"}, {"name": "노블레스", "longitude": "126.66055405", "latitude": "37.663131942"}, {"name": "노블레스스킨케어", "longitude": "126.72149207", "latitude": "37.621605236"}, {"name": "노상준가정의원"}, {"name": "노스페이스 김포점", "telephone": "031-988-0048", "longitude": "126.66786097", "latitude": "37.65626955"}, {"name": "노이장기점", "telephone": "031-998-1201", "longitude": "126.67843956", "latitude": "37.64199177"}, {"name": "논골가마솥추어탕", "telephone": "031-997-8989", "longitude": "126.61064017", "latitude": "37.684932948"}, {"name": "논두렁밭두렁", "longitude": "126.71679644", "latitude": "37.617305319"}, {"name": "놀부보쌈앤부대찌개", "longitude": "126.62589117", "latitude": "37.643988873"}, {"name": "놀부부대찌개&족발,보쌈(김포양", "longitude": "126.62209356", "latitude": "37.617713461"}, {"name": "놀부부대찌개&철판구이", "longitude": "126.68416575", "latitude": "37.654215478"}, {"name": "놀숲김포구래점", "longitude": "126.62711094", "latitude": "37.644767595"}, {"name": "놀숲김포운양점", "longitude": "126.68338172", "latitude": "37.654708889"}, {"name": "놀숲김포장기점", "telephone": "031-987-7155", "longitude": "126.66624763", "latitude": "37.644633486"}, {"name": "놀작(noljak)창조의스위치미술학원", "longitude": "126.62619991", "latitude": "37.64343126"}, {"name": "놀작마이아트풍경아트앳홈", "longitude": "126.67483618", "latitude": "37.652378963"}, {"name": "농가밥상자연테이블", "telephone": "031-989-8241", "longitude": "126.65869186", "latitude": "37.649161565"}, {"name": "농업회사법인 김포농식품 주식회사", "longitude": "126.55615269", "latitude": "37.694901938"}, {"name": "농업회사법인엘리트농부김포로컬푸드", "longitude": "126.70086254", "latitude": "37.630690081"}, {"name": "농업회사법인이원란(합자)", "longitude": "126.53056382", "latitude": "37.755391166"}, {"name": "농업회사법인장수이야기", "longitude": "126.69628009", "latitude": "37.629326808"}, {"name": "농업회사법인주식회사꿈드림", "longitude": "126.60544384", "latitude": "37.713313718"}, {"name": "농업회사법인주식회사더행복한", "longitude": "126.6518008", "latitude": "37.724065107"}, {"name": "농업회사법인주식회사제일영농", "longitude": "126.65324682", "latitude": "37.720483605"}, {"name": "농업회사법인주식회사초원이앤씨", "longitude": "126.77049274", "latitude": "37.603611341"}, {"name": "농축산할인마트", "longitude": "126.63061143", "latitude": "37.635823083"}, {"name": "누구나홀딱반한닭김포풍무점", "telephone": "031-985-5759", "longitude": "126.72624737", "latitude": "37.606885572"}, {"name": "누나홀닭감정점", "telephone": "031-987-7675", "longitude": "126.69949169", "latitude": "37.622352588"}, {"name": "누룽지&꼬마김밥", "telephone": "031-986-3631", "longitude": "126.76938183", "latitude": "37.603969539"}, {"name": "누리건설(주)", "longitude": "126.55659631", "latitude": "37.732482383"}, {"name": "누리마을감자탕(김포구래점)", "telephone": "031-984-8256", "longitude": "126.62316657", "latitude": "37.64279987"}, {"name": "누리연합소아청소년과의원", "telephone": "031-982-3993", "longitude": "126.64334019", "latitude": "37.636934709"}, {"name": "누벨바그헤어살롱김포풍무점", "telephone": "031-982-9852", "longitude": "126.72263005", "latitude": "37.605111128"}, {"name": "누산마켓", "telephone": "031-986-3108", "longitude": "126.64408566", "latitude": "37.6703808"}, {"name": "눈누난나", "longitude": "126.60272664", "latitude": "37.69768195"}, {"name": "뉴런수학학원", "longitude": "126.64300258", "latitude": "37.636465177"}, {"name": "뉴발란스 김포장기점", "telephone": "031-984-7546", "longitude": "126.66774878", "latitude": "37.656016962"}, {"name": "뉴본 김밥", "longitude": "126.76515272", "latitude": "37.598447125"}, {"name": "뉴왈초 음악학원", "telephone": "031-996-5876", "longitude": "126.66611235", "latitude": "37.644479935"}, {"name": "뉴욕실용음악학원", "longitude": "126.68249829", "latitude": "37.654598377"}, {"name": "뉴욕야시장", "longitude": "126.73268861", "latitude": "37.610747653"}, {"name": "뉴욕야시장고촌점", "longitude": "10125"}, {"name": "뉴욕야시장운양점", "longitude": "126.68408111", "latitude": "37.655458582"}, {"name": "뉴욕핫도그앤커피구래점", "telephone": "031-985-2162", "longitude": "126.63006104", "latitude": "37.64620949"}, {"name": "뉴욕핫도그앤커피김포운양점", "longitude": "126.68408111", "latitude": "37.655458582"}, {"name": "뉴턴 수학교습소", "telephone": "031-998-5511", "longitude": "126.69577954", "latitude": "37.62157716"}, {"name": "뉴트로(NEWTRO)", "longitude": "126.67149829", "latitude": "37.643603229"}, {"name": "뉴하나메디칼약국", "telephone": "031-989-9240", "longitude": "126.71835942", "latitude": "37.620300325"}, {"name": "뉴학사공인중개사", "longitude": "126.72277445", "latitude": "37.617941331"}, {"name": "뉴한신공인중개사사무소", "telephone": "031-981-7333", "longitude": "126.68686341", "latitude": "37.654069571"}, {"name": "느낌이좋아", "longitude": "126.6040066", "latitude": "37.687343289"}, {"name": "느티나무골", "longitude": "126.53195614", "latitude": "37.757721179"}, {"name": "느티카페", "longitude": "126.55790174", "latitude": "37.700098057"}, {"name": "늑대와여우컴퓨터(풍무점)", "telephone": "031-998-4848", "longitude": "126.7207226", "latitude": "37.600412506"}, {"name": "늑대와여우컴퓨터감정점", "longitude": "126.69904722", "latitude": "37.623018163"}, {"name": "늘푸른공인중개사사무소", "longitude": "126.7190563", "latitude": "37.621716529"}, {"name": "늘푸른마트", "telephone": "031-997-6332", "longitude": "126.72107473", "latitude": "37.621135735"}, {"name": "늘푸른아동청소년발달센터", "longitude": "126.72535157", "latitude": "37.6071898"}, {"name": "늘푸른약국", "telephone": "031-998-2927", "longitude": "126.6606689", "latitude": "37.645518403"}, {"name": "늘품태권도장", "longitude": "126.76735496", "latitude": "37.600307551"}, {"name": "능률랩영어학원", "longitude": "126.72202679", "latitude": "37.602911317"}, {"name": "능률주니어랩", "longitude": "126.70227924", "latitude": "37.627720498"}, {"name": "능수면옥", "longitude": "126.67089316", "latitude": "37.647187376"}, {"name": "다가무드(DAGAMOOD)", "telephone": "031-988-2824", "longitude": "126.62505679", "latitude": "37.643184344"}, {"name": "다나쌀롱", "longitude": "126.64506294", "latitude": "37.636795791"}, {"name": "다다헤어", "longitude": "126.72068624", "latitude": "37.622026768"}, {"name": "다담치과", "longitude": "126.6788013", "latitude": "37.642181967"}, {"name": "다락스토어", "longitude": "126.67489312", "latitude": "37.639432225"}, {"name": "다람쥐똥", "telephone": "031-981-3118", "longitude": "126.68144571", "latitude": "37.646405729"}, {"name": "다래옥", "longitude": "126.71424192", "latitude": "37.621803958"}, {"name": "다룸", "longitude": "126.67617051", "latitude": "37.647850805"}, {"name": "다르다!! 밥한톨", "longitude": "126.62209356", "latitude": "37.617713461"}, {"name": "다맛찬방", "longitude": "126.66843833", "latitude": "37.643765778"}, {"name": "다모아김포전자담배", "longitude": "126.71997111", "latitude": "37.619439267"}, {"name": "다미네일", "longitude": "126.68058664", "latitude": "37.659034929"}, {"name": "다미의원", "telephone": "031-988-7343", "longitude": "126.72274154", "latitude": "37.6055799"}, {"name": "다보", "longitude": "126.71783266", "latitude": "37.618830469"}, {"name": "다비치안경 김포감정점", "longitude": "126.69685851", "latitude": "37.623634177"}, {"name": "다비치안경김포구래역점", "longitude": "126.62750107", "latitude": "37.646048209"}, {"name": "다비치안경김포장기점", "telephone": "031-998-0222", "longitude": "126.66772237", "latitude": "37.644241259"}, {"name": "다솜약국", "longitude": "126.65974797", "latitude": "37.641272173"}, {"name": "다솜인테리어", "longitude": "126.61144769", "latitude": "37.716784459"}, {"name": "다예린어린이집", "longitude": "126.62592201", "latitude": "37.649097447"}, {"name": "다오", "longitude": "126.62342308", "latitude": "37.654738485"}, {"name": "다온네일", "longitude": "126.68402754", "latitude": "37.654737665"}, {"name": "다온네일", "longitude": "126.77257696", "latitude": "37.603444242"}, {"name": "다온약국", "longitude": "126.69685851", "latitude": "37.623634177"}, {"name": "다온축산", "longitude": "126.72638476", "latitude": "37.600362838"}, {"name": "다온한의원", "telephone": "031-997-7507", "longitude": "126.68172457", "latitude": "37.655326055"}, {"name": "다온할인마트", "longitude": "126.57345688", "latitude": "37.678821054"}, {"name": "다온헤어", "longitude": "126.67288831", "latitude": "37.6393005"}, {"name": "다옴족발", "longitude": "126.62978267", "latitude": "37.63843327"}, {"name": "다우동물병원", "longitude": "126.69791527", "latitude": "37.622826039"}, {"name": "다운비트드럼교습소", "telephone": "031-989-1165", "longitude": "126.62784092", "latitude": "37.65507696"}, {"name": "다원잔기지떡", "longitude": "126.62777662", "latitude": "37.638571064"}, {"name": "다이나핏 김포장기점", "telephone": "031-986-4846", "longitude": "126.66702795", "latitude": "37.657546552"}, {"name": "다이소김포고촌점", "longitude": "126.76943067", "latitude": "37.602834407"}, {"name": "다이스키스시", "telephone": "031-998-8234", "longitude": "126.62403484", "latitude": "37.652542098"}, {"name": "다인모바일", "longitude": "126.66607844", "latitude": "37.644461819"}, {"name": "다인주얼리", "longitude": "126.7697711", "latitude": "37.602609835"}, {"name": "다정마트", "telephone": "031-988-5153", "longitude": "126.59803767", "latitude": "37.669601066"}, {"name": "다정매점", "longitude": "126.71071315", "latitude": "37.63202129"}, {"name": "다정약국", "telephone": "031-985-3338", "longitude": "126.62597212", "latitude": "37.645908189"}, {"name": "다하누옛날불고기", "longitude": "126.552536", "latitude": "37.715484003"}, {"name": "다할인마트", "longitude": "126.58017049", "latitude": "37.638347041"}, {"name": "다흰", "longitude": "126.72132876", "latitude": "37.622857197"}, {"name": "다흰만두", "longitude": "126.77126346", "latitude": "37.599747671"}, {"name": "닥엔돈스쪽갈비치킨", "longitude": "126.77263419", "latitude": "37.603246139"}, {"name": "닥터맘(김포지사)", "longitude": "126.68152742", "latitude": "37.656370638"}, {"name": "닥터모락장기점", "longitude": "126.66852498", "latitude": "37.644657981"}, {"name": "닥터스미스", "telephone": "031-988-8794", "longitude": "126.72576995", "latitude": "37.610416269"}, {"name": "닥터에듀학원", "longitude": "126.72163807", "latitude": "37.600883198"}, {"name": "닥터잉글리시앤매쓰", "longitude": "126.63295171", "latitude": "37.650516195"}, {"name": "닥터필라테스 김포구래점", "longitude": "126.62491682", "latitude": "37.646211141"}, {"name": "단미헤어", "longitude": "126.67729976", "latitude": "37.648736874"},