{"region": "siheung", "data": [{"name": "#김미경", "category": "othershop", "outputcat": "기타판매", "telephone": "031-313-4758", "longitude": "126.78199813", "latitude": "37.438689527"}, {"name": "(A) 마터피아-시흥", "category": "other", "outputcat": "개인서비스업", "telephone": "031-481-8070", "longitude": "126.74732814", "latitude": "37.353087079"}, {"name": "(복)복음자리", "category": "othershop", "outputcat": "기타판매", "telephone": "031-317-7117", "longitude": "126.79273765", "latitude": "37.432879629"}, {"name": "(주)가람푸드", "category": "othershop", "outputcat": "기타판매", "telephone": "031-318-2114", "longitude": "126.84049014", "latitude": "37.420439937"}, {"name": "(주)더난이엔지", "category": "othershop", "outputcat": "기타판매", "telephone": "031-316-5565", "longitude": "126.79829458", "latitude": "37.446071021"}, {"name": "(주)비제이유통", "category": "othershop", "outputcat": "기타판매", "telephone": "031-497-0689", "longitude": "126.74850424", "latitude": "37.345719319"}, {"name": "(주)시흥코맥스", "category": "othershop", "outputcat": "기타판매", "telephone": "031-404-1800", "longitude": "126.81554408", "latitude": "37.421520283"}, {"name": "(주)신천홈마트", "category": "othershop", "outputcat": "기타판매", "telephone": "031-312-2002", "longitude": "126.78866388", "latitude": "37.43507076"}, {"name": "(주)에버스포츠 시흥신천링스점", "category": "othershop", "outputcat": "기타판매", "telephone": "031-312-8754", "longitude": "126.77893849", "latitude": "37.441630042"}, {"name": "(주)에버스포츠 제이디엑스 멀티스포츠 시흥신천점", "category": "othershop", "outputcat": "기타판매", "telephone": "031-316-2202", "longitude": "126.7788019", "latitude": "37.441963153"}, {"name": "(주)에버스포츠 팬텀시흥신천점", "category": "othershop", "outputcat": "기타판매", "telephone": "031-312-8753", "longitude": "126.77893849", "latitude": "37.441630042"}, {"name": "(주)정성을다하는사람들", "category": "othershop", "outputcat": "기타판매", "telephone": "031-318-2114", "longitude": "126.84073904", "latitude": "37.420269088"}, {"name": "(주)한국전통특산", "category": "other", "outputcat": "제조업", "telephone": "031-318-0169", "longitude": "126.73724707", "latitude": "37.388889046"}, {"name": "(주)한벗정보통신", "category": "othershop", "outputcat": "기타판매", "telephone": "031-433-1700", "longitude": "126.73555298", "latitude": "37.344420333"}, {"name": "1.2.3회 해물포차(123회도매센터)", "category": "food", "outputcat": "식품/음료", "telephone": "031-433-3888", "longitude": "126.74743954", "latitude": "37.336860046"}, {"name": "100세곱창", "category": "food", "outputcat": "식품/음료", "telephone": "031-433-0107", "longitude": "126.72280587", "latitude": "37.352085499"}, {"name": "10온스", "category": "food", "outputcat": "식품/음료", "telephone": "070-4105-0651", "longitude": "126.74760664", "latitude": "37.337500128"}, {"name": "119 공인중개사사무소 이희교", "category": "other", "outputcat": "개인서비스업", "telephone": "031-313-5989", "longitude": "126.78763162", "latitude": "37.444376223"}, {"name": "119불짬뽕", "category": "food", "outputcat": "식품/음료", "longitude": "126.81476908", "latitude": "37.415212022"}, {"name": "1986헤어", "category": "other", "outputcat": "개인서비스업", "telephone": "031-499-8582", "longitude": "126.72952433", "latitude": "37.382384189"}, {"name": "1ST카센타", "category": "other", "outputcat": "개인서비스업", "telephone": "031-497-8250", "longitude": "126.75149982", "latitude": "37.347635873"}, {"name": "1박2일당구장", "category": "other", "outputcat": "스포츠및여가관련서비스업", "longitude": "126.73847714", "latitude": "37.389108044"}, {"name": "1프로 (1%)", "category": "other", "outputcat": "스포츠및여가관련서비스업", "longitude": "126.72860939", "latitude": "37.370083292"}, {"name": "20000헤어아트", "category": "other", "outputcat": "개인서비스업", "telephone": "031-317-5456", "longitude": "126.80049143", "latitude": "37.381418688"}, {"name": "21C당구장", "category": "other", "outputcat": "스포츠및여가관련서비스업", "longitude": "126.78444078", "latitude": "37.406906669"}, {"name": "21세기 세탁소", "category": "other", "outputcat": "개인서비스업", "telephone": "031-314-0969", "longitude": "126.78987676", "latitude": "37.445659711"}, {"name": "21세기노래연습장", "category": "other", "outputcat": "개인서비스업", "longitude": "126.79638312", "latitude": "37.421992929"}, {"name": "21세기열쇠", "category": "othershop", "outputcat": "기타판매", "longitude": "126.7472804", "latitude": "37.347194345"}, {"name": "21세기헤어클럽", "category": "other", "outputcat": "개인서비스업", "telephone": "031-317-5560", "longitude": "126.78013763", "latitude": "37.380138711"}, {"name": "24시 순일품감자탕", "category": "food", "outputcat": "식품/음료", "telephone": "031-494-5432", "longitude": "126.78407684", "latitude": "37.345583225"}, {"name": "24시 전주명가콩나물국밥", "category": "food", "outputcat": "식품/음료", "telephone": "031-401-7775", "longitude": "126.86037783", "latitude": "37.381857405"}, {"name": "24시 전주명가콩나물국밥 시흥배곧점", "category": "food", "outputcat": "식품/음료", "telephone": "031-499-3322", "longitude": "126.72686525", "latitude": "37.377773858"}, {"name": "24시전주명가콩나물국밥", "category": "food", "outputcat": "식품/음료", "telephone": "031-401-7775", "longitude": "126.86037783", "latitude": "37.381857405"}, {"name": "24시카페스터디빌리지", "category": "other", "outputcat": "개인서비스업", "longitude": "126.79724764", "latitude": "37.444600574"}, {"name": "24시플러스마트", "category": "othershop", "outputcat": "기타판매", "telephone": "031-431-3288", "longitude": "126.74339119", "latitude": "37.34919514"}, {"name": "25시 병천토종순대", "category": "food", "outputcat": "식품/음료", "longitude": "126.74688549", "latitude": "37.347166461"}, {"name": "260도씨", "category": "food", "outputcat": "식품/음료", "longitude": "126.86193744", "latitude": "37.381084405"}, {"name": "292 짬떡 배곧점", "category": "food", "outputcat": "식품/음료", "telephone": "031-433-0292", "longitude": "126.71353373", "latitude": "37.362442842"}, {"name": "2FACE(투페이스)", "category": "other", "outputcat": "개인서비스업", "telephone": "070-8942-0315", "longitude": "126.80582593", "latitude": "37.392383968"}, {"name": "2H수학학원", "category": "edu", "outputcat": "교육", "telephone": "031-434-0502", "longitude": "126.73421756", "latitude": "37.373970507"}, {"name": "2호", "category": "othershop", "outputcat": "기타판매", "longitude": "126.78385721", "latitude": "37.440522018"}, {"name": "302카페", "category": "food", "outputcat": "식품/음료", "telephone": "031-433-1696", "longitude": "126.73724619", "latitude": "37.344307015"}, {"name": "33떡볶이 배곧점", "category": "food", "outputcat": "식품/음료", "longitude": "126.72658236", "latitude": "37.377944389"}, {"name": "365경희바른한의원", "category": "med", "outputcat": "의료", "telephone": "031-433-1082", "longitude": "126.71353373", "latitude": "37.362442842"}, {"name": "365고기나라", "category": "othershop", "outputcat": "기타판매", "telephone": "031-316-1108", "longitude": "126.78668962", "latitude": "37.43793235"}, {"name": "365신천중앙약국", "category": "med", "outputcat": "의료", "telephone": "031-313-0542", "longitude": "126.78490731", "latitude": "37.440794259"}, {"name": "365조은약국", "category": "med", "outputcat": "의료", "telephone": "031-403-1178", "longitude": "126.8547715", "latitude": "37.373417052"}, {"name": "365행복약국", "category": "med", "outputcat": "의료", "telephone": "031-431-4691", "longitude": "126.74286551", "latitude": "37.351086114"}, {"name": "3층신동아약국", "category": "med", "outputcat": "의료", "telephone": "031-434-4588", "longitude": "126.73841794", "latitude": "37.344859259"}, {"name": "3호점(야채가게)", "category": "othershop", "outputcat": "기타판매", "longitude": "126.78385721", "latitude": "37.440522018"}, {"name": "430해물포차", "category": "food", "outputcat": "식품/음료", "longitude": "126.72753269", "latitude": "37.37741501"}, {"name": "48춘천닭갈비", "category": "food", "outputcat": "식품/음료", "telephone": "031-431-5849", "longitude": "126.73357921", "latitude": "37.347254051"}, {"name": "4st헤어", "category": "other", "outputcat": "개인서비스업", "telephone": "031-433-8055", "longitude": "126.72753269", "latitude": "37.37741501"}, {"name": "59쌀피자", "category": "food", "outputcat": "식품/음료", "telephone": "031-493-5949", "longitude": "126.78475121", "latitude": "37.34263815"}, {"name": "59쌀피자", "category": "food", "outputcat": "식품/음료", "telephone": "031-313-5988", "longitude": "126.81251693", "latitude": "37.416884286"}, {"name": "59쌀피자 배곧신도시점", "category": "food", "outputcat": "식품/음료", "telephone": "031-319-8008", "longitude": "126.73339161", "latitude": "37.374473194"}, {"name": "59쌀피자 시흥대야점", "category": "food", "outputcat": "식품/음료", "telephone": "031-313-7959", "longitude": "126.78763162", "latitude": "37.444376223"}, {"name": "59쌀피자 시흥포동점", "category": "food", "outputcat": "식품/음료", "telephone": "031-311-5953", "longitude": "126.78305029", "latitude": "37.407327565"}, {"name": "59쌀피자 하중동점", "category": "food", "outputcat": "식품/음료", "telephone": "031-317-5952", "longitude": "126.80557596", "latitude": "37.392969206"}, {"name": "59쌀피자, 청과", "category": "food", "outputcat": "식품/음료", "telephone": "031-431-5982", "longitude": "126.73116619", "latitude": "37.356051433"}, {"name": "59쌀피자신일초교점", "category": "food", "outputcat": "식품/음료", "telephone": "031-311-5985", "longitude": "126.79254945", "latitude": "37.431491751"}, {"name": "59피자", "category": "food", "outputcat": "식품/음료", "telephone": "031-311-5969", "longitude": "126.78005462", "latitude": "37.438685879"}, {"name": "5번지직화짬뽕", "category": "food", "outputcat": "식품/음료", "telephone": "031-315-7907", "longitude": "126.78590956", "latitude": "37.406747193"}, {"name": "712빌드", "category": "othershop", "outputcat": "기타판매", "longitude": "126.86284952", "latitude": "37.382418984"}, {"name": "72전기구이통닭", "category": "food", "outputcat": "식품/음료", "telephone": "031-314-8989", "longitude": "126.78374069", "latitude": "37.43785484"}, {"name": "74떡뽀끼", "category": "food", "outputcat": "식품/음료", "telephone": "031-311-8815", "longitude": "126.80035894", "latitude": "37.380301209"}, {"name": "79대포 시흥배곧점", "category": "food", "outputcat": "식품/음료", "longitude": "126.72908494", "latitude": "37.369696959"}, {"name": "79레더하우스", "category": "othershop", "outputcat": "기타판매", "telephone": "031-498-7605", "longitude": "126.72574678", "latitude": "37.377969464"}, {"name": "88켄터키", "category": "food", "outputcat": "식품/음료", "telephone": "031-317-8152", "longitude": "126.81221207", "latitude": "37.416829734"}, {"name": "88켄터키치킨", "category": "food", "outputcat": "식품/음료", "telephone": "031-316-9289", "longitude": "126.77851845", "latitude": "37.438493763"}, {"name": "90℃ (구십도씨)", "category": "food", "outputcat": "식품/음료", "telephone": "031-503-0799", "longitude": "126.72702451", "latitude": "37.368196494"}, {"name": "91커피", "category": "food", "outputcat": "식품/음료", "longitude": "126.7885752", "latitude": "37.438431334"}, {"name": "929숯불갈비 시흥점", "category": "food", "outputcat": "식품/음료", "telephone": "031-496-9290", "longitude": "126.7239998", "latitude": "37.352746059"}, {"name": "ACE텐트칼라", "category": "other", "outputcat": "개인서비스업", "telephone": "031-432-6825", "longitude": "126.7466687", "latitude": "37.347859773"}, {"name": "B.Y.C 대리점", "category": "othershop", "outputcat": "기타판매", "telephone": "031-314-3685", "longitude": "126.79829829", "latitude": "37.444710517"}, {"name": "BBQ 정왕본동점", "category": "food", "outputcat": "식품/음료", "telephone": "031-497-4997", "longitude": "126.74661532", "latitude": "37.343642909"}, {"name": "BBQ치킨 연성점", "category": "food", "outputcat": "식품/음료", "telephone": "031-317-9282", "longitude": "126.78610244", "latitude": "37.378996502"}, {"name": "BBQ함현마을점", "category": "food", "outputcat": "식품/음료", "telephone": "031-432-0091", "longitude": "126.73202753", "latitude": "37.364495891"}, {"name": "BHC", "category": "food", "outputcat": "식품/음료", "telephone": "031-318-5955", "longitude": "126.78319384", "latitude": "37.377495458"}, {"name": "BHC 능곡점", "category": "food", "outputcat": "식품/음료", "telephone": "031-435-9992", "longitude": "126.81032457", "latitude": "37.368667781"}, {"name": "BHC 시흥 신천점", "category": "food", "outputcat": "식품/음료", "telephone": "031-504-3352", "longitude": "126.77830113", "latitude": "37.439376331"}, {"name": "BHC 시흥월곶점", "category": "food", "outputcat": "식품/음료", "telephone": "031-317-1959", "longitude": "126.73516983", "latitude": "37.388749211"}, {"name": "BHC 은행점", "category": "food", "outputcat": "식품/음료", "telephone": "031-404-5060", "longitude": "126.80024691", "latitude": "37.442875833"}, {"name": "BHC치킨 시흥포동점", "category": "food", "outputcat": "식품/음료", "telephone": "031-315-7004", "longitude": "126.78486043", "latitude": "37.40630377"}, {"name": "BHC치킨 정왕4동점", "category": "food", "outputcat": "식품/음료", "telephone": "031-499-9970", "longitude": "126.73530494", "latitude": "37.366611717"}, {"name": "BHC치킨 하상점", "category": "food", "outputcat": "식품/음료", "telephone": "031-318-8292", "longitude": "126.81441213", "latitude": "37.39085724"}, {"name": "BTR", "category": "othershop", "outputcat": "기타판매", "longitude": "126.72564556", "latitude": "37.377861106"}, {"name": "BYC 가정점", "category": "othershop", "outputcat": "기타판매", "telephone": "031-313-1022", "longitude": "126.78382825", "latitude": "37.438828083"}, {"name": "BYC 시화점", "category": "othershop", "outputcat": "기타판매", "telephone": "031-433-0864", "longitude": "126.73241807", "latitude": "37.346890997"}, {"name": "BYC 월곶점", "category": "othershop", "outputcat": "기타판매", "telephone": "031-314-4572", "longitude": "126.73924821", "latitude": "37.388190738"}, {"name": "BYC 정왕마트점(은혜유통)", "category": "othershop", "outputcat": "기타판매", "telephone": "031-433-7811", "longitude": "126.74928209", "latitude": "37.345973274"}, {"name": "Bless", "category": "other", "outputcat": "개인서비스업", "telephone": "031-493-0728", "longitude": "126.7840832", "latitude": "37.339501382"}, {"name": "CU시흥금바위점", "category": "othershop", "outputcat": "기타판매", "telephone": "031-311-1554", "longitude": "126.79318224", "latitude": "37.431465845"}, {"name": "C월드 자동차공업사", "category": "other", "outputcat": "개인서비스업", "telephone": "031-434-8558", "longitude": "126.75411589", "latitude": "37.338054603"}, {"name": "DC땡백화점(거모땡)", "category": "othershop", "outputcat": "기타판매", "telephone": "031-491-4856", "longitude": "126.78491039", "latitude": "37.342223976"}, {"name": "DC마트", "category": "othershop", "outputcat": "기타판매", "telephone": "031-315-3014", "longitude": "126.78680003", "latitude": "37.407379527"}, {"name": "DO&BE(두엔비)", "category": "othershop", "outputcat": "기타판매", "telephone": "031-491-2956", "longitude": "126.78430085", "latitude": "37.342276913"}, {"name": "E카마트신성카센터", "category": "other", "outputcat": "개인서비스업", "telephone": "031-405-7896", "longitude": "126.85843529", "latitude": "37.382107332"}, {"name": "FILA 시화점", "category": "othershop", "outputcat": "기타판매", "telephone": "031-499-7978", "longitude": "126.73719104", "latitude": "37.343946485"}, {"name": "FIT 60+(핏 식스티 플러스)", "category": "other", "outputcat": "스포츠및여가관련서비스업", "telephone": "031-8042-6060", "longitude": "126.72686525", "latitude": "37.377773858"}, {"name": "Feline&Lady's(필라인레이디스)", "category": "othershop", "outputcat": "기타판매", "longitude": "126.73533208", "latitude": "37.387578268"}, {"name": "G.H시스템(지에이치시스템)", "category": "othershop", "outputcat": "기타판매", "telephone": "031-312-7719", "longitude": "126.78732388", "latitude": "37.437410928"}, {"name": "GAM당구장(GAM Billiard당구장)", "category": "other", "outputcat": "개인서비스업", "longitude": "126.72224871", "latitude": "37.353192425"}, {"name": "GREEN PC방", "category": "other", "outputcat": "개인서비스업", "longitude": "126.85951748", "latitude": "37.383027679"}, {"name": "GS25 시흥삼미시장점", "category": "othershop", "outputcat": "기타판매", "telephone": "031-311-2528", "longitude": "126.78130429", "latitude": "37.44023795"}, {"name": "IDS 헤어", "category": "other", "outputcat": "개인서비스업", "telephone": "031-318-9630", "longitude": "126.7373884", "latitude": "37.390439097"}, {"name": "IGSE아카데미장곡학원", "category": "edu", "outputcat": "교육", "telephone": "031-318-0220", "longitude": "126.78685898", "latitude": "37.378970856"}, {"name": "IN헤어", "category": "other", "outputcat": "개인서비스업", "longitude": "126.81451934", "latitude": "37.36605259"}, {"name": "J&H뷰티샵", "category": "other", "outputcat": "개인서비스업", "longitude": "126.78808036", "latitude": "37.44552131"}, {"name": "J(제이)", "category": "othershop", "outputcat": "기타판매", "longitude": "126.79910484", "latitude": "37.44315318"}, {"name": "JDX", "category": "othershop", "outputcat": "기타판매", "longitude": "126.73758447", "latitude": "37.344388865"}, {"name": "JS당구장", "category": "other", "outputcat": "스포츠및여가관련서비스업", "longitude": "126.7827401", "latitude": "37.439988352"}, {"name": "K-할인마트", "category": "othershop", "outputcat": "기타판매", "telephone": "031-317-5550", "longitude": "126.80615955", "latitude": "37.394357731"}, {"name": "KTI국가대표태권스쿨", "category": "edu", "outputcat": "교육", "telephone": "031-433-7778", "longitude": "126.76080239", "latitude": "37.346700199"}, {"name": "K스크린골프", "category": "other", "outputcat": "개인서비스업", "telephone": "031-317-0773", "longitude": "126.78685898", "latitude": "37.378970856"}, {"name": "K용인대 체육관", "category": "edu", "outputcat": "교육"}, {"name": "LA북창동순두부 시흥점", "category": "food", "outputcat": "식품/음료", "telephone": "031-435-4359", "longitude": "126.7910174", "latitude": "37.44190459"}, {"name": "LG 세탁소", "category": "other", "outputcat": "개인서비스업", "telephone": "031-433-6327", "longitude": "126.7535835", "latitude": "37.338666173"}, {"name": "LO.N", "category": "othershop", "outputcat": "기타판매", "telephone": "031-431-2254", "longitude": "126.72980965", "latitude": "37.362859961"}, {"name": "LPGA 시화점", "category": "othershop", "outputcat": "기타판매", "telephone": "031-434-0022", "longitude": "126.73589036", "latitude": "37.34475447"}, {"name": "LTE 통신 ", "category": "othershop", "outputcat": "기타판매", "longitude": "126.74888877", "latitude": "37.345476872"}, {"name": "MK세탁전문점", "category": "other", "outputcat": "개인서비스업", "telephone": "031-503-8484", "longitude": "126.7801593", "latitude": "37.380445095"}, {"name": "MR100 시흥점", "category": "othershop", "outputcat": "기타판매", "telephone": "031-504-9499", "longitude": "126.78411198", "latitude": "37.341249406"}, {"name": "M헤어", "category": "other", "outputcat": "개인서비스업", "telephone": "031-319-8753", "longitude": "126.72757984", "latitude": "37.358331713"}, {"name": "NEPA 경기신천네파", "category": "othershop", "outputcat": "기타판매", "telephone": "031-314-8998", "longitude": "126.7785198", "latitude": "37.441827468"}, {"name": "NGOCLINH(옥닌)", "category": "other", "outputcat": "개인서비스업", "longitude": "126.74896874", "latitude": "37.341836943"}, {"name": "NOMSHAIR 놈스헤어", "category": "other", "outputcat": "개인서비스업", "telephone": "031-314-2020", "longitude": "126.79166102", "latitude": "37.442076932"}, {"name": "Nu벨라움", "category": "other", "outputcat": "개인서비스업", "longitude": "126.80274934", "latitude": "37.381521642"}, {"name": "OK점핑다이어트", "category": "other", "outputcat": "스포츠및여가관련서비스업", "longitude": "126.80349208", "latitude": "37.395245261"}, {"name": "ORG 정왕점", "category": "othershop", "outputcat": "기타판매", "telephone": "031-497-1075", "longitude": "126.72285973", "latitude": "37.352779407"}, {"name": "PC마트", "category": "othershop", "outputcat": "기타판매", "telephone": "031-504-7578", "longitude": "126.73755495", "latitude": "37.352777238"}, {"name": "PC메이트", "category": "othershop", "outputcat": "기타판매", "telephone": "031-317-8923", "longitude": "126.78775411", "latitude": "37.445007146"}, {"name": "PLUS25마트(플러스25마트) ", "category": "othershop", "outputcat": "기타판매", "longitude": "126.78546897", "latitude": "37.348108634"}, {"name": "RG호텔(라다마여관)", "category": "trip", "outputcat": "숙박업", "telephone": "031-318-0121", "longitude": "126.74005814", "latitude": "37.389075529"}, {"name": "SBS노래방", "category": "other", "outputcat": "개인서비스업", "telephone": "031-432-4441", "longitude": "126.73652384", "latitude": "37.344332421"}, {"name": "SBS당구클럽", "category": "other", "outputcat": "스포츠및여가관련서비스업", "telephone": "031-318-3949", "longitude": "126.81341152", "latitude": "37.416020758"}, {"name": "SBS당구클럽", "category": "other", "outputcat": "개인서비스업", "longitude": "126.81287722", "latitude": "37.39052141"}, {"name": "SK당구클럽", "category": "other", "outputcat": "스포츠및여가관련서비스업", "telephone": "031-311-5399", "longitude": "126.79004576", "latitude": "37.441848784"}, {"name": "SM갤러리", "category": "othershop", "outputcat": "기타판매", "telephone": "031-316-1133", "longitude": "126.73980613", "latitude": "37.351304604"}, {"name": "SM프로헤어", "category": "other", "outputcat": "개인서비스업", "telephone": "031-404-7797", "longitude": "126.81067483", "latitude": "37.368551219"}, {"name": "SS헤어리", "category": "other", "outputcat": "개인서비스업", "telephone": "031-313-2061", "longitude": "126.79560072", "latitude": "37.43124486"}, {"name": "STCO(에스티코 시흥정은타운점)", "category": "othershop", "outputcat": "기타판매", "telephone": "031-313-7439", "longitude": "126.77716248", "latitude": "37.442266374"}, {"name": "T.M.B 숯불바베큐", "category": "food", "outputcat": "식품/음료", "telephone": "031-318-1320", "longitude": "126.79940519", "latitude": "37.444910648"}, {"name": "TIP푸드라운지", "category": "food", "outputcat": "식품/음료", "longitude": "126.73355968", "latitude": "37.340081931"}, {"name": "T스테이션 정왕점", "category": "other", "outputcat": "개인서비스업", "telephone": "031-498-0790", "longitude": "126.75335878", "latitude": "37.341783213"}, {"name": "WH34D 피부샵", "category": "other", "outputcat": "개인서비스업", "longitude": "126.72689037", "latitude": "37.377080139"}, {"name": "WOW", "category": "othershop", "outputcat": "기타판매", "telephone": "031-493-0304", "longitude": "126.78475121", "latitude": "37.34263815"}, {"name": "XYM모텔", "category": "trip", "outputcat": "숙박업", "telephone": "031-317-0879", "longitude": "126.74058403", "latitude": "37.390464248"}, {"name": "YBM ECC영어학원", "category": "edu", "outputcat": "교육", "telephone": "031-499-0509", "longitude": "126.72297779", "latitude": "37.354419529"}, {"name": "YBM잉글루 영어영재학원", "category": "edu", "outputcat": "교육", "telephone": "031-435-2961", "longitude": "126.81032457", "latitude": "37.368667781"}, {"name": "YBM잉글루영어수학전문학원", "category": "edu", "outputcat": "교육", "telephone": "031-503-5255", "longitude": "126.80496367", "latitude": "37.393914242"}, {"name": "Y헤어(Y싸롱드헤어)", "category": "other", "outputcat": "개인서비스업"}, {"name": "e-만물상", "category": "othershop", "outputcat": "기타판매", "telephone": "031-498-5957", "longitude": "126.72466335", "latitude": "37.353387341"}, {"name": "e-슈포토", "category": "other", "outputcat": "개인서비스업", "telephone": "031-318-2906", "longitude": "126.81060608", "latitude": "37.368947552"}, {"name": "e-조은치과의원", "category": "med", "outputcat": "의료", "telephone": "031-497-2875", "longitude": "126.7847242", "latitude": "37.344169827"}, {"name": "e-플러스마트", "category": "othershop", "outputcat": "기타판매", "telephone": "031-314-6023~5", "longitude": "126.78707813", "latitude": "37.444294124"}, {"name": "e해법공부방", "category": "edu", "outputcat": "교육", "longitude": "126.733858", "latitude": "37.370329609"}, {"name": "ing스튜디오", "category": "other", "outputcat": "개인서비스업", "telephone": "031-433-7942", "longitude": "126.72891727", "latitude": "37.36302909"}, {"name": "k-star태권도", "category": "edu", "outputcat": "교육", "telephone": "031-317-3823", "longitude": "126.81257118", "latitude": "37.390971422"}, {"name": "k바디GYM(K바디짐)", "category": "other", "outputcat": "스포츠및여가관련서비스업", "telephone": "031-499-2557", "longitude": "126.72230743", "latitude": "37.352579875"}, {"name": "muglog", "category": "food", "outputcat": "식품/음료", "telephone": "031-499-3214", "longitude": "126.72191549", "latitude": "37.351750013"}, {"name": "ok세탁소", "category": "other", "outputcat": "개인서비스업", "telephone": "031-431-3362", "longitude": "126.72952433", "latitude": "37.382384189"}, {"name": "ok카써비스", "category": "other", "outputcat": "개인서비스업", "telephone": "031-313-1688", "longitude": "126.78751869", "latitude": "37.432518845"}, {"name": "story헤어", "category": "other", "outputcat": "개인서비스업", "telephone": "031-318-1451", "longitude": "126.79746447", "latitude": "37.443826091"}, {"name": "㈜ 노스시흥신천점", "category": "othershop", "outputcat": "기타판매", "telephone": "031-315-9001", "longitude": "126.78057757", "latitude": "37.441434916"}, {"name": "㈜ 리쉬코리아 (오감다이닝카페)", "category": "food", "outputcat": "식품/음료", "telephone": "031-431-3488", "longitude": "126.73069404", "latitude": "37.368024793"}, {"name": "㈜ 참맛푸드 참맛닭강정 은계점", "category": "food", "outputcat": "식품/음료", "telephone": "031-312-3010", "longitude": "126.80369637", "latitude": "37.441782476"}, {"name": "㈜경인기획", "category": "other", "outputcat": "제조업", "telephone": "031-317-0323", "longitude": "126.80126806", "latitude": "37.382330034"}, {"name": "㈜나눔스마트", "category": "food", "outputcat": "식품/음료", "telephone": "031-318-8844", "longitude": "126.85154565", "latitude": "37.377530591"}, {"name": "㈜다수리", "category": "other", "outputcat": "개인서비스업", "telephone": "070-7805-8877", "longitude": "126.84001921", "latitude": "37.392715317"}, {"name": "㈜다연홈마트", "category": "othershop", "outputcat": "기타판매", "telephone": "031-312-3990", "longitude": "126.80004889", "latitude": "37.398996607"}, {"name": "㈜다우건설", "category": "other", "outputcat": "기타", "telephone": "031-312-1104", "longitude": "126.78362828", "latitude": "37.437656411"}, {"name": "㈜다원복지", "category": "othershop", "outputcat": "기타판매", "telephone": "031-318-9696", "longitude": "126.80218352", "latitude": "37.381998218"}, {"name": "㈜대박짬뽕", "category": "food", "outputcat": "식품/음료", "telephone": "031-433-7001", "longitude": "126.74522059", "latitude": "37.352190504"}, {"name": "㈜대성아카데미", "category": "edu", "outputcat": "교육", "telephone": "031-434-3300", "longitude": "126.72361132", "latitude": "37.354024581"}, {"name": "㈜대진유통", "category": "othershop", "outputcat": "기타판매", "telephone": "031-315-6787", "longitude": "126.7839063", "latitude": "37.439188628"}, {"name": "㈜디아이", "category": "other", "outputcat": "제조업", "telephone": "070-4693-0330", "longitude": "126.80963458", "latitude": "37.369198252"}, {"name": "㈜로뎀과사람들", "category": "edu", "outputcat": "교육", "telephone": "031-505-1211", "longitude": "126.79002207", "latitude": "37.438244738"}, {"name": "㈜룸데코", "category": "othershop", "outputcat": "기타판매", "telephone": "031-433-3314", "longitude": "126.74891983", "latitude": "37.346305872"}, {"name": "㈜맛자랑", "category": "food", "outputcat": "식품/음료", "telephone": "031-434-9229", "longitude": "126.68972787", "latitude": "37.340532663"}, {"name": "㈜무진유통 데상트스포츠", "category": "othershop", "outputcat": "기타판매", "telephone": "031-312-7889", "longitude": "126.77929934", "latitude": "37.441883005"}, {"name": "㈜무진유통 디스커버리", "category": "othershop", "outputcat": "기타판매", "telephone": "031-312-0797", "longitude": "126.77937903", "latitude": "37.441684936"}, {"name": "㈜무진유통 레노마골프", "category": "othershop", "outputcat": "기타판매", "telephone": "031-312-0717", "longitude": "126.77943593", "latitude": "37.441549893"}, {"name": "㈜무진유통 루이까스텔", "category": "othershop", "outputcat": "기타판매", "telephone": "031-312-7088", "longitude": "126.77937903", "latitude": "37.441684936"}, {"name": "㈜무진유통 르꼬끄골프", "category": "othershop", "outputcat": "기타판매", "telephone": "031-312-7087", "longitude": "126.77788684", "latitude": "37.441880325"}, {"name": "㈜무진유통 르꼬끄스포츠", "category": "othershop", "outputcat": "기타판매", "telephone": "031-312-0312", "longitude": "126.77929934", "latitude": "37.441883005"}, {"name": "㈜밤브밤브(올통)", "category": "food", "outputcat": "식품/음료", "telephone": "031-316-0350", "longitude": "126.7872733", "latitude": "37.431410165"}, {"name": "㈜배곧여행사", "category": "other", "outputcat": "개인서비스업", "telephone": "031-497-3579", "longitude": "126.72574678", "latitude": "37.377969464"}, {"name": "㈜베니스골프아카데미", "category": "other", "outputcat": "스포츠및여가관련서비스업", "telephone": "031-496-9996", "longitude": "126.73069404", "latitude": "37.368024793"}, {"name": "㈜베스트마트", "category": "othershop", "outputcat": "기타판매", "telephone": "031-315-0000", "longitude": "126.80952349", "latitude": "37.368495282"}, {"name": "㈜빅마트", "category": "othershop", "outputcat": "기타판매", "telephone": "031-498-0028", "longitude": "126.73392127", "latitude": "37.374744702"}, {"name": "㈜서우리테일 시흥식자재", "category": "othershop", "outputcat": "기타판매", "telephone": "031-433-9006", "longitude": "126.73208216", "latitude": "37.365000582"}, {"name": "㈜선한이웃사람들", "category": "othershop", "outputcat": "기타판매", "telephone": "031-312-9373", "longitude": "126.78827144", "latitude": "37.445882056"}, {"name": "㈜성조물류장비", "category": "other", "outputcat": "제조업", "telephone": "031-318-2101~2", "longitude": "126.83487678", "latitude": "37.399690935"}, {"name": "㈜세종종합상사", "category": "othershop", "outputcat": "기타판매", "telephone": "031-317-2948", "longitude": "126.79124496", "latitude": "37.425299535"}, {"name": "㈜수성전기", "category": "othershop", "outputcat": "기타판매", "telephone": "031-314-1263", "longitude": "126.78783246", "latitude": "37.437375814"}, {"name": "㈜스내지", "category": "othershop", "outputcat": "기타판매", "telephone": "02-2625-7990", "longitude": "126.83191007", "latitude": "37.442853795"}, {"name": "㈜씨알", "category": "othershop", "outputcat": "기타판매", "longitude": "126.73808448", "latitude": "37.336974631"}, {"name": "㈜알로하루", "category": "edu", "outputcat": "교육", "telephone": "031-311-1172", "longitude": "126.81498811", "latitude": "37.390831126"}, {"name": "㈜에이볼", "category": "other", "outputcat": "스포츠및여가관련서비스업", "longitude": "126.78246621", "latitude": "37.440906862"}, {"name": "㈜에프엔제이", "category": "other", "outputcat": "제조업", "telephone": "031-432-8654", "longitude": "126.73355968", "latitude": "37.340081931"}, {"name": "㈜엘리트프랜즈", "category": "other", "outputcat": "제조업", "telephone": "031-318-3157", "longitude": "126.79477456", "latitude": "37.435820498"}, {"name": "㈜연홍", "category": "othershop", "outputcat": "기타판매", "longitude": "126.80207261", "latitude": "37.381250191"}, {"name": "㈜영진상사", "category": "othershop", "outputcat": "기타판매", "telephone": "031-485-2546", "longitude": "126.81488638", "latitude": "37.368251644"}, {"name": "㈜오장동숯불갈비", "category": "food", "outputcat": "식품/음료"}, {"name": "㈜월곶식자재", "category": "othershop", "outputcat": "기타판매", "telephone": "031-435-0041", "longitude": "126.73955748", "latitude": "37.390164634"}, {"name": "㈜월곶식자재 배곧점", "category": "othershop", "outputcat": "기타판매", "telephone": "031-488-8854", "longitude": "126.71353373", "latitude": "37.362442842"}, {"name": "㈜윈 win", "category": "edu", "outputcat": "교육", "longitude": "126.7808609", "latitude": "37.379914819"}, {"name": "㈜윈플러스마트서부 시화점", "category": "othershop", "outputcat": "기타판매", "longitude": "126.73205273", "latitude": "37.34491694"}, {"name": "㈜유얼리 (유얼리발달센터)", "category": "other", "outputcat": "개인서비스업", "telephone": "031-497-9370", "longitude": "126.72658236", "latitude": "37.377944389"}, {"name": "㈜정다운식품", "category": "other", "outputcat": "제조업", "telephone": "070-7778-4775", "longitude": "126.76010868", "latitude": "37.365863326"}, {"name": "㈜중앙산후케어하우스 산후조리원", "category": "med", "outputcat": "의료", "telephone": "031-313-3337", "longitude": "126.79015779", "latitude": "37.446182796"}, {"name": "㈜창조아트", "category": "other", "outputcat": "개인서비스업", "longitude": "126.8093414", "latitude": "37.417383692"}, {"name": "㈜칸티에", "category": "food", "outputcat": "식품/음료", "telephone": "031-311-4600", "longitude": "126.78496216", "latitude": "37.44915564"}, {"name": "㈜쿱스토어경기대야점(자연드림대야점)", "category": "othershop", "outputcat": "기타판매", "telephone": "031-313-7419", "longitude": "126.79785295", "latitude": "37.446403626"}, {"name": "㈜태인패션", "category": "othershop", "outputcat": "기타판매", "telephone": "031-313-6461", "longitude": "126.77790861", "latitude": "37.442159676"}, {"name": "가고시마", "category": "food", "outputcat": "식품/음료", "telephone": "070-7543-1945", "longitude": "126.73357921", "latitude": "37.347254051"}, {"name": "가구랑", "category": "othershop", "outputcat": "기타판매", "telephone": "031-499-4250", "longitude": "126.74086032", "latitude": "37.333755174"}, {"name": "가구마다방문요양센터", "category": "other", "outputcat": "개인서비스업", "telephone": "031-499-3683", "longitude": "126.72838466", "latitude": "37.36669497"}, {"name": "가나안덕 ", "category": "food", "outputcat": "식품/음료", "telephone": "031-483-5292", "longitude": "126.83879159", "latitude": "37.386028131"}, {"name": "가나안방앗간", "category": "other", "outputcat": "제조업", "telephone": "031-313-2929", "longitude": "126.79432285", "latitude": "37.431657073"}, {"name": "가나오토샾", "category": "othershop", "outputcat": "기타판매", "telephone": "031-496-8844", "longitude": "126.75460662", "latitude": "37.346669338"}, {"name": "가나전기조명", "category": "othershop", "outputcat": "기타판매", "telephone": "031-432-2308", "longitude": "126.74466714", "latitude": "37.345720017"}, {"name": "가람학원", "category": "edu", "outputcat": "교육", "telephone": "031-317-7748", "longitude": "126.7982097", "latitude": "37.444043624"}, {"name": "가마랑", "category": "food", "outputcat": "식품/음료", "longitude": "126.84299132", "latitude": "37.375753354"}, {"name": "가마로 강정", "category": "food", "outputcat": "식품/음료", "telephone": "031-311-7292", "longitude": "126.79788108", "latitude": "37.444376424"}, {"name": "가마솥광주통닭(시흥점)", "category": "food", "outputcat": "식품/음료", "telephone": "031-314-8023", "longitude": "126.78668962", "latitude": "37.43793235"}, {"name": "가마솥보신탕", "category": "food", "outputcat": "식품/음료", "telephone": "031-433-0733", "longitude": "126.73341863", "latitude": "37.347974497"}, {"name": "가마솥소머리국밥", "category": "food", "outputcat": "식품/음료", "telephone": "031-434-7088", "longitude": "126.69017273", "latitude": "37.347552736"}, {"name": "가마솥순대국", "category": "food", "outputcat": "식품/음료", "telephone": "031-313-0553", "longitude": "126.79710894", "latitude": "37.420967051"}, {"name": "가마솥한식부페", "category": "food", "outputcat": "식품/음료", "longitude": "126.83568043", "latitude": "37.398881167"}, {"name": "가브리엘 캐롬클럽", "category": "other", "outputcat": "개인서비스업", "telephone": "070-8878-7500", "longitude": "126.81148812", "latitude": "37.368363325"}, {"name": "가비", "category": "food", "outputcat": "식품/음료", "longitude": "126.84426805", "latitude": "37.375304567"}, {"name": "가야성", "category": "food", "outputcat": "식품/음료"}, {"name": "가야에너지", "category": "othershop", "outputcat": "기타판매", "telephone": "031-434-2211", "longitude": "126.79132915", "latitude": "37.431516603"}, {"name": "가온헤어", "category": "other", "outputcat": "개인서비스업", "longitude": "126.75582847", "latitude": "37.342310985"}, {"name": "가우스수학학원", "category": "edu", "outputcat": "교육", "telephone": "031-319-3139", "longitude": "126.734523", "latitude": "37.373800009"}, {"name": "가위로마법처럼", "category": "other", "outputcat": "개인서비스업", "telephone": "031-317-4321", "longitude": "126.85881595", "latitude": "37.383801695"}, {"name": "가위소리", "category": "other", "outputcat": "개인서비스업"}, {"name": "가위소리", "category": "other", "outputcat": "개인서비스업"}, {"name": "가위소리미용실", "category": "other", "outputcat": "개인서비스업"}, {"name": "가위손", "category": "other", "outputcat": "개인서비스업", "longitude": "126.81299215", "latitude": "37.416578708"}, {"name": "가위쟁이헤어스토리", "category": "other", "outputcat": "개인서비스업"}, {"name": "가을동화", "category": "food", "outputcat": "식품/음료", "telephone": "031-313-0752", "longitude": "126.82973725", "latitude": "37.400079964"}, {"name": "가자김밥", "category": "food", "outputcat": "식품/음료", "telephone": "031-316-3698", "longitude": "126.78696681", "latitude": "37.408298858"}, {"name": "가장맛있는 족발 시흥대야점", "category": "food", "outputcat": "식품/음료", "telephone": "031-313-5849", "longitude": "126.7904393", "latitude": "37.442543262"}, {"name": "가장맛있는족발 목감지구점", "category": "food", "outputcat": "식품/음료", "telephone": "031-402-5849", "longitude": "126.86056898", "latitude": "37.38228111"}, {"name": "가장맛있는족발시흥정왕점", "category": "food", "outputcat": "식품/음료", "telephone": "031-434-5849", "longitude": "126.72292363", "latitude": "37.353806713"}, {"name": "간장게장백반", "category": "food", "outputcat": "식품/음료", "telephone": "031-318-0881", "longitude": "126.78162952", "latitude": "37.441076489"}, {"name": "갈매기회타운", "category": "food", "outputcat": "식품/음료", "telephone": "031-318-8512", "longitude": "126.73707928", "latitude": "37.388438165"}, {"name": "갈비명가 궁 시흥배곧점", "category": "food", "outputcat": "식품/음료", "telephone": "031-488-9191", "longitude": "126.73421756", "latitude": "37.373970507"}, {"name": "갈비세상", "category": "food", "outputcat": "식품/음료", "telephone": "031-314-9599", "longitude": "126.79721199", "latitude": "37.445240222"}, {"name": "갈비야", "category": "food", "outputcat": "식품/음료", "telephone": "031-317-9289", "longitude": "126.81196163", "latitude": "37.368607363"}, {"name": "갈비엔조이", "category": "food", "outputcat": "식품/음료", "telephone": "031-313-2282", "longitude": "126.79707044", "latitude": "37.439158222"}, {"name": "갈비천국 배곧직영점", "category": "food", "outputcat": "식품/음료", "telephone": "031-8042-7292", "longitude": "126.72686525", "latitude": "37.377773858"}, {"name": "감동반찬", "category": "food", "outputcat": "식품/음료", "telephone": "031-499-0234", "longitude": "126.72686525", "latitude": "37.377773858"}, {"name": "감동식탁", "category": "food", "outputcat": "식품/음료", "longitude": "126.80174587", "latitude": "37.435913656"}, {"name": "감성낙곱새(신천점)", "category": "food", "outputcat": "식품/음료", "telephone": "031-432-5163", "longitude": "126.73994644", "latitude": "37.353142983"}, {"name": "감성수컷", "category": "other", "outputcat": "개인서비스업", "telephone": "031-504-4006", "longitude": "126.74399835", "latitude": "37.34986322"}, {"name": "감탄", "category": "food", "outputcat": "식품/음료", "telephone": "031-315-0463", "longitude": "126.81465535", "latitude": "37.415518182"}, {"name": "감탄 능곡점", "category": "food", "outputcat": "식품/음료", "telephone": "031-435-4356", "longitude": "126.8116923", "latitude": "37.36797622"}, {"name": "감탄떡볶이 장곡점", "category": "food", "outputcat": "식품/음료", "telephone": "031-317-9743", "longitude": "126.78136203", "latitude": "37.378438102"}, {"name": "강경상회", "category": "othershop", "outputcat": "기타판매", "longitude": "126.74850424", "latitude": "37.345719319"}, {"name": "강경젖갈", "category": "othershop", "outputcat": "기타판매", "longitude": "126.68803758", "latitude": "37.345357611"}, {"name": "강고집바지락칼국수", "category": "food", "outputcat": "식품/음료", "telephone": "031-432-2808", "longitude": "126.72361132", "latitude": "37.354024581"}, {"name": "강남무역", "category": "othershop", "outputcat": "기타판매", "telephone": "031-315-6116", "longitude": "126.78538079", "latitude": "37.406025417"}, {"name": "강릉교동짬뽕", "category": "food", "outputcat": "식품/음료", "longitude": "126.81599582", "latitude": "37.362441871"}, {"name": "강릉꼬꼬주막", "category": "food", "outputcat": "식품/음료", "telephone": "070-8865-5885", "longitude": "126.78389078", "latitude": "37.339699249"}, {"name": "강만스킨케어", "category": "other", "outputcat": "개인서비스업"}, {"name": "강식빵", "category": "othershop", "outputcat": "기타판매", "longitude": "126.78490731", "latitude": "37.440794259"}, {"name": "강원사", "category": "othershop", "outputcat": "기타판매", "longitude": "126.81060608", "latitude": "37.368947552"}, {"name": "강원옻닭", "category": "food", "outputcat": "식품/음료", "telephone": "031-312-9119", "longitude": "126.79360249", "latitude": "37.463127719"}, {"name": "강의하는 아이들 학원", "category": "edu", "outputcat": "교육", "longitude": "126.73394603", "latitude": "37.374132072"}, {"name": "강정구의피자생각 목감점", "category": "food", "outputcat": "식품/음료", "telephone": "031-414-8599", "longitude": "126.85101501", "latitude": "37.377529911"}, {"name": "강철체육관", "category": "edu", "outputcat": "교육", "telephone": "031-404-7943", "longitude": "126.7926613", "latitude": "37.444015866"}, {"name": "강촌숯불닭갈비", "category": "food", "outputcat": "식품/음료", "telephone": "031-504-9978", "longitude": "126.78546828", "latitude": "37.442182833"}, {"name": "개경순대국", "category": "food", "outputcat": "식품/음료", "telephone": "031-318-7545", "longitude": "126.81193805", "latitude": "37.369003771"}, {"name": "개구장이", "category": "othershop", "outputcat": "기타판매", "longitude": "126.79938604", "latitude": "37.381002327"}, {"name": "개마고원", "category": "food", "outputcat": "식품/음료", "telephone": "031-433-9800", "longitude": "126.74275084", "latitude": "37.34833777"}, {"name": "개성손만두", "category": "food", "outputcat": "식품/음료", "longitude": "126.86262729", "latitude": "37.386554358"}, {"name": "개성시대미용실", "category": "other", "outputcat": "개인서비스업", "longitude": "126.73141942", "latitude": "37.348420433"}, {"name": "개성진찹쌀순대", "category": "food", "outputcat": "식품/음료", "longitude": "126.81230267", "latitude": "37.41673978"}, {"name": "개성진찹쌀순대", "category": "food", "outputcat": "식품/음료", "telephone": "031-313-5689", "longitude": "126.78579944", "latitude": "37.437074768"}, {"name": "개성집", "category": "food", "outputcat": "식품/음료", "telephone": "031-310-9211", "longitude": "126.80788066", "latitude": "37.362059355"}, {"name": "개인과외", "category": "edu", "outputcat": "교육", "longitude": "126.80049319", "latitude": "37.439542553"}, {"name": "개인과외", "category": "edu", "outputcat": "교육", "longitude": "126.73127874", "latitude": "37.371801371"}, {"name": "개편한세상", "category": "othershop", "outputcat": "기타판매", "longitude": "126.80253508", "latitude": "37.436563717"}, {"name": "개포수타돈까스", "category": "food", "outputcat": "식품/음료", "telephone": "031-313-0303", "longitude": "126.79980153", "latitude": "37.44460499"}, {"name": "갠차나유", "category": "food", "outputcat": "식품/음료", "telephone": "031-411-3633", "longitude": "126.84610596", "latitude": "37.376442292"}, {"name": "갤럭시호텔", "category": "trip", "outputcat": "숙박업", "telephone": "031-318-4040", "longitude": "126.74066647", "latitude": "37.389491343"}, {"name": "갬해원 아웃도어", "category": "othershop", "outputcat": "기타판매", "telephone": "031-493-7531", "longitude": "126.78391095", "latitude": "37.340528221"}, {"name": "갯골1890", "category": "food", "outputcat": "식품/음료", "telephone": "031-434-5658", "longitude": "126.73296978", "latitude": "37.347252662"}, {"name": "갯마을", "category": "food", "outputcat": "식품/음료", "telephone": "031-498-4419", "longitude": "126.68775729", "latitude": "37.344915368"}, {"name": "갯마을", "category": "food", "outputcat": "식품/음료", "telephone": "031-312-1503", "longitude": "126.78608024", "latitude": "37.445490628"}, {"name": "갯마을조개", "category": "food", "outputcat": "식품/음료", "longitude": "126.68803758", "latitude": "37.345357611"}, {"name": "거금도수산", "category": "food", "outputcat": "식품/음료", "telephone": "031-404-2242", "longitude": "126.73533208", "latitude": "37.387578268"}, {"name": "거기까페", "category": "food", "outputcat": "식품/음료", "longitude": "126.78432729", "latitude": "37.438189296"}, {"name": "거모BYC", "category": "othershop", "outputcat": "기타판매", "telephone": "031-495-6231", "longitude": "126.7847191", "latitude": "37.34203441"}, {"name": "거복당", "category": "othershop", "outputcat": "기타판매", "telephone": "031-431-7002", "longitude": "126.73608272", "latitude": "37.344610742"}, {"name": "거산타이어", "category": "othershop", "outputcat": "기타판매", "telephone": "031-432-2169", "latitude": "37.356052547", "longitude": "126.80423916"}, {"name": "거창왕족발", "category": "food", "outputcat": "식품/음료", "telephone": "031-312-0033", "longitude": "126.78352067", "latitude": "37.439683463"}, {"name": "건강당약국", "category": "med", "outputcat": "의료", "telephone": "031-503-0771", "longitude": "126.78513288", "latitude": "37.378499165"}, {"name": "건강밥상심마니", "category": "food", "outputcat": "식품/음료", "telephone": "031-434-0010", "longitude": "126.72838466", "latitude": "37.36669497"}, {"name": "건강사우나", "category": "other", "outputcat": "개인서비스업", "telephone": "031-317-8471", "longitude": "126.79115832", "latitude": "37.448040652"}, {"name": "건강을주는약국", "category": "med", "outputcat": "의료", "telephone": "031-494-3554", "longitude": "126.78454831", "latitude": "37.342556685"}, {"name": "건강한녹용원", "category": "other", "outputcat": "제조업", "telephone": "031-492-6861", "longitude": "126.78060188", "latitude": "37.37968908"}, {"name": "건강한밥상", "category": "food", "outputcat": "식품/음료", "longitude": "126.79666432", "latitude": "37.434796668"}, {"name": "건강한정형외과", "category": "med", "outputcat": "의료", "telephone": "031-411-7333", "longitude": "126.86170965", "latitude": "37.382138316"}, {"name": "건강해 GYM", "category": "other", "outputcat": "스포츠및여가관련서비스업", "telephone": "031-499-2468", "longitude": "126.72972623", "latitude": "37.370302119"}, {"name": "건국대 신일체육관", "category": "edu", "outputcat": "교육", "telephone": "031-313-4915", "longitude": "126.79624656", "latitude": "37.430579249"}, {"name": "건반세상음악교습소", "category": "edu", "outputcat": "교육", "longitude": "126.78088201", "latitude": "37.376581121"}, {"name": "건영문구", "category": "othershop", "outputcat": "기타판매", "telephone": "031-503-3838", "longitude": "126.73091292", "latitude": "37.351167361"}, {"name": "건영미용실", "category": "other", "outputcat": "개인서비스업", "telephone": "031-497-7524", "longitude": "126.7454773", "latitude": "37.339811125"}, {"name": "건영상회", "category": "othershop", "outputcat": "기타판매", "telephone": "031-434-4152", "longitude": "126.74850424", "latitude": "37.345719319"}, {"name": "건영세탁소", "category": "other", "outputcat": "개인서비스업", "longitude": "126.7454773", "latitude": "37.339811125"}, {"name": "건영어린이집", "category": "edu", "outputcat": "교육"}, {"name": "건영치과의원", "category": "med", "outputcat": "의료", "telephone": "031-315-0027", "longitude": "126.79110336", "latitude": "37.435462587"}, {"name": "건영하이퍼", "category": "othershop", "outputcat": "기타판매", "telephone": "031-503-6644", "longitude": "126.73002897", "latitude": "37.35216545"}, {"name": "건우파스타(GUNU PASTA)", "category": "food", "outputcat": "식품/음료", "telephone": "031-416-0165", "longitude": "126.84460616", "latitude": "37.375584334"}, {"name": "검은 순수", "category": "food", "outputcat": "식품/음료", "telephone": "031-487-3107", "longitude": "126.734523", "latitude": "37.373800009"}, {"name": "결성젓갈", "category": "othershop", "outputcat": "기타판매", "longitude": "126.74136251", "latitude": "37.387411556"}, {"name": "경기 나다움 심리상담센터", "category": "other", "outputcat": "개인서비스업", "telephone": "031-317-2756", "longitude": "126.78513288", "latitude": "37.378499165"}, {"name": "경기 퀸스맘", "category": "other", "outputcat": "개인서비스업", "telephone": "031-482-5508", "longitude": "126.74732814", "latitude": "37.353087079"}, {"name": "경기도 칼국수", "category": "food", "outputcat": "식품/음료", "telephone": "031-316-2254", "longitude": "126.78841408", "latitude": "37.407769899"}, {"name": "경기도주식회사 바라지마켓", "category": "othershop", "outputcat": "기타판매", "telephone": "031-5171-5160", "longitude": "126.7364451", "latitude": "37.379381603"}, {"name": "경기두레생협 능곡점", "category": "othershop", "outputcat": "기타판매", "telephone": "031-316-0071", "longitude": "126.8116923", "latitude": "37.36797622"}, {"name": "경기두레생협 대야점", "category": "othershop", "outputcat": "기타판매", "telephone": "031-316-0072", "longitude": "126.79302206", "latitude": "37.444322847"}, {"name": "경기두레생협 연성점", "category": "othershop", "outputcat": "기타판매", "telephone": "031-435-0071", "longitude": "126.78513288", "latitude": "37.378499165"}, {"name": "경기두레생협 은행점", "category": "othershop", "outputcat": "기타판매", "telephone": "031-311-3886", "longitude": "126.79765606", "latitude": "37.444015634"}, {"name": "경기떡방아간", "category": "other", "outputcat": "제조업", "telephone": "031-313-2023", "longitude": "126.81291267", "latitude": "37.416740761"}, {"name": "경기버섯마을", "category": "other", "outputcat": "기타", "latitude": "37.40107974", "longitude": "126.8011049"}, {"name": "경기시흥수퍼마켓사업협동조합", "category": "othershop", "outputcat": "기타판매", "telephone": "031-313-7774", "longitude": "126.75913139", "latitude": "37.378331304"}, {"name": "경기시흥장작", "category": "othershop", "outputcat": "기타판매", "telephone": "031-498-5750", "latitude": "37.354473697", "longitude": "126.75535971"}, {"name": "경기식품", "category": "othershop", "outputcat": "기타판매", "longitude": "126.78565973", "latitude": "37.407215257"}, {"name": "경기위드맘케어", "category": "med", "outputcat": "의료", "telephone": "031-413-3512", "longitude": "126.73691884", "latitude": "37.38910455"}, {"name": "경기육계", "category": "othershop", "outputcat": "기타판매", "telephone": "031-311-0677", "longitude": "126.78340807", "latitude": "37.439548104"}, {"name": "경기재활주야간보호센터", "category": "med", "outputcat": "의료", "longitude": "126.78815797", "latitude": "37.438133247"}, {"name": "경남마트", "category": "othershop", "outputcat": "기타판매", "telephone": "031-314-1612", "longitude": "126.79110336", "latitude": "37.435462587"}, {"name": "경동상회", "category": "food", "outputcat": "식품/음료", "telephone": "031-313-9845", "longitude": "126.78707813", "latitude": "37.444294124"}, {"name": "경복궁 (장앤칼)", "category": "food", "outputcat": "식품/음료", "telephone": "031-315-5959", "longitude": "126.78457728", "latitude": "37.406573549"}, {"name": "경복궁 삼계탕", "category": "food", "outputcat": "식품/음료", "telephone": "031-311-0011", "longitude": "126.81452403", "latitude": "37.368692563"}, {"name": "경상도과일야채가게", "category": "othershop", "outputcat": "기타판매", "longitude": "126.78241264", "latitude": "37.439906652"}, {"name": "경석이네 치킨분식 (쌀통닭)", "category": "food", "outputcat": "식품/음료", "telephone": "031-405-5008", "longitude": "126.86037783", "latitude": "37.381857405"}, {"name": "경식이네쌀통닭", "category": "food", "outputcat": "식품/음료", "longitude": "126.79273943", "latitude": "37.43223992"}, {"name": "경신마트", "category": "othershop", "outputcat": "기타판매", "telephone": "031-313-3611", "longitude": "126.79610176", "latitude": "37.421605006"}, {"name": "경아두마리치킨 정왕역점", "category": "food", "outputcat": "식품/음료", "telephone": "031-499-9997", "longitude": "126.74346867", "latitude": "37.349636807"}, {"name": "경인농산", "category": "othershop", "outputcat": "기타판매", "telephone": "031-314-6164", "longitude": "126.78432729", "latitude": "37.438189296"}, {"name": "경인마트", "category": "othershop", "outputcat": "기타판매", "telephone": "031-314-3224", "longitude": "126.78735023", "latitude": "37.436104524"}, {"name": "경인보안설비", "category": "other", "outputcat": "개인서비스업", "telephone": "031-506-1377", "longitude": "126.78513288", "latitude": "37.378499165"}, {"name": "경인자동차정비", "category": "other", "outputcat": "개인서비스업", "longitude": "126.78735002", "latitude": "37.451935096"}, {"name": "경화루", "category": "food", "outputcat": "식품/음료", "telephone": "031-313-7050", "longitude": "126.81305165", "latitude": "37.415380467"}, {"name": "경희다나한의원", "category": "med", "outputcat": "의료", "telephone": "031-433-1566", "longitude": "126.73019214", "latitude": "37.363221248"}, {"name": "경희대 T.F.I태권도", "category": "edu", "outputcat": "교육", "telephone": "031-404-8820", "longitude": "126.79707044", "latitude": "37.439158222"}, {"name": "경희대 라이온킹 태권도", "category": "edu", "outputcat": "교육", "telephone": "031-414-0258", "longitude": "126.86243429", "latitude": "37.381057966"}, {"name": "경희대 명성태권도", "category": "edu", "outputcat": "교육", "longitude": "126.81465535", "latitude": "37.415518182"}, {"name": "경희대 산현태권도", "category": "edu", "outputcat": "교육", "longitude": "126.84293217", "latitude": "37.3770237"}, {"name": "경희대 석사 정진태권도장", "category": "edu", "outputcat": "교육", "telephone": "031-313-5035", "longitude": "126.79063577", "latitude": "37.432993004"}, {"name": "경희대 여명 태권도장", "category": "edu", "outputcat": "교육", "longitude": "126.81240628", "latitude": "37.393665172"}, {"name": "경희대경일용문태권도", "category": "edu", "outputcat": "교육", "telephone": "031-431-0588", "longitude": "126.73969862", "latitude": "37.34330336"}, {"name": "경희대능곡태권도", "category": "edu", "outputcat": "교육", "telephone": "031-318-6262", "longitude": "126.81221175", "latitude": "37.367913988"}, {"name": "경희대박사태권도", "category": "edu", "outputcat": "교육", "longitude": "126.72811373", "latitude": "37.348115467"}, {"name": "경희대박사태권도", "category": "edu", "outputcat": "교육", "longitude": "126.72297779", "latitude": "37.354419529"}, {"name": "경희대박사태권도", "category": "edu", "outputcat": "교육", "longitude": "126.72625105", "latitude": "37.360554112"}, {"name": "경희대석사누리태권도장", "category": "edu", "outputcat": "교육", "telephone": "031-499-0416", "longitude": "126.73466295", "latitude": "37.382053572"}, {"name": "경희대석사월드태권도장", "category": "edu", "outputcat": "교육", "telephone": "031-318-1484", "longitude": "126.78610244", "latitude": "37.378996502"}, {"name": "경희대석사체육관", "category": "edu", "outputcat": "교육", "telephone": "031-404-0203", "longitude": "126.79788631", "latitude": "37.446601904"}, {"name": "경희대석사한라태권도", "category": "edu", "outputcat": "교육", "telephone": "031-319-2555", "longitude": "126.71317165", "latitude": "37.362667209"}, {"name": "경희대스타 태권도", "category": "edu", "outputcat": "교육", "telephone": "031-492-1243", "longitude": "126.78457541", "latitude": "37.344890365"}, {"name": "경희대장하태권도", "category": "edu", "outputcat": "교육", "telephone": "031-318-0088", "longitude": "126.78685898", "latitude": "37.378970856"}, {"name": "경희대장현태권도", "category": "edu", "outputcat": "교육", "telephone": "031-404-0667", "longitude": "126.79954443", "latitude": "37.380885468"}, {"name": "경희대제일태권도장", "category": "other", "outputcat": "스포츠및여가관련서비스업", "longitude": "126.7454773", "latitude": "37.339811125"}, {"name": "경희목감한의원", "category": "med", "outputcat": "의료", "telephone": "031-486-7505", "longitude": "126.86032487", "latitude": "37.385974958"}, {"name": "경희야생화", "category": "othershop", "outputcat": "기타판매", "telephone": "031-499-9770", "longitude": "126.73708746", "latitude": "37.350920101"}, {"name": "경희용한의원", "category": "med", "outputcat": "의료", "telephone": "031-365-3250", "longitude": "126.73069404", "latitude": "37.368024793"}, {"name": "계동치킨 정왕점", "category": "food", "outputcat": "식품/음료", "telephone": "031-503-3399", "longitude": "126.74197174", "latitude": "37.341920831"}, {"name": "계림원시흥배곧점", "category": "food", "outputcat": "식품/음료", "telephone": "031-319-9978", "longitude": "126.72811368", "latitude": "37.369802828"}, {"name": "계몽학원", "category": "edu", "outputcat": "교육", "telephone": "031-315-1080", "longitude": "126.78230396", "latitude": "37.438437818"}, {"name": "계백", "category": "food", "outputcat": "식품/음료", "telephone": "031-431-1565", "longitude": "126.72269864", "latitude": "37.353607957"}, {"name": "계절맛집", "category": "food", "outputcat": "식품/음료", "telephone": "031-404-2633", "longitude": "126.78424636", "latitude": "37.438819847"}, {"name": "고가네 맛집", "category": "food", "outputcat": "식품/음료", "telephone": "031-319-0415", "longitude": "126.73516852", "latitude": "37.344635707"}, {"name": "고가뫼고쌈냉면 시흥점", "category": "food", "outputcat": "식품/음료", "telephone": "031-318-7118", "longitude": "126.82416025", "latitude": "37.384916703"}, {"name": "고객사랑안경랜드", "category": "othershop", "outputcat": "기타판매", "telephone": "031-496-0609", "longitude": "126.73341863", "latitude": "37.347974497"}, {"name": "고고네일", "category": "other", "outputcat": "개인서비스업"}, {"name": "고구려 짬뽕집", "category": "food", "outputcat": "식품/음료", "telephone": "031-317-3636", "longitude": "126.77473927", "latitude": "37.443910551"}, {"name": "고구려통닭", "category": "food", "outputcat": "식품/음료", "telephone": "031-311-8292", "longitude": "126.8031905", "latitude": "37.436537796"}, {"name": "고기곳간", "category": "othershop", "outputcat": "기타판매", "telephone": "031-319-8386", "longitude": "126.71353373", "latitude": "37.362442842"}, {"name": "고기나라", "category": "othershop", "outputcat": "기타판매", "telephone": "031-313-3149", "longitude": "126.81260808", "latitude": "37.416578091"}, {"name": "고기나라", "category": "food", "outputcat": "식품/음료", "telephone": "031-317-6555", "longitude": "126.78504577", "latitude": "37.377390762"}, {"name": "고기나라", "category": "othershop", "outputcat": "기타판매", "telephone": "031-317-2232", "longitude": "126.78285327", "latitude": "37.378134542"}, {"name": "고기나라", "category": "food", "outputcat": "식품/음료", "telephone": "031-312-8032", "longitude": "126.79535263", "latitude": "37.431073234"}, {"name": "고기나라", "category": "othershop", "outputcat": "기타판매", "telephone": "031-318-8311", "longitude": "126.80174281", "latitude": "37.382132621"}, {"name": "고기더고기", "category": "food", "outputcat": "식품/음료", "telephone": "031-491-9233", "longitude": "126.78410988", "latitude": "37.345862601"}, {"name": "고기마루", "category": "othershop", "outputcat": "기타판매", "telephone": "031-435-8211", "longitude": "126.78393746", "latitude": "37.378028433"}, {"name": "고기명장", "category": "othershop", "outputcat": "기타판매", "telephone": "031-319-8945", "longitude": "126.73116619", "latitude": "37.356051433"}, {"name": "고기사랑", "category": "food", "outputcat": "식품/음료", "telephone": "031-435-5551", "longitude": "126.81083393", "latitude": "37.416827503"}, {"name": "고기와 면", "category": "food", "outputcat": "식품/음료", "telephone": "031-318-6696", "longitude": "126.80085409", "latitude": "37.380914742"}, {"name": "고기원칙 시흥은계점", "category": "food", "outputcat": "식품/음료", "longitude": "126.80339212", "latitude": "37.437204878"}, {"name": "고기장사 배큰축산", "category": "othershop", "outputcat": "기타판매", "telephone": "031-311-9939", "longitude": "126.80369637", "latitude": "37.441782476"}, {"name": "고기장사배큰축산", "category": "othershop", "outputcat": "기타판매", "longitude": "126.79755064", "latitude": "37.445375961"}, {"name": "고기천국", "category": "othershop", "outputcat": "기타판매", "telephone": "031-311-2256", "longitude": "126.78352067", "latitude": "37.439683463"}, {"name": "고기청정", "category": "food", "outputcat": "식품/음료", "telephone": "031-433-2240", "longitude": "126.72927888", "latitude": "37.369138781"}, {"name": "고기파는 사람들", "category": "othershop", "outputcat": "기타판매", "telephone": "031-312-8288", "longitude": "126.81401683", "latitude": "37.390883639"}, {"name": "고기한판", "category": "food", "outputcat": "식품/음료", "telephone": "031-497-9228", "longitude": "126.73022329", "latitude": "37.363969159"}, {"name": "고래 노래연습장", "category": "other", "outputcat": "개인서비스업", "longitude": "126.78610101", "latitude": "37.442211025"}, {"name": "고래 동물병원", "category": "med", "outputcat": "의료", "longitude": "126.80218249", "latitude": "37.43742808"}, {"name": "고래식당", "category": "food", "outputcat": "식품/음료", "telephone": "031-365-5656", "longitude": "126.73003263", "latitude": "37.369861331"}, {"name": "고려기계산업", "category": "othershop", "outputcat": "기타판매", "telephone": "031-313-3877", "longitude": "126.76844214", "latitude": "37.419463063"}, {"name": "고려왕족발", "category": "food", "outputcat": "식품/음료", "telephone": "031-503-3263", "longitude": "126.80168848", "latitude": "37.398242562"}, {"name": "고려종합포장", "category": "othershop", "outputcat": "기타판매", "telephone": "031-430-1874~5", "longitude": "126.72382889", "latitude": "37.337932985"}, {"name": "고려칼라매치", "category": "other", "outputcat": "개인서비스업", "telephone": "031-319-3658", "longitude": "126.74653128", "latitude": "37.348445134"}, {"name": "고릴라호프광장", "category": "food", "outputcat": "식품/음료", "telephone": "031-311-0883", "longitude": "126.81060608", "latitude": "37.368947552"}, {"name": "고명연탄", "category": "othershop", "outputcat": "기타판매", "telephone": "031-313-4011", "longitude": "126.77655444", "latitude": "37.437796248"}, {"name": "고바우숯불갈비", "category": "food", "outputcat": "식품/음료", "telephone": "031-405-2621", "longitude": "126.86210146", "latitude": "37.383940804"}, {"name": "고백(GOBAKE)", "category": "food", "outputcat": "식품/음료", "telephone": "031-503-5004", "longitude": "126.8604023", "latitude": "37.380857313"}, {"name": "고봉민김밥대야점", "category": "food", "outputcat": "식품/음료", "telephone": "031-314-1325", "longitude": "126.79071803", "latitude": "37.443877243"}, {"name": "고선미순대국", "category": "food", "outputcat": "식품/음료", "telephone": "031-491-5253", "longitude": "126.78427005", "latitude": "37.345115054"}, {"name": "고수컷", "category": "other", "outputcat": "개인서비스업", "longitude": "126.85126267", "latitude": "37.377890633"}, {"name": "고수케이크", "category": "food", "outputcat": "식품/음료", "longitude": "126.85126267", "latitude": "37.377890633"}, {"name": "고수학교습소", "category": "edu", "outputcat": "교육", "longitude": "126.80218249", "latitude": "37.43742808"}, {"name": "고은이부자리", "category": "othershop", "outputcat": "기타판매", "longitude": "126.78629503", "latitude": "37.445463991"}, {"name": "고주남스테이크", "category": "food", "outputcat": "식품/음료", "telephone": "070-7818-8118", "longitude": "126.73069404", "latitude": "37.368024793"}, {"name": "고프리 오이도점", "category": "othershop", "outputcat": "기타판매", "telephone": "031-434-0205", "longitude": "126.68869704", "latitude": "37.346891086"}, {"name": "고향감자탕", "category": "food", "outputcat": "식품/음료", "telephone": "031-318-0311", "longitude": "126.73882769", "latitude": "37.388964667"}, {"name": "고향산천", "category": "food", "outputcat": "식품/음료", "longitude": "126.78374472", "latitude": "37.440350619"}, {"name": "고향슈퍼", "category": "othershop", "outputcat": "기타판매", "telephone": "031-403-1812", "longitude": "126.85924248", "latitude": "37.385135709"}, {"name": "고향참우마을", "category": "food", "outputcat": "식품/음료", "telephone": "031-319-5529", "longitude": "126.74288883", "latitude": "37.354140601"}, {"name": "고향회마을", "category": "food", "outputcat": "식품/음료", "telephone": "031-318-9979", "longitude": "126.73875137", "latitude": "37.388189629"}, {"name": "고현주 마술가위", "category": "other", "outputcat": "개인서비스업", "telephone": "031-319-8981", "longitude": "126.73285931", "latitude": "37.34658566"}, {"name": "고흥수산", "category": "othershop", "outputcat": "기타판매", "telephone": "031-318-8959", "longitude": "126.78099428", "latitude": "37.438074966"}, {"name": "곤봉식객", "category": "food", "outputcat": "식품/음료", "telephone": "031-317-3634", "longitude": "126.79266127", "latitude": "37.439988394"}, {"name": "곤지암한우소머리국밥 오이도점", "category": "food", "outputcat": "식품/음료", "telephone": "031-319-2787", "longitude": "126.68936674", "latitude": "37.343252769"}, {"name": "곤지암할매소머리국밥 배곧신도시점", "category": "food", "outputcat": "식품/음료", "longitude": "126.72686525", "latitude": "37.377773858"}, {"name": "골드방앗간", "category": "other", "outputcat": "제조업", "telephone": "031-432-3632", "longitude": "126.73116619", "latitude": "37.356051433"}, {"name": "골드축산", "category": "othershop", "outputcat": "기타판매", "telephone": "031-311-8117", "longitude": "126.78416328", "latitude": "37.440189214"}, {"name": "골드클래스공인중개사사무소", "category": "other", "outputcat": "개인서비스업", "telephone": "031-497-9900", "longitude": "126.73244877", "latitude": "37.376083849"}, {"name": "골드할인마트", "category": "othershop", "outputcat": "기타판매", "telephone": "031-496-9464", "longitude": "126.75163912", "latitude": "37.34647386"}, {"name": "골드헤어", "category": "other", "outputcat": "개인서비스업", "telephone": "031-493-7085", "longitude": "126.73424986", "latitude": "37.374412075"}, {"name": "골든농산", "category": "othershop", "outputcat": "기타판매", "telephone": "031-311-0218", "longitude": "126.78302153", "latitude": "37.440349276"}, {"name": "골든벨독서실", "category": "other", "outputcat": "개인서비스업", "telephone": "031-435-9012", "longitude": "126.78685898", "latitude": "37.378970856"}, {"name": "골든헬스클럽", "category": "other", "outputcat": "스포츠및여가관련서비스업", "telephone": "031-484-1022", "longitude": "126.86017861", "latitude": "37.385695469"}, {"name": "골목길우리식당", "category": "food", "outputcat": "식품/음료", "longitude": "126.7810231", "latitude": "37.439795932"}, {"name": "골목탕탕", "category": "food", "outputcat": "식품/음료", "telephone": "031-194-3624", "longitude": "126.78476932", "latitude": "37.340277522"}, {"name": "골뱅이서식지", "category": "food", "outputcat": "식품/음료", "longitude": "126.72838466", "latitude": "37.36669497"}, {"name": "골프존파크정왕중앙배곧점", "category": "other", "outputcat": "개인서비스업", "longitude": "126.72838466", "latitude": "37.36669497"}, {"name": "골프카페 정원스크린", "category": "other", "outputcat": "스포츠및여가관련서비스업", "longitude": "126.72853409", "latitude": "37.362857009"}, {"name": "곱순네순대국", "category": "food", "outputcat": "식품/음료", "telephone": "031-413-9898", "longitude": "126.86210146", "latitude": "37.383940804"}, {"name": "곱창맛집1977", "category": "food", "outputcat": "식품/음료", "telephone": "031-432-5382", "longitude": "126.73264201", "latitude": "37.347387066"}, {"name": "곱창박사", "category": "food", "outputcat": "식품/음료", "telephone": "031-433-8188", "longitude": "126.73269293", "latitude": "37.345774367"}, {"name": "곱창부대", "category": "food", "outputcat": "식품/음료", "longitude": "126.86301884", "latitude": "37.382446215"}, {"name": "곱창연가", "category": "food", "outputcat": "식품/음료", "telephone": "031-317-0148", "longitude": "126.81380157", "latitude": "37.391162608"}, {"name": "곱창이야기", "category": "food", "outputcat": "식품/음료", "telephone": "031-319-0792", "longitude": "126.72972623", "latitude": "37.370302119"}, {"name": "공간수족관", "category": "othershop", "outputcat": "기타판매", "telephone": "031-498-3892", "longitude": "126.73222307", "latitude": "37.357198142"}, {"name": "공구백화점", "category": "othershop", "outputcat": "기타판매", "telephone": "031-314-0948", "longitude": "126.79002394", "latitude": "37.417629802"}, {"name": "공방에서한끼를", "category": "food", "outputcat": "식품/음료", "telephone": "031-314-8401", "longitude": "126.740162", "latitude": "37.388436044"}, {"name": "공부다이어리학원", "category": "edu", "outputcat": "교육", "telephone": "031-365-4250", "longitude": "126.734523", "latitude": "37.373800009"}, {"name": "공원식당", "category": "food", "outputcat": "식품/음료", "telephone": "031-317-0464", "longitude": "126.78349535", "latitude": "37.378640301"}, {"name": "공임나라", "category": "other", "outputcat": "개인서비스업", "telephone": "031-319-1225", "longitude": "126.74733408", "latitude": "37.348005374"}, {"name": "공주밤빵 왕자커피", "category": "food", "outputcat": "식품/음료", "telephone": "031-318-1118", "longitude": "126.81016304", "latitude": "37.370028046"}, {"name": "공주자동차정비공업사", "category": "other", "outputcat": "개인서비스업", "telephone": "031-312-6655", "longitude": "126.79098746", "latitude": "37.448517876"}, {"name": "공터우리학원", "category": "edu", "outputcat": "교육", "telephone": "031-365-5509", "longitude": "126.78507797", "latitude": "37.377967468"}, {"name": "과림매운탕", "category": "food", "outputcat": "식품/음료", "telephone": "02-2684-9767", "longitude": "126.82926745", "latitude": "37.451932025"}, {"name": "과림할인마트2", "category": "othershop", "outputcat": "기타판매", "telephone": "031-317-0102", "longitude": "126.83915755", "latitude": "37.41505009"}, {"name": "과수원길", "category": "food", "outputcat": "식품/음료", "telephone": "031-403-9182", "longitude": "126.86235184", "latitude": "37.382886919"}, {"name": "과일촌", "category": "othershop", "outputcat": "기타판매", "telephone": "031-311-0013", "longitude": "126.78307776", "latitude": "37.378585465"}, {"name": "곽두리 쪽갈비", "category": "food", "outputcat": "식품/음료", "telephone": "031-431-4109", "longitude": "126.7477788", "latitude": "37.336644535"}, {"name": "곽만근갈비탕 시흥점", "category": "food", "outputcat": "식품/음료", "telephone": "031-435-4500", "longitude": "126.80932713", "latitude": "37.370224903"}, {"name": "관곡지약국", "category": "med", "outputcat": "의료", "telephone": "031-435-3445", "longitude": "126.80054559", "latitude": "37.399078548"}, {"name": "관곡지연근농장", "category": "othershop", "outputcat": "기타판매", "telephone": "031-404-7578", "latitude": "37.399940459", "longitude": "126.80948791"}, {"name": "광덕", "category": "othershop", "outputcat": "기타판매", "telephone": "031-432-4224", "longitude": "126.73655284", "latitude": "37.329727023"}, {"name": "광륜방앗간", "category": "other", "outputcat": "제조업", "telephone": "031-494-0787", "longitude": "126.78364116", "latitude": "37.340167315"}, {"name": "광명생숯불갈비", "category": "food", "outputcat": "식품/음료", "longitude": "126.7870173", "latitude": "37.437932949"}, {"name": "광수낙지마당", "category": "food", "outputcat": "식품/음료", "telephone": "031-499-8080", "longitude": "126.74705419", "latitude": "37.347338019"}, {"name": "광수네온족발", "category": "food", "outputcat": "식품/음료", "telephone": "031-414-4996", "longitude": "126.85915855", "latitude": "37.387694475"}, {"name": "광안시장박고지김밥", "category": "food", "outputcat": "식품/음료", "telephone": "031-499-5893", "longitude": "126.72711769", "latitude": "37.376666205"}, {"name": "광일호수산", "category": "othershop", "outputcat": "기타판매", "longitude": "126.68817124", "latitude": "37.345781443"}, {"name": "광진마님네 다육", "category": "othershop", "outputcat": "기타판매", "longitude": "126.77697369", "latitude": "37.350858831"}, {"name": "광천그릇탑주방산업", "category": "othershop", "outputcat": "기타판매", "telephone": "031-319-1444", "longitude": "126.74561662", "latitude": "37.341973864"}, {"name": "교동짬뽕", "category": "food", "outputcat": "식품/음료", "telephone": "031-311-0597", "longitude": "126.7850534", "latitude": "37.441073839"}, {"name": "교촌치킨", "category": "food", "outputcat": "식품/음료", "telephone": "031-486-1991", "longitude": "126.86252111", "latitude": "37.382941181"}, {"name": "교촌치킨배곧신도시1호점", "category": "food", "outputcat": "식품/음료", "telephone": "031-433-1992", "longitude": "126.72658236", "latitude": "37.377944389"}, {"name": "교화", "category": "food", "outputcat": "식품/음료", "telephone": "031-496-0805", "longitude": "126.7253046", "latitude": "37.378472992"}, {"name": "구노포차", "category": "food", "outputcat": "식품/음료", "telephone": "031-311-1540", "longitude": "126.81148812", "latitude": "37.368363325"}, {"name": "구들짱삼겹살", "category": "food", "outputcat": "식품/음료", "telephone": "031-404-3531", "longitude": "126.7904393", "latitude": "37.442543262"}, {"name": "구례골남원추어탕", "category": "food", "outputcat": "식품/음료", "telephone": "031-315-3855", "longitude": "126.7870443", "latitude": "37.456070121"}, {"name": "구슬치기", "category": "other", "outputcat": "개인서비스업", "telephone": "070-8817-6101", "longitude": "126.74332856", "latitude": "37.35099703"}, {"name": "구어조은닭", "category": "food", "outputcat": "식품/음료", "telephone": "031-319-9239", "longitude": "126.73283922", "latitude": "37.345891833"}, {"name": "구어조은닭", "category": "food", "outputcat": "식품/음료", "telephone": "031-313-4502", "longitude": "126.78686026", "latitude": "37.441464585"}, {"name": "구워더존치킨은계점", "category": "food", "outputcat": "식품/음료", "telephone": "070-7543-9254", "longitude": "126.80248442", "latitude": "37.434374197"}, {"name": "구원헤어 (9one헤어)", "category": "other", "outputcat": "개인서비스업", "telephone": "031-499-1788", "longitude": "126.71353373", "latitude": "37.362442842"}, {"name": "구이가", "category": "food", "outputcat": "식품/음료", "telephone": "031-497-3757", "longitude": "126.74325432", "latitude": "37.352888995"}, {"name": "국가대표 과일촌 목감점", "category": "othershop", "outputcat": "기타판매", "longitude": "126.84818302", "latitude": "37.376607209"}, {"name": "국가대표 태권스쿨(점핑클럽)", "category": "edu", "outputcat": "교육", "telephone": "031-432-8801", "longitude": "126.73019214", "latitude": "37.363221248"}, {"name": "국가대표부부태권스쿨", "category": "edu", "outputcat": "교육", "telephone": "031-318-3336", "longitude": "126.77830113", "latitude": "37.439376331"}, {"name": "국가대표줄넘기클럽YJR", "category": "edu", "outputcat": "교육", "telephone": "031-497-0160", "longitude": "126.72711769", "latitude": "37.376666205"}, {"name": "국검검도관", "category": "edu", "outputcat": "교육", "telephone": "031-404-4540", "longitude": "126.80988218", "latitude": "37.36949599"}, {"name": "국민생고기", "category": "food", "outputcat": "식품/음료", "telephone": "031-503-3529", "longitude": "126.78522256", "latitude": "37.378724583"}, {"name": "국민정육점식당", "category": "food", "outputcat": "식품/음료", "telephone": "031-480-4423", "longitude": "126.79952496", "latitude": "37.40063554"}, {"name": "국민축산유통", "category": "othershop", "outputcat": "기타판매", "telephone": "031-480-4423", "longitude": "126.79952496", "latitude": "37.40063554"}, {"name": "국사랑", "category": "othershop", "outputcat": "기타판매", "telephone": "031-312-9453", "longitude": "126.79276558", "latitude": "37.443097031"}, {"name": "국선생", "category": "othershop", "outputcat": "기타판매", "telephone": "031-431-9991", "longitude": "126.71353373", "latitude": "37.362442842"}, {"name": "국선생배곧신도시점", "category": "othershop", "outputcat": "기타판매", "telephone": "031-432-7455", "longitude": "126.73424986", "latitude": "37.374412075"}, {"name": "국수나무", "category": "food", "outputcat": "식품/음료", "telephone": "031-509-8595", "longitude": "126.80091279", "latitude": "37.380076903"}, {"name": "국수나무 목감점", "category": "food", "outputcat": "식품/음료", "telephone": "031-481-9766", "longitude": "126.86037783", "latitude": "37.381857405"}, {"name": "국수나무 시흥신세계아울렛점", "category": "food", "outputcat": "식품/음료", "telephone": "031-431-2480", "longitude": "126.73532864", "latitude": "37.382190231"}, {"name": "국수나무 시흥은계점", "category": "food", "outputcat": "식품/음료", "longitude": "126.80394757", "latitude": "37.436530063"}, {"name": "국수나무 장곡점", "category": "food", "outputcat": "식품/음료", "telephone": "031-503-2345", "longitude": "126.78435528", "latitude": "37.378002176"}, {"name": "국수나무시흥능곡점", "category": "food", "outputcat": "식품/음료", "telephone": "031-315-9959", "longitude": "126.81254816", "latitude": "37.368806531"}, {"name": "국제사관학교", "category": "edu", "outputcat": "교육", "telephone": "031-497-1444", "longitude": "126.73019214", "latitude": "37.363221248"}, {"name": "군산바다횟집", "category": "food", "outputcat": "식품/음료", "longitude": "126.74144349", "latitude": "37.38685311"}, {"name": "군산신가네수산", "category": "food", "outputcat": "식품/음료", "longitude": "126.74061628", "latitude": "37.387689216"}, {"name": "군자공인중개사사무소", "category": "other", "outputcat": "개인서비스업", "telephone": "031-492-4400", "longitude": "126.78410988", "latitude": "37.345862601"}, {"name": "군자당구장", "category": "other", "outputcat": "개인서비스업", "longitude": "126.78391836", "latitude": "37.341861738"}, {"name": "군자떡방앗간", "category": "other", "outputcat": "제조업", "telephone": "031-432-6093", "longitude": "126.77277933", "latitude": "37.356887538"}, {"name": "군자원예원", "category": "othershop", "outputcat": "기타판매", "longitude": "126.77697369", "latitude": "37.350858831"}, {"name": "군자종묘", "category": "othershop", "outputcat": "기타판매", "telephone": "031-494-5100", "longitude": "126.78391351", "latitude": "37.33964523"}, {"name": "군자종합철물건재", "category": "other", "outputcat": "제조업", "telephone": "031-433-6765", "longitude": "126.78407627", "latitude": "37.353557203"}, {"name": "군자카모터스", "category": "other", "outputcat": "개인서비스업", "telephone": "031-433-0870", "longitude": "126.7540034", "latitude": "37.337946244"}, {"name": "굴세상", "category": "food", "outputcat": "식품/음료", "telephone": "031-312-8900", "longitude": "126.78221311", "latitude": "37.442438091"}, {"name": "굽네치킨 목감점", "category": "food", "outputcat": "식품/음료", "telephone": "031-411-3607", "longitude": "126.86037783", "latitude": "37.381857405"}, {"name": "굽네치킨 배곧신도시점", "category": "food", "outputcat": "식품/음료", "telephone": "031-431-9294", "longitude": "126.72711769", "latitude": "37.376666205"}, {"name": "굽네치킨 배곧캠퍼스점", "category": "food", "outputcat": "식품/음료", "telephone": "031-503-9494", "longitude": "126.71317165", "latitude": "37.362667209"}, {"name": "굽는삼계탕식료찬미", "category": "food", "outputcat": "식품/음료", "telephone": "031-433-5736", "longitude": "126.76547025", "latitude": "37.376776441"}, {"name": "굿 아이스크림", "category": "othershop", "outputcat": "기타판매", "longitude": "126.81127165", "latitude": "37.369137845"}, {"name": "굿데이25", "category": "othershop", "outputcat": "기타판매", "telephone": "031-431-9892", "longitude": "126.73841794", "latitude": "37.344859259"}, {"name": "굿마트", "category": "othershop", "outputcat": "기타판매", "telephone": "031-404-3848", "longitude": "126.80121457", "latitude": "37.381221701"}, {"name": "굿모닝마트", "category": "othershop", "outputcat": "기타판매", "telephone": "031-433-0331", "longitude": "126.74855078", "latitude": "37.338610411"}, {"name": "굿모닝온누리약국", "category": "med", "outputcat": "의료", "telephone": "031-317-7571", "longitude": "126.81221175", "latitude": "37.367913988"}, {"name": "굿모닝할인마트", "category": "othershop", "outputcat": "기타판매", "telephone": "031-494-6141", "longitude": "126.78457541", "latitude": "37.344890365"}, {"name": "굿샘학원", "category": "edu", "outputcat": "교육", "telephone": "031-404-3579", "longitude": "126.78060188", "latitude": "37.37968908"}, {"name": "굿샵 배곧신도시 베니스스퀘어점", "category": "othershop", "outputcat": "기타판매", "telephone": "031-433-6990", "longitude": "126.73069404", "latitude": "37.368024793"}, {"name": "굿샵시흥대야점", "category": "othershop", "outputcat": "기타판매", "telephone": "031-311-3177", "longitude": "126.79932528", "latitude": "37.44520784"}, {"name": "굿타임 숯불바베큐치킨", "category": "food", "outputcat": "식품/음료", "telephone": "031-498-9800", "longitude": "126.72522927", "latitude": "37.349892739"}, {"name": "궁궐 닭갈비", "category": "food", "outputcat": "식품/음료", "telephone": "031-434-5292", "longitude": "126.73022329", "latitude": "37.363969159"}, {"name": "궁스크린골프존", "category": "other", "outputcat": "스포츠및여가관련서비스업", "telephone": "031-433-0753", "longitude": "126.7290032", "latitude": "37.370444608"}, {"name": "궁전노래연습장", "category": "other", "outputcat": "개인서비스업", "telephone": "031-491-4988", "longitude": "126.7847242", "latitude": "37.344169827"}, {"name": "궁전차이나", "category": "food", "outputcat": "식품/음료", "telephone": "031-404-8867", "longitude": "126.81067483", "latitude": "37.368551219"}, {"name": "궁중삼계탕", "category": "food", "outputcat": "식품/음료", "telephone": "031-498-3380", "longitude": "126.73069404", "latitude": "37.368024793"}, {"name": "권지헤어", "category": "other", "outputcat": "개인서비스업", "longitude": "126.77730212", "latitude": "37.437157967"}, {"name": "귀한과일", "category": "othershop", "outputcat": "기타판매", "longitude": "126.80427003", "latitude": "37.391444316"}, {"name": "그냥", "category": "food", "outputcat": "식품/음료"}, {"name": "그때 그감자탕", "category": "food", "outputcat": "식품/음료", "telephone": "031-313-1331", "longitude": "126.81754384", "latitude": "37.453518"}, {"name": "그래여기가좋겠네", "category": "food", "outputcat": "식품/음료", "telephone": "031-435-3337", "longitude": "126.78744124", "latitude": "37.443772206"}, {"name": "그랜드마트", "category": "othershop", "outputcat": "기타판매", "telephone": "031-432-7735", "longitude": "126.72352594", "latitude": "37.355745314"}, {"name": "그랜드음악학원", "category": "edu", "outputcat": "교육", "telephone": "031-435-0722", "longitude": "126.74238928", "latitude": "37.387639074"}, {"name": "그램그램 배곧점", "category": "food", "outputcat": "식품/음료", "telephone": "031-433-0092", "longitude": "126.72972623", "latitude": "37.370302119"}, {"name": "그린건강원", "category": "othershop", "outputcat": "기타판매", "telephone": "031-312-2211", "longitude": "126.78710587", "latitude": "37.446438554"}, {"name": "그린공인중개사사무소", "category": "other", "outputcat": "개인서비스업", "telephone": "031-318-3600", "longitude": "126.79045664", "latitude": "37.436407478"}, {"name": "그린디자인", "category": "other", "outputcat": "제조업", "longitude": "126.78851628", "latitude": "37.443242571"}, {"name": "그린마트", "category": "othershop", "outputcat": "기타판매", "telephone": "031-317-8984", "longitude": "126.83920861", "latitude": "37.391578926"}, {"name": "그린마트", "category": "othershop", "outputcat": "기타판매", "telephone": "031-311-3006", "longitude": "126.76893885", "latitude": "37.419572167"}, {"name": "그린마트", "category": "othershop", "outputcat": "기타판매", "telephone": "031-404-2441", "longitude": "126.78310511", "latitude": "37.442683023"}, {"name": "그린모터스", "category": "other", "outputcat": "개인서비스업", "telephone": "031-501-8855", "longitude": "126.81599582", "latitude": "37.362441871"}, {"name": "그린슈퍼", "category": "othershop", "outputcat": "기타판매"}, {"name": "그린할인마트", "category": "othershop", "outputcat": "기타판매", "telephone": "031-314-0270", "longitude": "126.78863347", "latitude": "37.445738553"}, {"name": "그릴래키즈브라운영어미술학원", "category": "edu", "outputcat": "교육", "telephone": "031-499-4834", "longitude": "126.7298301", "latitude": "37.363445666"}, {"name": "그릴룸", "category": "food", "outputcat": "식품/음료", "telephone": "070-7766-5614", "longitude": "126.73003263", "latitude": "37.369861331"}, {"name": "그림일기", "category": "food", "outputcat": "식품/음료", "longitude": "126.73680786", "latitude": "37.388554686"}, {"name": "그집냉면", "category": "food", "outputcat": "식품/음료", "telephone": "031-498-0309", "longitude": "126.74103172", "latitude": "37.349388164"}, {"name": "근린원예조경", "category": "othershop", "outputcat": "기타판매", "telephone": "031-413-6578", "latitude": "37.379525172", "longitude": "126.85418366"}, {"name": "글라스박스안경원", "category": "othershop", "outputcat": "기타판매", "telephone": "031-405-5555", "longitude": "126.81135343", "latitude": "37.368056763"}, {"name": "글라스스토리", "category": "othershop", "outputcat": "기타판매", "telephone": "031-493-6960", "longitude": "126.740162", "latitude": "37.388436044"}, {"name": "글라스스토리 시흥거모점", "category": "othershop", "outputcat": "기타판매", "telephone": "031-495-8123", "longitude": "126.78411198", "latitude": "37.341249406"}, {"name": "글라스스토리 신천점", "category": "othershop", "outputcat": "기타판매", "telephone": "031-317-3322", "longitude": "126.78509964", "latitude": "37.440713524"}, {"name": "글라스스토리(배곧신도시점)", "category": "othershop", "outputcat": "기타판매", "telephone": "031-433-0880", "longitude": "126.73003263", "latitude": "37.369861331"}, {"name": "글라스토리 목감점", "category": "othershop", "outputcat": "기타판매", "telephone": "031-411-9008", "longitude": "126.86170965", "latitude": "37.382138316"}, {"name": "글로리 음악학원", "category": "edu", "outputcat": "교육", "telephone": "031-312-3972", "longitude": "126.7961557", "latitude": "37.443075979"}, {"name": "글로벌외국어학원", "category": "edu", "outputcat": "교육", "telephone": "031-313-6969", "longitude": "126.73764273", "latitude": "37.343866408"}, {"name": "글로우 네일", "category": "other", "outputcat": "개인서비스업", "longitude": "126.72833229", "latitude": "37.377966484"}, {"name": "글리솝", "category": "other", "outputcat": "개인서비스업", "longitude": "126.72878569", "latitude": "37.3588571"}, {"name": "금강공인중개소", "category": "other", "outputcat": "개인서비스업", "telephone": "031-488-8949", "longitude": "126.73516983", "latitude": "37.388749211"}, {"name": "금강마트", "category": "othershop", "outputcat": "기타판매"}, {"name": "금강산", "category": "othershop", "outputcat": "기타판매", "longitude": "126.68817124", "latitude": "37.345781443"}, {"name": "금강열쇠", "category": "other", "outputcat": "개인서비스업", "telephone": "031-493-0105", "longitude": "126.7838059", "latitude": "37.341726378"}, {"name": "금강정비세차", "category": "other", "outputcat": "개인서비스업", "telephone": "031-433-2244", "longitude": "126.74847556", "latitude": "37.347530297"}, {"name": "금강태권도 효 교육관", "category": "edu", "outputcat": "교육", "telephone": "031-403-6066", "longitude": "126.86037783", "latitude": "37.381857405"}, {"name": "금광제주흑돼지", "category": "food", "outputcat": "식품/음료", "telephone": "031-494-5295", "longitude": "126.78347351", "latitude": "37.347366118"}, {"name": "금두꺼비", "category": "food", "outputcat": "식품/음료", "telephone": "031-315-6330", "longitude": "126.7373884", "latitude": "37.390439097"}, {"name": "금두꺼비식당", "category": "food", "outputcat": "식품/음료", "telephone": "070-8111-8592", "longitude": "126.74333516", "latitude": "37.352357575"}, {"name": "금메달문구서점", "category": "othershop", "outputcat": "기타판매", "telephone": "031-313-1330", "longitude": "126.78388366", "latitude": "37.435323291"}, {"name": "금메달보습학원", "category": "edu", "outputcat": "교육", "telephone": "031-498-3726", "longitude": "126.75308664", "latitude": "37.345584921"}, {"name": "금메달태권도", "category": "edu", "outputcat": "교육", "telephone": "031-493-3123", "longitude": "126.78302799", "latitude": "37.345338007"}, {"name": "금메달태권도장", "category": "edu", "outputcat": "교육", "telephone": "031-432-3726", "longitude": "126.75044146", "latitude": "37.346885778"}, {"name": "금모래태권도 효교육관", "category": "edu", "outputcat": "교육", "telephone": "031-404-9981", "longitude": "126.79365742", "latitude": "37.43935045"}, {"name": "금산가든", "category": "food", "outputcat": "식품/음료", "telephone": "031-499-8852", "longitude": "126.6883433", "latitude": "37.34511515"}, {"name": "금산목재", "category": "other", "outputcat": "제조업", "longitude": "126.79146863", "latitude": "37.450212616"}, {"name": "금산청과", "category": "othershop", "outputcat": "기타판매", "telephone": "031-431-8688", "longitude": "126.68912146", "latitude": "37.342531308"}, {"name": "금산홍삼건강원", "category": "other", "outputcat": "제조업", "telephone": "031-311-3203", "longitude": "126.77996735", "latitude": "37.437631544"}, {"name": "금산횟집", "category": "food", "outputcat": "식품/음료", "longitude": "126.74088766", "latitude": "37.387581696"}, {"name": "금잔디미용실", "category": "other", "outputcat": "개인서비스업", "longitude": "126.79063577", "latitude": "37.432993004"}, {"name": "금태령숯불구이", "category": "food", "outputcat": "식품/음료", "telephone": "031-404-7566", "longitude": "126.77935397", "latitude": "37.438711586"}, {"name": "금호공구철물", "category": "othershop", "outputcat": "기타판매", "telephone": "031-314-6070", "longitude": "126.81438559", "latitude": "37.423996202"}, {"name": "금호그린마트", "category": "othershop", "outputcat": "기타판매"}, {"name": "금호세탁", "category": "other", "outputcat": "개인서비스업", "telephone": "031-317-0188", "longitude": "126.81329799", "latitude": "37.393828786"}, {"name": "기가찬족발보쌈", "category": "food", "outputcat": "식품/음료", "telephone": "031-499-4111", "longitude": "126.73097001", "latitude": "37.363502352"}, {"name": "기라성", "category": "food", "outputcat": "식품/음료", "telephone": "031-312-8212", "longitude": "126.78546998", "latitude": "37.441597186"}, {"name": "기분 좋은 날", "category": "othershop", "outputcat": "기타판매", "longitude": "126.72869368", "latitude": "37.377940293"}, {"name": "기분좋은안경", "category": "othershop", "outputcat": "기타판매", "telephone": "031-431-7007", "longitude": "126.74210914", "latitude": "37.35113851"}, {"name": "기성자동차공업사", "category": "other", "outputcat": "개인서비스업", "telephone": "031-312-7373", "longitude": "126.79709928", "latitude": "37.445131906"}, {"name": "기아오토큐 하중점", "category": "other", "outputcat": "개인서비스업", "telephone": "031-404-8581", "longitude": "126.80343459", "latitude": "37.395632598"}, {"name": "기예당구장", "category": "other", "outputcat": "스포츠및여가관련서비스업", "longitude": "126.75193929", "latitude": "37.344447215"}, {"name": "기운센장어 송어", "category": "food", "outputcat": "식품/음료", "telephone": "031-411-2232", "longitude": "126.8396514", "latitude": "37.385272473"}, {"name": "기찬고기", "category": "food", "outputcat": "식품/음료", "longitude": "126.73724619", "latitude": "37.344307015"}, {"name": "기택종합설비", "category": "othershop", "outputcat": "기타판매", "telephone": "031-312-1866", "longitude": "126.78821645", "latitude": "37.445350367"}, {"name": "기프트디자인", "category": "othershop", "outputcat": "기타판매", "telephone": "031-509-9191", "longitude": "126.71486463", "latitude": "37.350913135"}, {"name": "길마루", "category": "other", "outputcat": "기타", "longitude": "126.72686525", "latitude": "37.377773858"}, {"name": "길명화헤어클럽", "category": "other", "outputcat": "개인서비스업"}, {"name": "길문구", "category": "othershop", "outputcat": "기타판매"}, {"name": "길성유통", "category": "othershop", "outputcat": "기타판매", "longitude": "126.81060608", "latitude": "37.368947552"}, {"name": "길성이백숙", "category": "food", "outputcat": "식품/음료", "telephone": "031-482-5262", "longitude": "126.83862405", "latitude": "37.38518996"}, {"name": "김가네", "category": "food", "outputcat": "식품/음료", "telephone": "031-433-5656", "longitude": "126.73339161", "latitude": "37.374473194"}, {"name": "김가네김밥", "category": "food", "outputcat": "식품/음료", "telephone": "031-497-8749", "longitude": "126.73285931", "latitude": "37.34658566"}, {"name": "김가네낙지전문점", "category": "food", "outputcat": "식품/음료", "telephone": "031-317-0688", "longitude": "126.80110295", "latitude": "37.380743975"}, {"name": "김가닭강점5호점", "category": "food", "outputcat": "식품/음료", "longitude": "126.72860939", "latitude": "37.370083292"}, {"name": "김기현헤어센스", "category": "other", "outputcat": "개인서비스업", "longitude": "126.78676776", "latitude": "37.438265863"}, {"name": "김미경헤어라인", "category": "other", "outputcat": "개인서비스업", "longitude": "126.74333898", "latitude": "37.347969646"}, {"name": "김민정헤어샾", "category": "other", "outputcat": "개인서비스업"}, {"name": "김밥나라", "category": "food", "outputcat": "식품/음료", "telephone": "031-404-2325", "longitude": "126.78513288", "latitude": "37.378499165"}, {"name": "김밥나라", "category": "food", "outputcat": "식품/음료", "telephone": "031-406-0844", "longitude": "126.75086541", "latitude": "37.344976531"}, {"name": "김밥나라", "category": "food", "outputcat": "식품/음료", "telephone": "031-312-5891", "longitude": "126.79730286", "latitude": "37.44506919"}, {"name": "김밥속에단무지", "category": "food", "outputcat": "식품/음료", "telephone": "031-433-2989", "longitude": "126.73019214", "latitude": "37.363221248"}, {"name": "김밥지상낙원", "category": "food", "outputcat": "식품/음료", "telephone": "031-434-5955", "longitude": "126.74797027", "latitude": "37.336753069"}, {"name": "김밥참맛", "category": "food", "outputcat": "식품/음료", "longitude": "126.74705385", "latitude": "37.344112386"}, {"name": "김밥천국", "category": "food", "outputcat": "식품/음료", "telephone": "031-314-7929", "longitude": "126.79707044", "latitude": "37.439158222"}, {"name": "김밥천국", "category": "food", "outputcat": "식품/음료", "longitude": "126.72972623", "latitude": "37.370302119"}, {"name": "김밥천국", "category": "food", "outputcat": "식품/음료", "longitude": "126.73355968", "latitude": "37.340081931"}, {"name": "김밥천국", "category": "food", "outputcat": "식품/음료", "telephone": "031-319-1088", "longitude": "126.73003263", "latitude": "37.369861331"}, {"name": "김밥천국", "category": "food", "outputcat": "식품/음료", "telephone": "031-317-7955", "longitude": "126.80988218", "latitude": "37.36949599"}, {"name": "김밥천국 거모삼거리점", "category": "food", "outputcat": "식품/음료", "telephone": "031-405-3816", "longitude": "126.78513336", "latitude": "37.343170453"}, {"name": "김밥천국 거모점", "category": "food", "outputcat": "식품/음료", "longitude": "126.78286287", "latitude": "37.34777945"}, {"name": "김밥천국 시흥은계점", "category": "food", "outputcat": "식품/음료", "telephone": "031-313-9098", "longitude": "126.80218249", "latitude": "37.43742808"}, {"name": "김밥천국 정왕역", "category": "food", "outputcat": "식품/음료", "telephone": "031-434-6980", "longitude": "126.74286551", "latitude": "37.351086114"}, {"name": "김밥천국 포동점", "category": "food", "outputcat": "식품/음료", "telephone": "031-315-9992", "longitude": "126.78427078", "latitude": "37.407104576"}, {"name": "김밥천국매화", "category": "food", "outputcat": "식품/음료", "telephone": "031-316-6333", "longitude": "126.81377362", "latitude": "37.415769056"}, {"name": "김밥킹", "category": "food", "outputcat": "식품/음료", "telephone": "031-497-2468", "longitude": "126.7290032", "latitude": "37.370444608"}, {"name": "김밥풍경", "category": "food", "outputcat": "식품/음료", "telephone": "031-315-1755", "longitude": "126.79394023", "latitude": "37.431106786"}, {"name": "김밥하우스", "category": "food", "outputcat": "식품/음료", "telephone": "031-311-5495", "longitude": "126.79091173", "latitude": "37.447319411"}, {"name": "김부섭 수학학원", "category": "edu", "outputcat": "교육", "telephone": "031-312-2900", "longitude": "126.8116923", "latitude": "37.36797622"}, {"name": "김빈(베트남쌀국수)", "category": "food", "outputcat": "식품/음료", "telephone": "031-503-5881", "longitude": "126.73716456", "latitude": "37.345054674"}, {"name": "김사장 꼬꼬치킨", "category": "food", "outputcat": "식품/음료", "longitude": "126.79027074", "latitude": "37.442209589"}, {"name": "김순례 닭강정", "category": "food", "outputcat": "식품/음료", "telephone": "031-498-8244", "longitude": "126.71875303", "latitude": "37.36132923"}, {"name": "김쌤헤어", "category": "other", "outputcat": "개인서비스업", "longitude": "126.78474868", "latitude": "37.339610732"}, {"name": "김영란헤어샵", "category": "other", "outputcat": "개인서비스업", "longitude": "126.73116619", "latitude": "37.356051433"}, {"name": "김용순 전통식품", "category": "othershop", "outputcat": "기타판매", "telephone": "031-405-5604", "longitude": "126.85996354", "latitude": "37.385974522"}, {"name": "김은선 아트플라워", "category": "othershop", "outputcat": "기타판매", "telephone": "031-318-6447", "longitude": "126.78524899", "latitude": "37.377391137"}, {"name": "김정옥쌈밥", "category": "food", "outputcat": "식품/음료", "telephone": "031-315-7196", "longitude": "126.80988218", "latitude": "37.36949599"}, {"name": "김정은소아청소년과의원", "category": "med", "outputcat": "의료", "telephone": "031-362-6236", "longitude": "126.78371936", "latitude": "37.441296623"}, {"name": "김찬수안경원", "category": "othershop", "outputcat": "기타판매", "telephone": "031-312-8168", "longitude": "126.79766044", "latitude": "37.446547452"}, {"name": "김창규치과", "category": "med", "outputcat": "의료", "telephone": "031-316-2878", "longitude": "126.79276558", "latitude": "37.443097031"}, {"name": "김철헤어슈튜디오", "category": "other", "outputcat": "개인서비스업", "telephone": "031-495-1528", "longitude": "126.78302799", "latitude": "37.345338007"}, {"name": "김치", "category": "food", "outputcat": "식품/음료", "longitude": "126.68908742", "latitude": "37.348000369"}, {"name": "김치아시아마트", "category": "othershop", "outputcat": "기타판매", "longitude": "126.68925329", "latitude": "37.346108681"}, {"name": "김치찌개와삼겹살", "category": "food", "outputcat": "식품/음료", "telephone": "031-434-0395", "longitude": "126.72294775", "latitude": "37.353392304"}, {"name": "김프로부대찌개", "category": "food", "outputcat": "식품/음료", "telephone": "031-507-4007", "longitude": "126.79871647", "latitude": "37.44468421"}, {"name": "김혜숙헤어샵", "category": "other", "outputcat": "개인서비스업"}, {"name": "까까머리", "category": "other", "outputcat": "개인서비스업", "telephone": "031-432-4379", "longitude": "126.74291793", "latitude": "37.352248537"}, {"name": "까까보까", "category": "other", "outputcat": "개인서비스업", "telephone": "031-506-0903", "longitude": "126.72952433", "latitude": "37.382384189"}, {"name": "까망머리 미용실", "category": "other", "outputcat": "개인서비스업", "longitude": "126.78773856", "latitude": "37.442547387"}, {"name": "까사홈푸드", "category": "food", "outputcat": "식품/음료", "telephone": "031-314-9288", "longitude": "126.78433343", "latitude": "37.377749852"}, {"name": "까치공인중개사사무소", "category": "other", "outputcat": "개인서비스업", "telephone": "031-495-0335", "longitude": "126.78424272", "latitude": "37.346754852"}, {"name": "까치카센타", "category": "other", "outputcat": "개인서비스업", "telephone": "031-312-4546", "longitude": "126.77422096", "latitude": "37.435989755"}, {"name": "까페엘빈", "category": "food", "outputcat": "식품/음료", "telephone": "031-318-0005", "longitude": "126.73993933", "latitude": "37.393994764"}, {"name": "까페토스피아", "category": "food", "outputcat": "식품/음료", "telephone": "031-496-8595", "longitude": "126.73355968", "latitude": "37.340081931"}, {"name": "깐부치킨?시흥목감지구점", "category": "food", "outputcat": "식품/음료", "telephone": "031-485-9282", "longitude": "126.86070517", "latitude": "37.38191186"}, {"name": "깔롱당", "category": "food", "outputcat": "식품/음료", "longitude": "126.71875303", "latitude": "37.36132923"}, {"name": "깡돈", "category": "food", "outputcat": "식품/음료", "longitude": "126.80593945", "latitude": "37.392158905"}, {"name": "깨볶는부부", "category": "other", "outputcat": "제조업", "longitude": "126.78404989", "latitude": "37.339312107"}, {"name": "꼬꼬네일", "category": "other", "outputcat": "개인서비스업", "telephone": "031-432-5560", "longitude": "126.72574678", "latitude": "37.377969464"}, {"name": "꼬꼬씨숯불닭갈비", "category": "food", "outputcat": "식품/음료", "telephone": "070-4137-6942", "longitude": "126.78574292", "latitude": "37.440994017"}, {"name": "꼬꼬아찌숯불치킨", "category": "food", "outputcat": "식품/음료", "longitude": "126.7290032", "latitude": "37.370444608"}, {"name": "꼬꼬치킨", "category": "food", "outputcat": "식품/음료", "longitude": "126.73002897", "latitude": "37.35216545"}, {"name": "꼬끼오 숯불구이", "category": "food", "outputcat": "식품/음료", "telephone": "031-311-9259", "longitude": "126.78232796", "latitude": "37.437960332"}, {"name": "꼼꼼네일", "category": "other", "outputcat": "개인서비스업", "telephone": "031-401-1238", "longitude": "126.86056898", "latitude": "37.38228111"}, {"name": "꼼꼼스타일", "category": "other", "outputcat": "개인서비스업", "longitude": "126.78496216", "latitude": "37.44915564"}, {"name": "꽃갈피", "category": "othershop", "outputcat": "기타판매", "telephone": "031-434-0315", "longitude": "126.72702451", "latitude": "37.368196494"}, {"name": "꽃과나무가있는집", "category": "othershop", "outputcat": "기타판매", "telephone": "031-432-1593", "longitude": "126.73969462", "latitude": "37.35091692"}, {"name": "꽃나라", "category": "othershop", "outputcat": "기타판매", "telephone": "031-312-6562", "longitude": "126.79238314", "latitude": "37.44246565"}, {"name": "꽃나라", "category": "food", "outputcat": "식품/음료", "telephone": "031-433-2278", "longitude": "126.74697653", "latitude": "37.343616661"}, {"name": "꽃담", "category": "food", "outputcat": "식품/음료", "telephone": "031-491-8870", "longitude": "126.73819378", "latitude": "37.344417261"}, {"name": "꽃담은소&미소장어", "category": "food", "outputcat": "식품/음료", "telephone": "031-318-4716", "longitude": "126.77983244", "latitude": "37.441208262"}, {"name": "꽃담은소월곶점", "category": "food", "outputcat": "식품/음료", "telephone": "031-313-1126", "longitude": "126.73724707", "latitude": "37.388889046"}, {"name": "꽃뜨락", "category": "othershop", "outputcat": "기타판매", "telephone": "031-498-3450", "longitude": "126.73969462", "latitude": "37.35091692"}, {"name": "꽃므", "category": "othershop", "outputcat": "기타판매", "telephone": "031-520-4088", "longitude": "126.86056898", "latitude": "37.38228111"}, {"name": "꽃숲", "category": "othershop", "outputcat": "기타판매", "telephone": "031-496-9522", "longitude": "126.73736736", "latitude": "37.351560449"}, {"name": "꽃향기폴폴", "category": "othershop", "outputcat": "기타판매", "telephone": "031-317-1435", "longitude": "126.80043309", "latitude": "37.445074593"}, {"name": "꾸이꾸이", "category": "food", "outputcat": "식품/음료", "telephone": "031-435-9293", "longitude": "126.73724707", "latitude": "37.388889046"}, {"name": "꾹이네닭요리", "category": "food", "outputcat": "식품/음료", "telephone": "031-410-8215", "longitude": "126.8604023", "latitude": "37.380857313"}, {"name": "꾼떡", "category": "food", "outputcat": "식품/음료", "telephone": "031-318-5641", "longitude": "126.78477016", "latitude": "37.437433273"}, {"name": "꿀꿀할인마트", "category": "othershop", "outputcat": "기타판매", "telephone": "031-312-1109", "longitude": "126.78885632", "latitude": "37.446847187"}, {"name": "꿀당구", "category": "other", "outputcat": "스포츠및여가관련서비스업", "longitude": "126.79735056", "latitude": "37.444159263"}, {"name": "꿀돼지참한우", "category": "othershop", "outputcat": "기타판매", "longitude": "126.86017861", "latitude": "37.385695469"}, {"name": "꿀피부샵", "category": "other", "outputcat": "개인서비스업"}, {"name": "꿈꾸는다락방 커피디저트", "category": "food", "outputcat": "식품/음료", "longitude": "126.69019597", "latitude": "37.344669555"}, {"name": "꿈꾸는앤", "category": "other", "outputcat": "기타", "telephone": "031-404-5552", "longitude": "126.73622717", "latitude": "37.345250788"}, {"name": "꿈꾸는에이프런", "category": "othershop", "outputcat": "기타판매", "telephone": "031-312-9279", "longitude": "126.81296917", "latitude": "37.389881842"}, {"name": "꿈나무 피아노 음악교습소", "category": "edu", "outputcat": "교육", "telephone": "031-404-1567", "longitude": "126.80610803", "latitude": "37.392465528"}, {"name": "꿈나무소아청소년과", "category": "med", "outputcat": "의료", "telephone": "031-503-2288", "longitude": "126.7290032", "latitude": "37.370444608"}, {"name": "꿈드림 피아노 교습소", "category": "edu", "outputcat": "교육", "longitude": "126.71353373", "latitude": "37.362442842"}, {"name": "꿈의교실", "category": "edu", "outputcat": "교육", "longitude": "126.73019214", "latitude": "37.363221248"}, {"name": "꿈의궁전", "category": "trip", "outputcat": "숙박업", "telephone": "031-318-1919", "longitude": "126.74096765", "latitude": "37.390555199"}, {"name": "꿈의바다", "category": "food", "outputcat": "식품/음료", "telephone": "031-404-8883", "longitude": "126.73533208", "latitude": "37.387578268"}, {"name": "뀨로아상", "category": "food", "outputcat": "식품/음료", "telephone": "070-7766-4048", "longitude": "126.73069404", "latitude": "37.368024793"}, {"name": "나나돼지갈비", "category": "food", "outputcat": "식품/음료", "telephone": "031-432-8292", "longitude": "126.72375334", "latitude": "37.352249921"}, {"name": "나나수쌀롱", "category": "other", "outputcat": "개인서비스업", "telephone": "031-311-3614", "longitude": "126.79352119", "latitude": "37.431466446"}, {"name": "나나음악학원", "category": "edu", "outputcat": "교육", "telephone": "031-431-0153", "longitude": "126.72711769", "latitude": "37.376666205"}, {"name": "나노 갈매기", "category": "food", "outputcat": "식품/음료", "telephone": "031-319-6392", "longitude": "126.74188958", "latitude": "37.352615688"},