{"region": "uijeongbu", "data": [{"name": "#kpupstar 펫샵", "longitude": "127.09173164", "latitude": "37.744510583"}, {"name": "#김지영", "category": "other", "outputcat": "의류", "telephone": "031-852-8843", "longitude": "127.09658801", "latitude": "37.7447681"}, {"name": "#핵이쁨미용실", "category": "med", "outputcat": "의료", "telephone": "031-871-1662", "longitude": "127.0385393", "latitude": "37.738709486"}, {"name": "(동쭈)동두천쭈꾸미", "category": "food", "outputcat": "식품/음료", "telephone": "031-873-3131", "longitude": "127.05565342", "latitude": "37.730963848"}, {"name": "(범천)기획", "category": "other", "outputcat": "용역 서비스", "telephone": "031-871-2203", "longitude": "127.04479071", "latitude": "37.739266023"}, {"name": "(복)민락재단", "category": "med", "outputcat": "의료", "telephone": "031-851-5488", "longitude": "127.09478834", "latitude": "37.739102505"}, {"name": "(사)한국언어심리교육협회", "category": "other", "outputcat": "회원제형태", "telephone": "031-836-8036", "longitude": "11610"}, {"name": "(수)", "category": "other", "outputcat": "의류", "telephone": "031-852-5452", "longitude": "127.08926248", "latitude": "37.738403938"}, {"name": "(수)", "telephone": "031-1111-1111", "longitude": "127.07221082", "latitude": "37.750370877"}, {"name": "(신)삼일목재", "category": "other", "outputcat": "건축자재", "telephone": "031-847-0611", "longitude": "127.06440436", "latitude": "37.736824837"}, {"name": "(신)중앙컴퓨터 보습학원", "category": "edu", "outputcat": "교육", "telephone": "031-846-6000", "longitude": "127.04912398", "latitude": "37.738372456"}, {"name": "(신)쥬얼리", "category": "other", "outputcat": "신변잡화"}, {"name": "(의)해창의료재단신천병원", "category": "med", "outputcat": "의료", "telephone": "031-871-8200", "longitude": "11615"}, {"name": "(주) 디에스키즈빌", "category": "other", "outputcat": "레저업소", "telephone": "02-1577-0000", "longitude": "127.09409264", "latitude": "37.745373697"}, {"name": "(주) 쎈웨이", "category": "other", "outputcat": "신변잡화", "telephone": "031-853-3500", "longitude": "127.08045119", "latitude": "37.74198686"}, {"name": "(주) 재해예방컨설팅", "category": "other", "outputcat": "용역 서비스", "telephone": "031-851-8877", "longitude": "127.06039808", "latitude": "37.749431229"}, {"name": "(주) 크린토피아 신일점", "category": "other", "outputcat": "직물"}, {"name": "(주) 태성소방엔지니어링", "category": "other", "outputcat": "용역 서비스"}, {"name": "(주) 펫타민", "telephone": "070-5101-1269", "longitude": "127.0957594", "latitude": "37.74448946"}, {"name": "(주) 하얀봄", "category": "other", "outputcat": "신변잡화", "telephone": "02-1833-9308", "longitude": "127.09514865", "latitude": "37.746039582"}, {"name": "(주) 하이기획", "category": "other", "outputcat": "용역 서비스", "telephone": "031-853-1990", "longitude": "127.09712091", "latitude": "37.744488379"}, {"name": "(주)AMS코리아 의정부시지점", "category": "med", "outputcat": "의료", "telephone": "031-531-3920", "longitude": "127.07801041", "latitude": "37.751736774"}, {"name": "(주)VR WORLD", "category": "other", "outputcat": "레져용품", "telephone": "031-843-2569", "longitude": "127.05976987", "latitude": "37.729178037"}, {"name": "(주)가능", "category": "other", "outputcat": "의류", "telephone": "031-875-6134", "longitude": "127.03768252", "latitude": "37.750350087"}, {"name": "(주)가능종합상가할인마트", "category": "shop", "outputcat": "마트/편의점", "telephone": "031-875-2429", "longitude": "127.03790994", "latitude": "37.751377108"}, {"name": "(주)가능현대공업사", "category": "car", "outputcat": "자동차 정비/주유", "telephone": "031-871-0003", "longitude": "127.01913129", "latitude": "37.753840797"}, {"name": "(주)가람정보통신", "category": "other", "outputcat": "사무통신", "telephone": "031-826-6633", "longitude": "127.0694071", "latitude": "37.749183232"}, {"name": "(주)가향종합건축사무소", "category": "other", "outputcat": "용역 서비스", "telephone": "031-875-4113", "longitude": "127.04226826", "latitude": "37.732014189"}, {"name": "(주)검경신문사", "category": "edu", "outputcat": "교육", "telephone": "031-846-1588", "longitude": "127.04423302", "latitude": "37.736067824"}, {"name": "(주)경기개발", "category": "other", "outputcat": "용역 서비스", "telephone": "031-871-2238", "longitude": "127.04879833", "latitude": "37.707046244"}, {"name": "(주)경기전력안전기술단", "category": "other", "outputcat": "용역 서비스", "telephone": "031-852-0986", "longitude": "127.08757107", "latitude": "37.737513218"}, {"name": "(주)경원아이티", "category": "other", "outputcat": "사무통신", "telephone": "031-878-0010", "longitude": "127.11297639", "latitude": "37.755709538"}, {"name": "(주)교차로이벤트프로덕션", "category": "other", "outputcat": "용역 서비스", "telephone": "031-878-1451", "longitude": "127.03657488", "latitude": "37.734899017"}, {"name": "(주)구쁘 붐바타 의정부민락점", "category": "food", "outputcat": "식품/음료", "telephone": "031-853-2019", "longitude": "127.09633853", "latitude": "37.744876413"}, {"name": "(주)국민모터스", "category": "car", "outputcat": "자동차 정비/주유", "telephone": "031-852-5556", "longitude": "127.08373477", "latitude": "37.735903199"}, {"name": "(주)국제전기", "category": "other", "outputcat": "사무통신", "longitude": "127.04637116", "latitude": "37.745211759"}, {"name": "(주)그린라이프공조", "category": "other", "outputcat": "전기제품", "telephone": "031-842-7777", "longitude": "127.05582157", "latitude": "37.74407269"}, {"name": "(주)그린월드", "category": "trip", "outputcat": "숙박업", "telephone": "031-875-8226", "longitude": "127.04663073", "latitude": "37.723570674"}, {"name": "(주)꽃우물숯불갈비신관", "category": "food", "outputcat": "식품/음료", "telephone": "031-852-9998", "longitude": "127.11952994", "latitude": "37.752288621"}, {"name": "(주)꿈꾸는사람들", "category": "other", "outputcat": "건축자재", "telephone": "031-928-1780", "longitude": "127.03424332", "latitude": "37.747675216"}, {"name": "(주)나눔의둥지위드", "category": "food", "outputcat": "식품/음료", "telephone": "031-976-2700", "longitude": "126.77918692", "latitude": "37.683958565"}, {"name": "(주)남도푸드", "category": "food", "outputcat": "식품/음료", "longitude": "127.05035007", "latitude": "37.739678355"}, {"name": "(주)남유에프엔씨", "category": "food", "outputcat": "식품/음료", "telephone": "070-8959-3580", "longitude": "127.05340417", "latitude": "37.726297871"}, {"name": "(주)내추럴라이트", "category": "other", "outputcat": "건축자재", "telephone": "031-844-9401", "longitude": "127.05068178", "latitude": "37.743876676"}, {"name": "(주)뉴월드보안", "category": "other", "outputcat": "용역 서비스", "telephone": "031-847-8259", "longitude": "127.06731701", "latitude": "37.746517566"}, {"name": "(주)다고이게임즈", "category": "edu", "outputcat": "교육", "telephone": "070-8680-8285", "longitude": "127.03893691", "latitude": "37.739817541"}, {"name": "(주)다원렌트카의정부영업소", "category": "trip", "outputcat": "숙박업", "telephone": "031-853-7835", "longitude": "127.06845611", "latitude": "37.751598323"}, {"name": "(주)다인", "category": "trip", "outputcat": "숙박업", "telephone": "031-853-2480", "longitude": "127.06470831", "latitude": "37.747627138"}, {"name": "(주)대원모터스", "category": "car", "outputcat": "자동차 정비/주유", "telephone": "031-877-8949", "longitude": "127.02055011", "latitude": "37.755570424"}, {"name": "(주)대임컴퍼니", "category": "other", "outputcat": "레져용품", "telephone": "031-846-6888", "longitude": "127.04302032", "latitude": "37.759258825"}, {"name": "(주)대한모터스", "category": "car", "outputcat": "자동차 정비/주유", "telephone": "031-852-5556", "longitude": "127.07742634", "latitude": "37.735069467"}, {"name": "(주)대한정보시스템", "category": "other", "outputcat": "사무통신", "telephone": "031-848-3080", "longitude": "127.0502412", "latitude": "37.746877035"}, {"name": "(주)더153", "category": "car", "outputcat": "자동차 정비/주유", "longitude": "127.02316024", "latitude": "37.75623671"}, {"name": "(주)더드림(THE DREAM)", "category": "other", "outputcat": "레져용품", "telephone": "031-873-9777", "longitude": "127.0546551", "latitude": "37.698268449"}, {"name": "(주)더만듦 내맘대로폰케이스앤슬라임 의정", "telephone": "031-846-6682", "longitude": "127.04818274", "latitude": "37.7390125"}, {"name": "(주)도드람푸드 도드람미트마켓(민락점)", "category": "food", "outputcat": "식품/음료", "telephone": "031-777-3361", "longitude": "127.11247988", "latitude": "37.749898848"}, {"name": "(주)도연렌트카", "category": "trip", "outputcat": "숙박업", "telephone": "031-842-6500", "longitude": "127.05540888", "latitude": "37.738072508"}, {"name": "(주)동의환경", "category": "other", "outputcat": "용역 서비스", "telephone": "031-845-1534", "longitude": "127.05089833", "latitude": "37.745399203"}, {"name": "(주)두성시스템", "category": "other", "outputcat": "용역 서비스", "telephone": "031-871-4424", "longitude": "127.07431702", "latitude": "37.757703384"}, {"name": "(주)듀라핌", "category": "other", "outputcat": "사무통신", "telephone": "070-7769-8999", "longitude": "127.08095911", "latitude": "37.750293331"}, {"name": "(주)디에스엘이디", "category": "other", "outputcat": "건축자재", "telephone": "031-879-1437", "longitude": "127.04626997", "latitude": "37.707903114"}, {"name": "(주)루이스토리", "category": "med", "outputcat": "의료", "longitude": "127.07012203", "latitude": "37.749290941"}, {"name": "(주)릴리브산후조리원", "category": "med", "outputcat": "의료", "telephone": "031-851-9222", "longitude": "127.09762122", "latitude": "37.745343885"}, {"name": "(주)마루", "category": "food", "outputcat": "식품/음료", "telephone": "031-846-2485", "longitude": "127.04832454", "latitude": "37.74826526"}, {"name": "(주)마린크루의정부센터", "category": "other", "outputcat": "용역 서비스", "telephone": "031-853-8802", "longitude": "127.09712091", "latitude": "37.744488379"}, {"name": "(주)만능의료기", "category": "med", "outputcat": "의료", "telephone": "031-840-1108", "longitude": "127.05182516", "latitude": "37.740011106"}, {"name": "(주)맥여행사", "category": "trip", "outputcat": "숙박업", "telephone": "031-876-8862", "longitude": "127.04307404", "latitude": "37.732680626"}, {"name": "(주)메디코어", "category": "med", "outputcat": "의료", "telephone": "031-851-8161", "longitude": "127.08415524", "latitude": "37.72618158"}, {"name": "(주)명성엠에스", "category": "other", "outputcat": "건축자재", "telephone": "031-826-7431", "longitude": "127.05310164", "latitude": "37.698215063"}, {"name": "(주)모든C.P.S", "category": "edu", "outputcat": "교육", "telephone": "031-871-5106", "longitude": "127.03527101", "latitude": "37.736602191"}, {"name": "(주)모아투어여행사", "category": "trip", "outputcat": "숙박업", "telephone": "031-874-4448", "longitude": "127.05126746", "latitude": "37.737263419"}, {"name": "(주)무지개씽크", "category": "other", "outputcat": "주방용구", "telephone": "031-876-0993", "longitude": "127.04421025", "latitude": "37.695074153"}, {"name": "(주)미래부페", "category": "food", "outputcat": "식품/음료", "telephone": "031-836-2891", "longitude": "127.04354204", "latitude": "37.737960073"}, {"name": "(주)미래자동차공업사", "category": "car", "outputcat": "자동차 정비/주유", "telephone": "031-877-0067", "longitude": "127.01993716", "latitude": "37.754786685"}, {"name": "(주)미셸푸드 카페안젤로&주스 의정부성모B", "category": "food", "outputcat": "식품/음료", "longitude": "127.0776539", "latitude": "37.758286934"}, {"name": "(주)미소텔레콤", "category": "other", "outputcat": "별도관리", "longitude": "127.04845832", "latitude": "37.725876436"}, {"name": "(주)바나나코퍼레이션", "category": "other", "outputcat": "신변잡화", "longitude": "127.03796", "latitude": "37.737232091"}, {"name": "(주)바이오클", "category": "med", "outputcat": "의료", "longitude": "127.08064784", "latitude": "37.745599562"}, {"name": "(주)반도상사", "category": "other", "outputcat": "의류", "telephone": "031-846-3356", "longitude": "127.04931681", "latitude": "37.738318323"}, {"name": "(주)베스트원전기통신", "category": "other", "outputcat": "전기제품", "telephone": "031-894-7370", "longitude": "127.0873425", "latitude": "37.736044823"}, {"name": "(주)베이비플러스 의정부점", "category": "other", "outputcat": "의류", "telephone": "031-876-2800", "longitude": "127.05209944", "latitude": "37.708738719"}, {"name": "(주)베트남천년국제결혼", "category": "other", "outputcat": "용역 서비스", "telephone": "031-822-7911", "longitude": "127.04801838", "latitude": "37.711208984"}, {"name": "(주)보노텍스", "category": "other", "outputcat": "의류", "telephone": "070-8870-3008", "longitude": "127.07221082", "latitude": "37.750370877"}, {"name": "(주)부모사랑", "category": "other", "outputcat": "회원제형태", "telephone": "031-872-8505", "longitude": "127.03365351", "latitude": "37.748179907"}, {"name": "(주)브로스랩", "telephone": "070-7918-0171", "longitude": "127.0435188", "latitude": "37.736960019"}, {"name": "(주)블루닥홀딩스", "category": "med", "outputcat": "의료", "telephone": "031-879-7575", "longitude": "127.04781603", "latitude": "37.714155202"}, {"name": "(주)비에이치벅스헌터", "category": "other", "outputcat": "용역 서비스", "telephone": "031-829-8891", "longitude": "127.04582691", "latitude": "37.706542825"}, {"name": "(주)빅맨", "category": "edu", "outputcat": "교육", "telephone": "031-852-5652", "longitude": "127.09487656", "latitude": "37.746210976"}, {"name": "(주)산업안전컨설팅", "category": "other", "outputcat": "용역 서비스", "telephone": "031-876-8782", "longitude": "127.04610322", "latitude": "37.733211119"}, {"name": "(주)삼목월드", "category": "other", "outputcat": "기타", "telephone": "031-873-2943", "longitude": "127.05173168", "latitude": "37.735875755"}, {"name": "(주)삼선전자태일디지티서비스", "category": "car", "outputcat": "자동차 정비/주유", "telephone": "031-840-7200", "longitude": "127.06584742", "latitude": "37.752906129"}, {"name": "(주)새롬정보시스템/특별할부", "category": "other", "outputcat": "사무통신", "telephone": "031-1-1", "longitude": "127.03534927", "latitude": "37.733962365"}, {"name": "(주)샤인마스터", "category": "car", "outputcat": "자동차 정비/주유", "longitude": "127.07909379", "latitude": "37.757015668"}, {"name": "(주)샵포스쿨", "category": "edu", "outputcat": "교육", "telephone": "031-878-5638", "longitude": "127.05104455", "latitude": "37.74342605"}, {"name": "(주)서진방재엔지니어링", "category": "other", "outputcat": "기타", "telephone": "031-836-9119", "longitude": "127.04479071", "latitude": "37.739266023"}, {"name": "(주)선경종합건축사사무소", "category": "other", "outputcat": "용역 서비스", "telephone": "031-876-3175", "longitude": "127.04066011", "latitude": "37.737321352"}, {"name": "(주)선경종합건축사사무소", "category": "other", "outputcat": "용역 서비스", "telephone": "031-876-3175", "longitude": "127.04370977", "latitude": "37.733518298"}, {"name": "(주)선진조경기술개발", "category": "other", "outputcat": "건축자재", "telephone": "031-841-9292", "longitude": "127.07870153", "latitude": "37.750709243"}, {"name": "(주)성일렌트카 의정부영업소", "category": "trip", "outputcat": "숙박업", "telephone": "031-844-1111", "longitude": "127.05384897", "latitude": "37.746370996"}, {"name": "(주)세훈", "category": "trip", "outputcat": "숙박업", "telephone": "031-840-7227", "longitude": "127.05104481", "latitude": "37.743822471"}, {"name": "(주)세훈종합건재", "category": "other", "outputcat": "건축자재", "longitude": "127.04407559", "latitude": "37.718102772"}, {"name": "(주)수아래", "category": "food", "outputcat": "식품/음료", "telephone": "031-8030-5243", "longitude": "127.07182214", "latitude": "37.747262811"}, {"name": "(주)숯겹살집", "category": "other", "outputcat": "용역 서비스", "telephone": "031-1588-6797", "longitude": "127.05717846", "latitude": "37.706682299"}, {"name": "(주)스무숲", "category": "med", "outputcat": "의료", "telephone": "031-853-6688", "longitude": "127.06843413", "latitude": "37.752400185"}, {"name": "(주)스무숲", "category": "med", "outputcat": "의료", "telephone": "031-853-6688", "longitude": "127.06843413", "latitude": "37.752400185"}, {"name": "(주)스카이통신", "category": "other", "outputcat": "사무통신", "telephone": "031-877-0011", "longitude": "127.04324354", "latitude": "37.731455266"}, {"name": "(주)스카이통신_PS", "category": "other", "outputcat": "사무통신", "telephone": "031-877-0011", "longitude": "127.04324354", "latitude": "37.731455266"}, {"name": "(주)슬로우스탠다드", "category": "other", "outputcat": "의류", "longitude": "127.09165362", "latitude": "37.745681884"}, {"name": "(주)시큐리티마스터즈", "category": "other", "outputcat": "용역 서비스", "telephone": "031-846-8633", "longitude": "127.04632398", "latitude": "37.742148527"}, {"name": "(주)신성컬렉션", "category": "other", "outputcat": "레져용품", "telephone": "031-841-8267", "longitude": "127.0593791", "latitude": "37.752341805"}, {"name": "(주)신성컬렉션 회룡지점", "category": "other", "outputcat": "신변잡화", "telephone": "031-829-8621", "longitude": "127.04632002", "latitude": "37.715930654"}, {"name": "(주)신우엔지니어링", "category": "other", "outputcat": "용역 서비스", "telephone": "031-823-4404", "longitude": "127.0584833", "latitude": "37.753180118"}, {"name": "(주)신일이엔지", "category": "other", "outputcat": "용역 서비스", "telephone": "031-836-1192", "longitude": "127.06751728", "latitude": "37.755013457"}, {"name": "(주)신창디앤씨", "category": "other", "outputcat": "회원제형태", "telephone": "031-848-1613", "longitude": "127.04856965", "latitude": "37.740931388"}, {"name": "(주)썸텍메디칼", "category": "med", "outputcat": "의료", "telephone": "031-452-7515", "longitude": "127.03854828", "latitude": "37.733790259"}, {"name": "(주)쎄븐일한미유통", "category": "other", "outputcat": "회원제형태", "telephone": "031-877-0130", "longitude": "127.03977185", "latitude": "37.730546436"}, {"name": "(주)쓰리에이모터스", "category": "car", "outputcat": "자동차 정비/주유", "longitude": "127.08081508", "latitude": "37.731958974"}, {"name": "(주)씨이엠", "category": "other", "outputcat": "주방용구", "telephone": "031-853-9485", "longitude": "127.08323383", "latitude": "37.744759939"}, {"name": "(주)씨티크리스탈", "category": "other", "outputcat": "전기제품", "telephone": "031-876-7474", "longitude": "127.03590122", "latitude": "37.750674943"}, {"name": "(주)아이마이", "category": "other", "outputcat": "건축자재", "telephone": "031-877-1977", "longitude": "127.02379302", "latitude": "37.746677473"}, {"name": "(주)어울놀이아카데미앤플레이", "category": "other", "outputcat": "레저업소", "telephone": "031-111-1111", "longitude": "127.0939233", "latitude": "37.746067563"}, {"name": "(주)에스바디워크필라테스 (회룡역점)", "category": "other", "outputcat": "레저업소", "telephone": "031-877-9609", "longitude": "127.04909382", "latitude": "37.726353696"}, {"name": "(주)에스바디워크필라테스(민락점)", "category": "other", "outputcat": "레저업소", "longitude": "127.09337731", "latitude": "37.74493278"}, {"name": "(주)에스바디워크필라테스(의정부역점)", "category": "other", "outputcat": "레저업소", "telephone": "031-111-1111", "longitude": "127.04826167", "latitude": "37.738210619"}, {"name": "(주)에스바디핏 민락지점", "category": "other", "outputcat": "레저업소", "telephone": "031-851-8251", "longitude": "127.09679124", "latitude": "37.743984107"}, {"name": "(주)에어천사", "category": "other", "outputcat": "용역 서비스", "telephone": "031-874-3843"}, {"name": "(주)에이스티앤아이", "category": "other", "outputcat": "기타", "telephone": "031-872-9911", "longitude": "127.04474164", "latitude": "37.732707074"}, {"name": "(주)에이원종합개발", "category": "other", "outputcat": "용역 서비스", "telephone": "031-875-8686", "longitude": "127.03515548", "latitude": "37.75792783"}, {"name": "(주)에이치피물류 의정부점", "category": "shop", "outputcat": "마트/편의점", "telephone": "031-876-2696", "longitude": "127.04243187", "latitude": "37.741041721"}, {"name": "(주)엔카1급공업사", "category": "car", "outputcat": "자동차 정비/주유", "telephone": "031-877-0067", "longitude": "127.01993716", "latitude": "37.754786685"}, {"name": "(주)엘앤씨", "category": "other", "outputcat": "회원제형태", "telephone": "031-826-8905", "longitude": "127.04354204", "latitude": "37.737960073"}, {"name": "(주)엠아이티국제스쿨", "category": "edu", "outputcat": "교육", "telephone": "031-877-2745", "longitude": "127.0390158", "latitude": "37.73873637"}, {"name": "(주)예담", "category": "other", "outputcat": "직물", "telephone": "031-878-7845", "longitude": "127.04754144", "latitude": "37.710155042"}, {"name": "(주)예술무대산", "telephone": "031-836-2993", "longitude": "127.0338744", "latitude": "37.733683465"}, {"name": "(주)예스회룡점", "category": "med", "outputcat": "의료"}, {"name": "(주)온새미여행사", "category": "trip", "outputcat": "숙박업", "telephone": "031-851-2480", "longitude": "127.0724598", "latitude": "37.749676995"}, {"name": "(주)올댓씨큐리티", "category": "other", "outputcat": "전기제품", "telephone": "02-1588-0307", "longitude": "127.04370968", "latitude": "37.733347116"}, {"name": "(주)우주테크", "category": "other", "outputcat": "전기제품", "telephone": "031-874-7428", "longitude": "127.03459494", "latitude": "37.747404836"}, {"name": "(주)원크린", "category": "other", "outputcat": "주방용구", "longitude": "127.08432183", "latitude": "37.743651018"}, {"name": "(주)월드커피바리스타협회", "category": "food", "outputcat": "식품/음료", "telephone": "031-875-3576", "longitude": "127.04559968", "latitude": "37.745293127"}, {"name": "(주)월영솔루션", "category": "other", "outputcat": "사무통신", "telephone": "031-840-4000", "longitude": "127.04665273", "latitude": "37.741679908"}, {"name": "(주)유로파", "category": "car", "outputcat": "자동차 정비/주유", "telephone": "031-875-6555", "longitude": "127.02379302", "latitude": "37.746677473"}, {"name": "(주)의정부환경", "category": "other", "outputcat": "용역 서비스", "telephone": "031-873-2000", "longitude": "127.05565342", "latitude": "37.730963848"}, {"name": "(주)의정상재", "category": "other", "outputcat": "직물", "telephone": "031-875-9071", "longitude": "127.04651283", "latitude": "37.754626683"}, {"name": "(주)의진산업", "category": "other", "outputcat": "용역 서비스", "telephone": "031-873-2000", "longitude": "127.05565342", "latitude": "37.730963848"}, {"name": "(주)이래텍스", "category": "other", "outputcat": "의류", "telephone": "031-821-7823", "longitude": "127.04156859", "latitude": "37.739041885"}, {"name": "(주)이오팔공", "category": "food", "outputcat": "식품/음료", "telephone": "070-8748-0000", "longitude": "127.0413411", "latitude": "37.759835995"}, {"name": "(주)이지케어", "category": "other", "outputcat": "용역 서비스", "telephone": "070-7776-3613", "longitude": "127.07915241", "latitude": "37.736735133"}, {"name": "(주)인스킨", "category": "med", "outputcat": "의료", "telephone": "031-852-5398", "longitude": "127.08090605", "latitude": "37.74298662"}, {"name": "(주)인스타글로벌", "category": "shop", "outputcat": "마트/편의점", "telephone": "02-1666-9779", "longitude": "127.04351921", "latitude": "37.737707813"}, {"name": "(주)인터월드시스템", "category": "other", "outputcat": "사무통신", "telephone": "031-876-9281", "longitude": "127.03684914", "latitude": "37.739259568"}, {"name": "(주)잠언의료기 송산점", "category": "med", "outputcat": "의료", "telephone": "031-852-7589", "longitude": "127.08937613", "latitude": "37.738575036"}, {"name": "(주)장원교육의정부동지점", "category": "edu", "outputcat": "교육", "telephone": "031-851-0045", "longitude": "127.072539", "latitude": "37.74943369"}, {"name": "(주)정들집", "category": "food", "outputcat": "식품/음료", "telephone": "031-878-4944", "longitude": "127.03771035", "latitude": "37.737097021"}, {"name": "(주)정인이앤이", "category": "edu", "outputcat": "교육", "telephone": "031-829-7677", "longitude": "127.02379302", "latitude": "37.746677473"}, {"name": "(주)제이부모사랑", "category": "other", "outputcat": "회원제형태", "telephone": "031-825-3505", "longitude": "127.04837331", "latitude": "37.735264447"}, {"name": "(주)제이에이치커뮤니케이션", "category": "other", "outputcat": "용역 서비스", "telephone": "031-876-9574", "longitude": "127.04882094", "latitude": "37.706938119"}, {"name": "(주)제이투어앤골프", "category": "trip", "outputcat": "숙박업", "telephone": "031-852-1872", "longitude": "127.08926248", "latitude": "37.738403938"}, {"name": "(주)종가푸드 고산", "category": "food", "outputcat": "식품/음료", "telephone": "031-847-5878"}, {"name": "(주)주민모터스", "category": "car", "outputcat": "자동차 정비/주유", "telephone": "031-852-5556", "longitude": "127.07781314", "latitude": "37.73615037"}, {"name": "(주)중앙전기", "category": "other", "outputcat": "전기제품", "telephone": "031-872-1657", "longitude": "127.04059584", "latitude": "37.744817327"}, {"name": "(주)지묵당코리아", "category": "food", "outputcat": "식품/음료", "telephone": "031-875-5288", "longitude": "127.04854099", "latitude": "37.731210075"}, {"name": "(주)지에스엘", "category": "med", "outputcat": "의료", "telephone": "031-846-7757", "longitude": "127.05190495", "latitude": "37.740569666"}, {"name": "(주)지커뮤니케이션즈(아이비독서실,가능동", "category": "edu", "outputcat": "교육", "telephone": "031-837-8006", "longitude": "127.03657056", "latitude": "37.750404468"}, {"name": "(주)지티에프엔비", "category": "food", "outputcat": "식품/음료", "telephone": "031-853-3357", "longitude": "127.08434291", "latitude": "37.742182445"}, {"name": "(주)지티테크", "category": "car", "outputcat": "자동차 정비/주유", "telephone": "070-4300-7914", "longitude": "127.08434291", "latitude": "37.742182445"}, {"name": "(주)진성메리트엘리베이터", "category": "other", "outputcat": "용역 서비스", "telephone": "031-823-1119", "longitude": "127.08137395", "latitude": "37.734823646"}, {"name": "(주)진시스템", "category": "other", "outputcat": "사무통신", "telephone": "031-873-3684", "longitude": "127.0694071", "latitude": "37.749183232"}, {"name": "(주)창림", "category": "other", "outputcat": "용역 서비스", "telephone": "031-877-2290", "latitude": "37.736074328", "longitude": "127.05084693"}, {"name": "(주)창조글로비즈", "category": "other", "outputcat": "가구", "telephone": "02-780-3669", "longitude": "127.02379302", "latitude": "37.746677473"}, {"name": "(주)천우", "category": "other", "outputcat": "사무통신", "telephone": "031-851-0040", "longitude": "127.084367", "latitude": "37.743461786"}, {"name": "(주)천진", "category": "other", "outputcat": "레져용품", "telephone": "031-842-6826", "longitude": "127.04340639", "latitude": "37.759682141"}, {"name": "(주)청림에듀", "category": "edu", "outputcat": "교육", "telephone": "031-875-8702", "longitude": "127.04995588", "latitude": "37.726317317"}, {"name": "(주)청수수산유통", "category": "food", "outputcat": "식품/음료", "telephone": "031-843-5451", "longitude": "127.04837744", "latitude": "37.742012609"}, {"name": "(주)케이티에프정안", "category": "other", "outputcat": "별도관리", "longitude": "127.05473357", "latitude": "37.745793999"}, {"name": "(주)코윈파워", "category": "other", "outputcat": "용역 서비스", "telephone": "031-265-7008", "longitude": "127.08926248", "latitude": "37.738403938"}, {"name": "(주)코코넛", "category": "other", "outputcat": "레져용품", "telephone": "070-7746-7746", "longitude": "127.04834613", "latitude": "37.709352879"}, {"name": "(주)쿠카쿠 의정부점", "category": "food", "outputcat": "식품/음료", "telephone": "02-449-4577", "longitude": "127.0474092", "latitude": "37.735544112"}, {"name": "(주)크린토피아 의정부추동공원점", "category": "car", "outputcat": "자동차 정비/주유", "telephone": "031-851-9634", "longitude": "127.06465359", "latitude": "37.736401257"}, {"name": "(주)키토크로스", "category": "food", "outputcat": "식품/음료", "telephone": "031-947-9119", "longitude": "127.04307404", "latitude": "37.732680626"}, {"name": "(주)태림알.씨.알 의정부지점", "category": "other", "outputcat": "용역 서비스", "telephone": "031-876-4757", "longitude": "127.02735394", "latitude": "37.741235015"}, {"name": "(주)태성애드", "category": "other", "outputcat": "용역 서비스", "telephone": "031-852-6515", "longitude": "127.0850983", "latitude": "37.737875351"}, {"name": "(주)태영정보통신", "category": "other", "outputcat": "기타", "telephone": "031-824-7020", "longitude": "127.05670992", "latitude": "37.748739236"}, {"name": "(주)텃밭식자재할인마트녹양점", "category": "shop", "outputcat": "마트/편의점", "telephone": "031-873-2226", "longitude": "127.03507625", "latitude": "37.758396347"}, {"name": "(주)투데이컴퓨터", "category": "other", "outputcat": "사무통신", "telephone": "031-853-4623", "longitude": "127.0679298", "latitude": "37.746625345"}, {"name": "(주)파라데우스교육", "category": "edu", "outputcat": "교육", "telephone": "070-8272-3809", "longitude": "127.03568325", "latitude": "37.745287293"}, {"name": "(주)파이브스톤즈", "category": "other", "outputcat": "용역 서비스", "telephone": "070-8766-9986", "longitude": "127.02379302", "latitude": "37.746677473"}, {"name": "(주)퍼스트그린씨앤에프 의정부점", "category": "food", "outputcat": "식품/음료", "telephone": "02-525-3092", "longitude": "127.05178853", "latitude": "37.753318229"}, {"name": "(주)풋볼스토리 실내축구교실", "category": "edu", "outputcat": "교육"}, {"name": "(주)피디케이", "category": "other", "outputcat": "전기제품", "telephone": "031-852-8012", "longitude": "127.06301538", "latitude": "37.744762976"}, {"name": "(주)피스제이앤샵", "category": "other", "outputcat": "레져용품", "telephone": "031-821-7977", "longitude": "127.04329128", "latitude": "37.756682006"}, {"name": "(주)피투에스원", "category": "other", "outputcat": "전기제품", "telephone": "031-1800-9382", "longitude": "127.08156217", "latitude": "37.741157244"}, {"name": "(주)피트", "category": "other", "outputcat": "용역 서비스", "telephone": "031-876-4417", "longitude": "127.05765406", "latitude": "37.705745079"}, {"name": "(주)핏걸 의정부 가능점", "category": "other", "outputcat": "레저업소", "telephone": "031-821-2262", "longitude": "127.04556709", "latitude": "37.747815813"}, {"name": "(주)핏걸 장암신곡점", "category": "other", "outputcat": "레저업소", "telephone": "031-847-8285", "longitude": "127.06006465", "latitude": "37.728988694"}, {"name": "(주)하늬", "category": "other", "outputcat": "의류", "telephone": "031-872-0718", "longitude": "127.03418702", "latitude": "37.74871133"}, {"name": "(주)하이퍼", "category": "car", "outputcat": "자동차 정비/주유", "telephone": "031-842-5600", "longitude": "127.05396224", "latitude": "37.74610066"}, {"name": "(주)한국승마교육원", "category": "edu", "outputcat": "교육", "telephone": "031-879-3225", "longitude": "127.04418652", "latitude": "37.734040687"}, {"name": "(주)한국에이치알디엠개발원", "category": "other", "outputcat": "회원제형태", "telephone": "031-878-0075", "longitude": "127.04354204", "latitude": "37.737960073"}, {"name": "(주)한그린", "category": "food", "outputcat": "식품/음료", "telephone": "02-381-7560", "longitude": "127.03409699", "latitude": "37.750486234"}, {"name": "(주)한빛O.A", "category": "other", "outputcat": "사무통신", "telephone": "031-842-3355", "longitude": "127.03751557", "latitude": "37.732961686"}, {"name": "(주)한빛프라자(무이자)", "category": "other", "outputcat": "사무통신", "telephone": "031-841-3377", "longitude": "127.04332342", "latitude": "37.753177284"}, {"name": "(주)한일상사", "category": "other", "outputcat": "건축자재", "telephone": "031-843-8183", "longitude": "127.04287077", "latitude": "37.755483881"}, {"name": "(주)한일소방설비", "category": "other", "outputcat": "기타", "telephone": "031-845-5118", "longitude": "127.04626788", "latitude": "37.743211676"}, {"name": "(주)해맞이", "category": "food", "outputcat": "식품/음료", "telephone": "031-876-7370", "longitude": "127.0312349", "latitude": "37.74340545"}, {"name": "(주)해원산업개발", "category": "other", "outputcat": "용역 서비스", "telephone": "031-848-3931", "longitude": "127.08001234", "latitude": "37.734545248"}, {"name": "(주)행복세상만들기", "category": "other", "outputcat": "신변잡화", "telephone": "031-878-6495", "longitude": "127.04473297", "latitude": "37.737455121"}, {"name": "(주)혁성", "category": "other", "outputcat": "용역 서비스", "telephone": "031-873-2000", "longitude": "127.05565342", "latitude": "37.730963848"}, {"name": "(주)현대에너지", "category": "other", "outputcat": "건축자재", "telephone": "031-821-2972", "longitude": "127.10581215", "latitude": "37.711911489"}, {"name": "(주)현대전기", "category": "other", "outputcat": "용역 서비스", "telephone": "031-844-8383", "longitude": "127.0514544", "latitude": "37.745570157"}, {"name": "(주)홍삼정화", "category": "other", "outputcat": "용역 서비스", "telephone": "031-873-2000", "longitude": "127.05565342", "latitude": "37.730963848"}, {"name": "(주)화이어캅스경기북", "category": "other", "outputcat": "용역 서비스", "telephone": "031-877-6119", "longitude": "127.04901381", "latitude": "37.707073188"}, {"name": "(주)황제홍삼스파", "category": "med", "outputcat": "의료", "telephone": "031-876-6110", "longitude": "127.05451578", "latitude": "37.726270361"}, {"name": "(주)황제홍삼스파", "category": "food", "outputcat": "식품/음료", "telephone": "031-876-6110", "longitude": "127.05451578", "latitude": "37.726270361"}, {"name": "(주)회전목마", "category": "food", "outputcat": "식품/음료", "telephone": "031-841-5292", "longitude": "127.0798432", "latitude": "37.757456648"}, {"name": "(학)신흥학원 부설 신한부속의원", "category": "med", "outputcat": "의료", "telephone": "070-4693-4895", "longitude": "127.04657652", "latitude": "37.708515654"}, {"name": "007대리운전", "category": "med", "outputcat": "의료", "telephone": "031-842-7040", "longitude": "127.04517783", "latitude": "37.741707476"}, {"name": "007보세전문", "category": "other", "outputcat": "의류", "telephone": "031-848-6389", "longitude": "127.09920823", "latitude": "37.717962509"}, {"name": "010마켓", "category": "other", "outputcat": "사무통신", "telephone": "031-873-0019"}, {"name": "072골프연습장", "category": "other", "outputcat": "레저업소", "telephone": "031-837-7717", "longitude": "127.03201113", "latitude": "37.755460036"}, {"name": "09청소크린", "category": "other", "outputcat": "용역 서비스", "telephone": "070-8119-1190", "longitude": "127.09187029", "latitude": "37.73712264"}, {"name": "1.2.3상회", "category": "other", "outputcat": "신변잡화", "telephone": "031-873-4992", "longitude": "127.04918413", "latitude": "37.725650913"}, {"name": "1000냥노가리호프", "category": "food", "outputcat": "식품/음료", "telephone": "070-4125-7636", "longitude": "127.03943573", "latitude": "37.739069594"}, {"name": "1001안경", "category": "med", "outputcat": "의료", "telephone": "031-855-2002", "longitude": "127.04782275", "latitude": "37.725291057"}, {"name": "1001안경콘택트(서부점)", "category": "med", "outputcat": "의료", "telephone": "031-871-1105", "longitude": "127.04281626", "latitude": "37.738509904"}, {"name": "100년 닭꼬치", "category": "food", "outputcat": "식품/음료", "telephone": "031-877-8992", "longitude": "127.03768262", "latitude": "37.750566316"}, {"name": "100세 누리 효경 요양원", "category": "med", "outputcat": "의료", "telephone": "031-848-3604", "longitude": "127.06898935", "latitude": "37.751516939"}, {"name": "11번가 커피 전문점", "category": "food", "outputcat": "식품/음료", "telephone": "031-879-7003", "longitude": "127.04363114", "latitude": "37.734932828"}, {"name": "120% COOL(회룡점)", "category": "med", "outputcat": "의료", "telephone": "031-836-0120", "longitude": "127.04918413", "latitude": "37.725650913"}, {"name": "120%cool미용실", "category": "med", "outputcat": "의료", "telephone": "031-878-0120", "longitude": "127.03362359", "latitude": "37.758126449"}, {"name": "120%쿨 (신곡점)", "category": "med", "outputcat": "의료", "telephone": "031-111-1111", "longitude": "127.06157265", "latitude": "37.742484286"}, {"name": "120%쿨(망월사점)", "category": "med", "outputcat": "의료", "telephone": "031-826-5120", "longitude": "127.04834613", "latitude": "37.709352879"}, {"name": "120%쿨(제2청사역점)", "category": "med", "outputcat": "의료", "telephone": "031-852-6120", "longitude": "127.06951108", "latitude": "37.751264378"}, {"name": "120%쿨(중앙점)", "category": "med", "outputcat": "의료", "telephone": "031-848-0985", "longitude": "127.04793401", "latitude": "37.740427097"}, {"name": "120%쿨엘리시아점", "category": "med", "outputcat": "의료", "telephone": "031-847-4105", "longitude": "127.0601557", "latitude": "37.729376061"}, {"name": "1203우헤어", "category": "med", "outputcat": "의료", "telephone": "031-872-7356", "longitude": "127.03707382", "latitude": "37.734430375"}, {"name": "120프로쿨", "category": "med", "outputcat": "의료", "telephone": "031-847-8686", "longitude": "127.08489901", "latitude": "37.732046299"}, {"name": "123노래연습장", "category": "other", "outputcat": "레저업소", "telephone": "031-845-3400", "longitude": "127.04956649", "latitude": "37.738462377"}, {"name": "153마트", "category": "shop", "outputcat": "마트/편의점", "telephone": "031-871-1839", "longitude": "127.03645564", "latitude": "37.747179082"}, {"name": "153모터스", "category": "car", "outputcat": "자동차 정비/주유", "telephone": "031-846-0153", "longitude": "127.04656624", "latitude": "37.74895966"}, {"name": "153모터스", "category": "car", "outputcat": "자동차 정비/주유", "telephone": "031-1111-1111", "longitude": "127.02090191", "latitude": "37.755651457"}, {"name": "153인테리어", "category": "other", "outputcat": "건축자재"}, {"name": "1544-8299 대리운전", "category": "med", "outputcat": "의료", "telephone": "02-1544-8299", "longitude": "127.03984415", "latitude": "37.739069467"}, {"name": "178닭한마리", "category": "food", "outputcat": "식품/음료", "longitude": "127.05340417", "latitude": "37.726297871"}, {"name": "180도 오븐", "category": "food", "outputcat": "식품/음료", "telephone": "031-851-7845", "longitude": "127.08943123", "latitude": "37.737178513"}, {"name": "1936 육계장터", "category": "food", "outputcat": "식품/음료", "telephone": "070-8156-7822", "longitude": "127.04443299", "latitude": "37.74878925"}, {"name": "1973포차", "category": "food", "outputcat": "식품/음료", "longitude": "127.09514865", "latitude": "37.746039582"}, {"name": "1978", "category": "food", "outputcat": "식품/음료", "telephone": "031-842-2857", "longitude": "127.04446139", "latitude": "37.738707546"}, {"name": "19티", "category": "food", "outputcat": "식품/음료", "telephone": "031-848-3060", "longitude": "127.04948888", "latitude": "37.741345468"}, {"name": "1박2일", "category": "food", "outputcat": "식품/음료", "telephone": "031-838-9091", "longitude": "127.04313138", "latitude": "37.733824822"}, {"name": "1박2일", "category": "food", "outputcat": "식품/음료", "telephone": "031-829-7859", "longitude": "127.03879814", "latitude": "37.757872719"}, {"name": "1번가 옛날통닭", "category": "food", "outputcat": "식품/음료", "telephone": "031-877-7279", "longitude": "127.05340417", "latitude": "37.726297871"}, {"name": "1번지 목살", "category": "food", "outputcat": "식품/음료", "telephone": "031-851-9201", "longitude": "127.09682086", "latitude": "37.749461889"}, {"name": "1번지 옛날통닭", "category": "food", "outputcat": "식품/음료", "telephone": "070-7382-7153", "longitude": "127.06126167", "latitude": "37.751016485"}, {"name": "1번지포차", "category": "food", "outputcat": "식품/음료", "telephone": "031-846-5558", "longitude": "127.05079345", "latitude": "37.741101687"}, {"name": "1지구", "category": "food", "outputcat": "식품/음료", "telephone": "031-851-9134", "longitude": "127.09317858", "latitude": "37.74012183"}, {"name": "1지구상전", "category": "food", "outputcat": "식품/음료", "telephone": "031-840-7807", "longitude": "127.08679257", "latitude": "37.74131581"}, {"name": "1층당구클럽", "category": "other", "outputcat": "레저업소"}, {"name": "1층당구클럽", "category": "other", "outputcat": "레저업소", "telephone": "031-873-3444", "longitude": "127.04376287", "latitude": "37.747573195"}, {"name": "1층미용실", "category": "med", "outputcat": "의료", "telephone": "031-858-6965", "longitude": "127.08120844", "latitude": "37.739238444"}, {"name": "1포인트네일", "category": "med", "outputcat": "의료", "telephone": "031-1111-1111", "longitude": "127.03563213", "latitude": "37.758008784"}, {"name": "2%당구클럽", "category": "other", "outputcat": "레저업소", "telephone": "031-1111-1111", "longitude": "127.03882222", "latitude": "37.73726787"}, {"name": "2.9요가 필라테스", "category": "other", "outputcat": "레저업소", "telephone": "031-853-7286", "longitude": "127.07912727", "latitude": "37.734347614"}, {"name": "216홍삼나라", "category": "food", "outputcat": "식품/음료", "telephone": "031-851-2410", "longitude": "127.0866171", "latitude": "37.736621953"}, {"name": "21c 영상제작실", "category": "other", "outputcat": "용역 서비스", "telephone": "070-8959-6001", "longitude": "127.037631", "latitude": "37.737232188"}, {"name": "21세기 분식", "category": "food", "outputcat": "식품/음료", "telephone": "031-111-1111", "longitude": "127.08334547", "latitude": "37.732596954"}, {"name": "21세기 요양복지센터", "category": "med", "outputcat": "의료", "telephone": "031-837-3800", "longitude": "127.04595617", "latitude": "37.714354107"}, {"name": "21세기광고아크릴", "category": "other", "outputcat": "건축자재", "telephone": "031-871-5076", "longitude": "127.03165595", "latitude": "37.746648787"}, {"name": "21세기노래연습장", "category": "other", "outputcat": "레저업소", "telephone": "031-853-4191", "longitude": "127.06903563", "latitude": "37.752516973"}, {"name": "21세기마트", "category": "shop", "outputcat": "마트/편의점"}, {"name": "21세기복떡집", "category": "food", "outputcat": "식품/음료", "telephone": "031-876-5574", "longitude": "127.05081619", "latitude": "37.741182763"}, {"name": "21세기정형외과의원", "category": "med", "outputcat": "의료", "telephone": "031-874-7579", "longitude": "127.04781603", "latitude": "37.714155202"}, {"name": "21세기집현전", "category": "other", "outputcat": "회원제형태"}, {"name": "24강비해장국", "category": "food", "outputcat": "식품/음료", "telephone": "031-851-5196", "longitude": "127.05121133", "latitude": "37.738182418"}, {"name": "24시 셀프세차", "category": "car", "outputcat": "자동차 정비/주유", "longitude": "127.0346578", "latitude": "37.761729987"}, {"name": "24시 편의방", "category": "food", "outputcat": "식품/음료", "telephone": "031-829-2226", "longitude": "127.04112526", "latitude": "37.737348231"}, {"name": "24시누름돌생고기김치찌개", "category": "food", "outputcat": "식품/음료", "telephone": "031-852-1424", "longitude": "127.08611896", "latitude": "37.737541281"}, {"name": "24시전주명가콩나물국밥", "category": "food", "outputcat": "식품/음료", "telephone": "031-851-1322", "longitude": "127.09495464", "latitude": "37.745129769"}, {"name": "24시전주명가콩나물국밥 녹양점", "category": "food", "outputcat": "식품/음료", "telephone": "031-872-5455", "longitude": "127.04068218", "latitude": "37.758430721"}, {"name": "24시전주콩나물국밥", "category": "food", "outputcat": "식품/음료", "telephone": "031-853-8889", "longitude": "127.08709362", "latitude": "37.736657652"}, {"name": "24시화물넷", "category": "other", "outputcat": "용역 서비스"}, {"name": "25시 경양식", "category": "food", "outputcat": "식품/음료", "telephone": "031-829-0963", "longitude": "127.04971345", "latitude": "37.737624429"}, {"name": "25억이네", "category": "other", "outputcat": "의류", "telephone": "031-879-0649", "longitude": "127.04076706", "latitude": "37.746844422"}, {"name": "27년전통찜닭명인", "category": "food", "outputcat": "식품/음료", "telephone": "031-852-0253", "longitude": "127.05120459", "latitude": "37.745263934"}, {"name": "2도비어(의정부점)", "category": "food", "outputcat": "식품/음료", "telephone": "031-827-5114", "longitude": "127.0490122", "latitude": "37.741066359"}, {"name": "2월31일(이월삼십일일)학원 2관", "category": "edu", "outputcat": "교육", "telephone": "031-852-0533", "longitude": "127.07221082", "latitude": "37.750370877"}, {"name": "2층", "category": "food", "outputcat": "식품/음료", "longitude": "127.04807189", "latitude": "37.743292084"}, {"name": "2층우리약국", "category": "med", "outputcat": "의료", "telephone": "031-855-8454", "longitude": "127.04324158", "latitude": "37.727851435"}, {"name": "3.3보리밥부폐", "category": "food", "outputcat": "식품/음료", "telephone": "031-846-3111", "longitude": "127.05035007", "latitude": "37.739678355"}, {"name": "3030동오러닝센터영어교습소", "category": "edu", "outputcat": "교육"}, {"name": "306안경원", "category": "med", "outputcat": "의료", "telephone": "031-851-3060", "longitude": "127.08028469", "latitude": "37.734626156"}, {"name": "365드림약국", "category": "med", "outputcat": "의료", "telephone": "031-8092-2365", "longitude": "127.09620144", "latitude": "37.744128728"}, {"name": "365마트", "category": "shop", "outputcat": "마트/편의점"}, {"name": "365마트", "category": "shop", "outputcat": "마트/편의점", "telephone": "031-846-0138", "longitude": "127.04813043", "latitude": "37.746265215"}, {"name": "365바른한의원", "category": "med", "outputcat": "의료", "telephone": "031-853-3650", "longitude": "127.06954592", "latitude": "37.752156303"}, {"name": "365스마트", "category": "other", "outputcat": "건축자재", "telephone": "031-875-3651", "longitude": "127.04456905", "latitude": "37.728373529"}, {"name": "365아이스크림 할인점", "category": "food", "outputcat": "식품/음료", "longitude": "127.04473924", "latitude": "37.748599941"}, {"name": "372노래연습장", "category": "other", "outputcat": "레저업소", "longitude": "127.09633853", "latitude": "37.744876413"}, {"name": "372노래연습장", "category": "other", "outputcat": "레저업소", "longitude": "127.09633853", "latitude": "37.744876413"}, {"name": "37포차 의정부민락", "category": "food", "outputcat": "식품/음료", "longitude": "127.09456973", "latitude": "37.745823804"}, {"name": "38선민물매운탕", "category": "food", "outputcat": "식품/음료", "telephone": "031-844-4497", "longitude": "127.04870989", "latitude": "37.747571376"}, {"name": "3H 스마트 지압침대", "category": "med", "outputcat": "의료", "telephone": "031-855-9894", "longitude": "127.05159622", "latitude": "37.736902901"}, {"name": "3M카케어센타노이즈제로", "category": "car", "outputcat": "자동차 정비/주유", "telephone": "031-848-8714", "longitude": "127.05837777", "latitude": "37.748621339"}, {"name": "3POP PC방", "category": "other", "outputcat": "레저업소", "telephone": "070-8072-8270", "longitude": "127.05776337", "latitude": "37.730962885"}, {"name": "3PUB(펍)/한빛FNB(3펍PUB의정부건강음식배", "category": "food", "outputcat": "식품/음료", "telephone": "031-825-2280", "longitude": "127.09914321", "latitude": "37.74659498"}, {"name": "3R메디칼", "category": "med", "outputcat": "의료", "telephone": "031-851-1124", "longitude": "127.07221082", "latitude": "37.750370877"}, {"name": "3쿠션당구장", "category": "other", "outputcat": "레저업소", "telephone": "070-4102-5501", "longitude": "127.04771098", "latitude": "37.709208969"}, {"name": "4  포차", "category": "food", "outputcat": "식품/음료", "telephone": "031-111-1111", "longitude": "127.05075975", "latitude": "37.741624255"}, {"name": "49#", "category": "other", "outputcat": "의류", "telephone": "031-853-1540", "longitude": "127.03415662", "latitude": "37.757369508"}, {"name": "4D왕국 상상라이더", "category": "other", "outputcat": "레저업소", "telephone": "02-1800-9027", "longitude": "127.03648294", "latitude": "37.757368868"}, {"name": "4REST (포레스트)노래연습장", "category": "other", "outputcat": "레저업소", "telephone": "031-851-3970", "longitude": "127.09664536", "latitude": "37.74526358"}, {"name": "4단지세탁소", "category": "car", "outputcat": "자동차 정비/주유", "telephone": "031-852-6650", "longitude": "127.06079318", "latitude": "37.746818267"}, {"name": "5.5 닭갈비", "category": "food", "outputcat": "식품/음료", "longitude": "127.05760239", "latitude": "37.743432199"}, {"name": "55삭스", "category": "other", "outputcat": "의류", "telephone": "070-7672-0089", "longitude": "127.03077061", "latitude": "37.745766064"}, {"name": "59쌀피자", "category": "food", "outputcat": "식품/음료", "telephone": "031-841-5974", "longitude": "127.05965686", "latitude": "37.729736686"}, {"name": "59쌀피자 가능점", "category": "food", "outputcat": "식품/음료", "telephone": "031-871-0059", "longitude": "127.04234522", "latitude": "37.748789967"}, {"name": "5평디저트", "category": "food", "outputcat": "식품/음료", "telephone": "031-000-0000", "longitude": "127.04476119", "latitude": "37.727130139"}, {"name": "60계", "category": "food", "outputcat": "식품/음료", "telephone": "031-875-6006", "longitude": "127.04265221", "latitude": "37.728761603"}, {"name": "60계 녹양가능점", "category": "food", "outputcat": "식품/음료", "telephone": "031-876-8388", "longitude": "127.03429244", "latitude": "37.756513566"}, {"name": "60계 신곡장암점", "category": "food", "outputcat": "식품/음료", "telephone": "031-877-8686", "longitude": "127.05534714", "latitude": "37.730963985"}, {"name": "60계치킨 민락점", "category": "food", "outputcat": "식품/음료", "telephone": "031-853-8285", "longitude": "127.0986782", "latitude": "37.746739512"}, {"name": "60계치킨 신곡금오점", "category": "food", "outputcat": "식품/음료", "telephone": "031-851-7789", "longitude": "127.072539", "latitude": "37.74943369"}, {"name": "6층노래연습장", "category": "other", "outputcat": "레저업소", "telephone": "031-873-3479", "longitude": "127.04771098", "latitude": "37.709208969"}, {"name": "706살롱", "category": "med", "outputcat": "의료", "telephone": "031-853-0706", "longitude": "127.09850625", "latitude": "37.745379209"}, {"name": "707", "category": "other", "outputcat": "의류", "telephone": "070-4133-1707", "longitude": "127.05565368", "latitude": "37.731324231"}, {"name": "7080어드마이어", "category": "food", "outputcat": "식품/음료", "telephone": "031-821-8937", "longitude": "127.04784422", "latitude": "37.742039842"}, {"name": "7090 별이빛나는밤에", "category": "food", "outputcat": "식품/음료", "telephone": "031-836-6054", "longitude": "127.03457292", "latitude": "37.748981513"}, {"name": "70년대순대국", "category": "food", "outputcat": "식품/음료", "telephone": "031-874-2483", "longitude": "127.04723615", "latitude": "37.71168679"}, {"name": "72번가", "category": "food", "outputcat": "식품/음료", "telephone": "031-842-5524", "longitude": "127.05034348", "latitude": "37.747120252"}, {"name": "79대포 의정부중앙점", "category": "food", "outputcat": "식품/음료", "telephone": "031-827-4242", "longitude": "127.04981622", "latitude": "37.738678508"}, {"name": "79범표어묵", "category": "food", "outputcat": "식품/음료"}, {"name": "7단지 수학공부방", "category": "edu", "outputcat": "교육", "telephone": "031-878-2506", "longitude": "127.06078832", "latitude": "37.726015179"}, {"name": "7번가피자민락점", "category": "food", "outputcat": "식품/음료", "telephone": "031-853-7477", "longitude": "127.08992355", "latitude": "37.741016224"}, {"name": "7번출구", "category": "food", "outputcat": "식품/음료", "telephone": "031-878-7111", "longitude": "127.04704604", "latitude": "37.735319009"}, {"name": "8월의신부", "category": "other", "outputcat": "의류", "telephone": "031-8424-9332", "longitude": "127.05129317", "latitude": "37.741903333"}, {"name": "8월의신부", "category": "other", "outputcat": "의류", "telephone": "031-876-7519", "longitude": "127.04498308", "latitude": "37.738383017"}, {"name": "901스타일(Style)", "category": "other", "outputcat": "신변잡화", "telephone": "031-873-3669", "longitude": "127.04278765", "latitude": "37.748627646"}, {"name": "99숯불꼼장어", "category": "food", "outputcat": "식품/음료", "telephone": "031-877-9233", "longitude": "127.04404187", "latitude": "37.739149162"}, {"name": "@trip(엣트립)", "category": "med", "outputcat": "의료", "longitude": "127.04259857", "latitude": "37.73451874"}, {"name": "@trip(엣트립)", "longitude": "127.04259857", "latitude": "37.73451874"}, {"name": "A ONE 마트", "category": "shop", "outputcat": "마트/편의점", "telephone": "031-840-8900", "longitude": "127.04504678", "latitude": "37.750681037"}, {"name": "A+과학나라", "category": "other", "outputcat": "회원제형태", "telephone": "031-848-5442", "longitude": "127.06931652", "latitude": "37.749399512"}, {"name": "A+노래연습장", "category": "other", "outputcat": "레저업소", "telephone": "031-846-5564", "longitude": "127.04831803", "latitude": "37.737624975"}, {"name": "A+행복돌봄데이케어", "category": "med", "outputcat": "의료", "telephone": "031-847-9860", "longitude": "127.0697931", "latitude": "37.749426271"}, {"name": "A-ONE PC방", "category": "other", "outputcat": "레저업소", "telephone": "070-2636-8845", "longitude": "127.11276107", "latitude": "37.755898939"}, {"name": "A.J미용실", "category": "med", "outputcat": "의료", "telephone": "031-877-7770", "longitude": "127.04854414", "latitude": "37.736345529"}, {"name": "ACT SK 금호", "category": "other", "outputcat": "사무통신", "telephone": "070-8785-7135", "longitude": "127.07809498", "latitude": "37.7568181"}, {"name": "AEG서비스", "category": "car", "outputcat": "자동차 정비/주유"}, {"name": "AID곰돌이포토(의정부점)", "category": "other", "outputcat": "광학제품", "telephone": "031-846-3587", "longitude": "127.0480698", "latitude": "37.739850433"}, {"name": "AK9(에이케이나인)", "category": "edu", "outputcat": "교육", "longitude": "127.0435188", "latitude": "37.736960019"}, {"name": "ALL CAR 모터스", "category": "car", "outputcat": "자동차 정비/주유", "telephone": "031-878-7272", "longitude": "127.02448792", "latitude": "37.756236475"}, {"name": "ALL FOR YOU녹양점", "category": "other", "outputcat": "레져용품", "telephone": "031-821-8885", "longitude": "127.04302032", "latitude": "37.759258825"}, {"name": "ARNO(아르노)", "category": "food", "outputcat": "식품/음료", "telephone": "070-7469-2999", "longitude": "127.03843404", "latitude": "37.732123522"}, {"name": "AZ스튜디오", "category": "other", "outputcat": "광학제품", "telephone": "070-4068-8280", "longitude": "127.04712425", "latitude": "37.733291827"}, {"name": "After School(애프터스쿨)수학교습소", "category": "other", "outputcat": "회원제형태", "telephone": "070-4152-0016", "longitude": "127.04073664", "latitude": "37.731654308"}, {"name": "Amy", "category": "other", "outputcat": "의류", "telephone": "031-877-6953", "longitude": "127.04498308", "latitude": "37.738383017"}, {"name": "Art in Clay", "telephone": "031-829-1552", "longitude": "127.03821091", "latitude": "37.740015971"}, {"name": "Aube 오브", "category": "food", "outputcat": "식품/음료", "telephone": "031-866-0058", "longitude": "127.09342225", "latitude": "37.744572364"}, {"name": "A플러스 당구장", "category": "other", "outputcat": "레저업소", "telephone": "031-848-3742", "longitude": "127.08734863", "latitude": "37.741432537"}, {"name": "B&F헬스크럽", "category": "other", "outputcat": "회원제형태", "telephone": "031-856-7755", "longitude": "127.06157265", "latitude": "37.742484286"}, {"name": "B&K운동처방센터", "category": "med", "outputcat": "의료", "longitude": "127.0618797", "latitude": "37.729095914"}, {"name": "B&K운동처방센터", "category": "other", "outputcat": "회원제형태", "telephone": "031-846-0366", "longitude": "127.0618797", "latitude": "37.729095914"}, {"name": "B.2.F스포츠상사", "category": "other", "outputcat": "레져용품", "telephone": "031-846-7939", "longitude": "127.05757405", "latitude": "37.751180425"}, {"name": "B.B", "category": "other", "outputcat": "광학제품", "telephone": "031-850-8055", "longitude": "127.07098692", "latitude": "37.752065384"}, {"name": "B.H.C치킨", "category": "food", "outputcat": "식품/음료", "telephone": "031-826-3332", "longitude": "127.03643286", "latitude": "37.746980878"}, {"name": "B2.준헤어", "category": "med", "outputcat": "의료", "telephone": "031-879-0449", "longitude": "127.0433547", "latitude": "37.727265774"}, {"name": "BBQ올리브떡볶이", "category": "food", "outputcat": "식품/음료"}, {"name": "BBQ참숯바베큐치킨", "category": "food", "outputcat": "식품/음료", "telephone": "031-856-9288", "longitude": "127.05701205", "latitude": "37.742927936"}, {"name": "BCS이두희모터스", "category": "car", "outputcat": "자동차 정비/주유", "telephone": "031-871-1345", "longitude": "127.04356753", "latitude": "37.722346467"}, {"name": "BEBOP (비밥)", "category": "food", "outputcat": "식품/음료", "telephone": "031-848-0904", "longitude": "127.04851252", "latitude": "37.740264702"}, {"name": "BELAMI(벨아미)", "category": "other", "outputcat": "신변잡화", "telephone": "031-824-1802", "longitude": "127.08936778", "latitude": "37.741151777"}, {"name": "BF(비에프)", "category": "food", "outputcat": "식품/음료", "telephone": "031-1111-1111", "longitude": "127.09692884", "latitude": "37.745128211"}, {"name": "BF자동차매매상사", "category": "car", "outputcat": "자동차 정비/주유", "telephone": "070-4603-4020", "longitude": "127.05532331", "latitude": "37.745433356"}, {"name": "BHC 금오동점", "category": "food", "outputcat": "식품/음료", "telephone": "031-851-9982", "longitude": "127.06920516", "latitude": "37.751760076"}, {"name": "BHC치킨", "category": "food", "outputcat": "식품/음료", "telephone": "031-873-9995", "longitude": "127.03940206", "latitude": "37.739817398"}, {"name": "BHC치킨", "category": "food", "outputcat": "식품/음료"}, {"name": "BJ유통", "category": "food", "outputcat": "식품/음료", "telephone": "031-871-7856", "longitude": "127.0477338", "latitude": "37.747067216"}, {"name": "BLess.u (블레쓰.유)", "category": "food", "outputcat": "식품/음료", "telephone": "070-8869-9359", "longitude": "127.06132224", "latitude": "37.74145732"}, {"name": "BMW노래영상제작실", "category": "other", "outputcat": "용역 서비스", "telephone": "031-878-2596", "longitude": "127.04066011", "latitude": "37.737321352"}, {"name": "BOBOS 안경", "category": "med", "outputcat": "의료", "telephone": "031-852-2262", "longitude": "127.0957594", "latitude": "37.74448946"}, {"name": "BT모터스", "category": "car", "outputcat": "자동차 정비/주유", "telephone": "070-8872-3438", "longitude": "127.07901492", "latitude": "37.757565301"}, {"name": "BUYPHONE", "category": "other", "outputcat": "사무통신", "telephone": "070-8782-5445", "longitude": "127.04734839", "latitude": "37.747680012"}, {"name": "Babi(바비)", "category": "other", "outputcat": "의류", "telephone": "031-844-7458", "longitude": "127.04881795", "latitude": "37.738823054"}, {"name": "Bath(카페바스)", "category": "food", "outputcat": "식품/음료", "telephone": "02-0000-0000", "longitude": "127.05042747", "latitude": "37.736515967"}, {"name": "Blacklash", "category": "other", "outputcat": "회원제형태"}, {"name": "Bob's Car", "category": "car", "outputcat": "자동차 정비/주유", "telephone": "031-872-0460", "longitude": "127.04277121", "latitude": "37.73912257"}, {"name": "Bob's car", "category": "car", "outputcat": "자동차 정비/주유", "telephone": "031-872-0460", "longitude": "127.04277121", "latitude": "37.73912257"}, {"name": "Body design club(바디디자인클럽)", "category": "other", "outputcat": "회원제형태", "telephone": "031-853-2515", "longitude": "127.06889872", "latitude": "37.751679162"}, {"name": "Bueoker by.g(부엌커바이지)", "category": "food", "outputcat": "식품/음료", "longitude": "127.04809423", "latitude": "37.742706454"}, {"name": "By홍", "category": "med", "outputcat": "의료", "longitude": "127.06954592", "latitude": "37.752156303"}, {"name": "C.M.S", "category": "other", "outputcat": "사무통신", "telephone": "02-3492-1998", "longitude": "127.04573904", "latitude": "37.750869988"}, {"name": "CARAUDIODC", "category": "other", "outputcat": "전기제품", "telephone": "031-836-2272", "longitude": "127.05540956", "latitude": "37.690826159"}, {"name": "CH'S PIZZA ZIP(초이스피자집)", "category": "food", "outputcat": "식품/음료", "telephone": "031-852-1117", "longitude": "127.09578543", "latitude": "37.747156266"}, {"name": "CJN", "category": "med", "outputcat": "의료", "telephone": "031-853-6226", "longitude": "127.0698176", "latitude": "37.751426377"}, {"name": "CJ뚜레쥬르", "category": "food", "outputcat": "식품/음료", "telephone": "031-853-2439", "longitude": "127.06843413", "latitude": "37.752400185"}, {"name": "CL헤어샵", "category": "med", "outputcat": "의료", "telephone": "031-821-5102", "longitude": "127.05701205", "latitude": "37.742927936"}, {"name": "CNS", "category": "edu", "outputcat": "교육", "telephone": "031-824-1524", "longitude": "127.04282522", "latitude": "37.734068185"}, {"name": "CODI", "category": "other", "outputcat": "의류"}, {"name": "COFFEE MOMS커피맘스", "category": "food", "outputcat": "식품/음료", "telephone": "070-4203-8416", "longitude": "127.06937609", "latitude": "37.752570838"}, {"name": "COFFEE O'CLOCK(커피어클락)", "category": "food", "outputcat": "식품/음료", "telephone": "031-871-0703", "longitude": "127.04071216", "latitude": "37.75043024"}, {"name": "CORE(코레)", "category": "food", "outputcat": "식품/음료", "telephone": "031-846-0450", "longitude": "127.09520611", "latitude": "37.746625158"}, {"name": "CRAFT SHOP", "category": "other", "outputcat": "회원제형태", "telephone": "031-871-7477", "longitude": "127.03812514", "latitude": "37.750539156"}, {"name": "CS OA", "category": "other", "outputcat": "사무통신", "telephone": "031-879-8507"}, {"name": "CSH커피", "category": "food", "outputcat": "식품/음료", "longitude": "127.05670704", "latitude": "37.744766025"}, {"name": "CUP.P.JUS(커피쥬스)", "category": "food", "outputcat": "식품/음료", "telephone": "031-871-1636", "longitude": "127.04962374", "latitude": "37.739291234"}, {"name": "Cafe 여로", "category": "food", "outputcat": "식품/음료", "longitude": "127.01852062", "latitude": "37.763760376"}, {"name": "Cho's piano과외교습소", "category": "edu", "outputcat": "교육", "telephone": "031-877-9938", "longitude": "127.05590379", "latitude": "37.732098942"}, {"name": "CoffeetheFANI(커피더파니)", "category": "food", "outputcat": "식품/음료", "telephone": "070-7010-7040", "longitude": "127.0383463", "latitude": "37.738430248"}, {"name": "Computopia", "category": "other", "outputcat": "사무통신", "telephone": "070-8242-1666", "longitude": "127.09194981", "latitude": "37.737212676"}, {"name": "Cutie skin care", "category": "med", "outputcat": "의료", "telephone": "031-851-1511", "longitude": "127.09642996", "latitude": "37.745398894"}, {"name": "D&C푸드", "category": "food", "outputcat": "식품/음료", "telephone": "031-848-3655", "longitude": "127.04003803", "latitude": "37.741096557"}, {"name": "D.C스포츠", "category": "other", "outputcat": "레저업소"}, {"name": "DAY OFF(데이오프)", "category": "food", "outputcat": "식품/음료", "longitude": "127.10445818", "latitude": "37.750212358"}, {"name": "DIGITALHP의정부", "category": "other", "outputcat": "사무통신", "telephone": "031-873-6119", "longitude": "127.04756741", "latitude": "37.734516961"}, {"name": "DK멀티짐", "category": "other", "outputcat": "회원제형태", "telephone": "070-2062-2499", "longitude": "127.05046301", "latitude": "37.738876459"}, {"name": "DREAM(드림)155", "category": "other", "outputcat": "레저업소"}, {"name": "DS전광", "category": "other", "outputcat": "용역 서비스", "telephone": "031-879-1437", "longitude": "127.04598548", "latitude": "37.706209411"}, {"name": "DUTCH480 K.H", "category": "food", "outputcat": "식품/음료", "telephone": "031-871-8167", "longitude": "127.04854113", "latitude": "37.731435314"}, {"name": "DUTCH480K.H", "category": "food", "outputcat": "식품/음료", "telephone": "070-7788-0480", "longitude": "127.04854113", "latitude": "37.731435314"}, {"name": "Design Interior", "category": "other", "outputcat": "건축자재", "telephone": "070-4076-6669", "longitude": "127.09070425", "latitude": "37.739213733"}, {"name": "Do Do hair", "category": "med", "outputcat": "의료", "telephone": "031-848-0111", "longitude": "127.05006731", "latitude": "37.741038913"}, {"name": "Dr.K두바퀴세상", "category": "other", "outputcat": "레져용품", "telephone": "031-821-7647", "longitude": "127.04782441", "latitude": "37.746814914"}, {"name": "Dream tattoo", "category": "med", "outputcat": "의료", "telephone": "031-826-0682", "longitude": "127.04659612", "latitude": "37.74187814"}, {"name": "E-서울치과", "category": "med", "outputcat": "의료", "telephone": "031-853-7575", "longitude": "127.0702126", "latitude": "37.749065651"}, {"name": "E.J홈스쿨", "category": "edu", "outputcat": "교육"}, {"name": "E.S.C상사", "category": "other", "outputcat": "의류"}, {"name": "E.S천연핸드메이드", "category": "med", "outputcat": "의료", "telephone": "031-836-7814", "longitude": "127.03781902", "latitude": "37.751070811"}, {"name": "EDS금오셀프세차타운", "category": "car", "outputcat": "자동차 정비/주유", "telephone": "031-821-2337", "longitude": "127.0698199", "latitude": "37.753985085"}, {"name": "EZ9당구클럽", "category": "other", "outputcat": "레저업소", "telephone": "031-111-1111", "longitude": "127.09687147", "latitude": "37.744623721"}, {"name": "Emperia(엠페리아)", "category": "food", "outputcat": "식품/음료", "telephone": "070-7716-8051", "longitude": "127.04771098", "latitude": "37.709208969"}, {"name": "FM노래연습장", "category": "other", "outputcat": "레저업소", "telephone": "031-826-2323", "longitude": "127.04840254", "latitude": "37.708875348"}, {"name": "FM수학전문학원", "category": "edu", "outputcat": "교육", "telephone": "031-851-8626", "longitude": "127.0957594", "latitude": "37.74448946"}, {"name": "FeelLife(필라이프)", "category": "other", "outputcat": "건축자재", "telephone": "031-861-4158", "longitude": "127.07915241", "latitude": "37.736735133"}, {"name": "Flexible 스페이스", "category": "other", "outputcat": "용역 서비스", "telephone": "031-872-5320", "longitude": "127.04334997", "latitude": "37.739428698"}, {"name": "G#헤어", "category": "med", "outputcat": "의료", "telephone": "070-8222-8601", "longitude": "127.07456709", "latitude": "37.75812668"}, {"name": "G.M노래연습장", "category": "other", "outputcat": "레저업소", "telephone": "031-837-0655", "longitude": "127.03845822", "latitude": "37.735240827"}, {"name": "GA골프아카데미", "category": "other", "outputcat": "레저업소", "telephone": "031-851-9080", "longitude": "127.06954592", "latitude": "37.752156303"}, {"name": "GG자동차정비센타", "category": "car", "outputcat": "자동차 정비/주유", "telephone": "031-852-6677", "longitude": "127.08906855", "latitude": "37.737485104"}, {"name": "GH자연건강", "category": "med", "outputcat": "의료", "telephone": "031-829-0402", "longitude": "127.04584863", "latitude": "37.724516968"}, {"name": "GS25 용현건영점", "category": "shop", "outputcat": "마트/편의점", "longitude": "127.07870875", "latitude": "37.735546156"}, {"name": "GS25R의정부4점", "category": "shop", "outputcat": "마트/편의점", "longitude": "127.0399914", "latitude": "37.738600923"}, {"name": "GS25R의정부5점", "category": "shop", "outputcat": "마트/편의점", "longitude": "127.0399914", "latitude": "37.738600923"}, {"name": "GS25가능로드점", "category": "shop", "outputcat": "마트/편의점", "longitude": "127.0226573", "latitude": "37.742542282"}, {"name": "GS25가능문화점", "category": "shop", "outputcat": "마트/편의점", "longitude": "127.04418221", "latitude": "37.746708132"}, {"name": "GS25가능빌리지점", "category": "shop", "outputcat": "마트/편의점", "longitude": "127.04573916", "latitude": "37.751068198"}, {"name": "GS25가능우미점", "category": "shop", "outputcat": "마트/편의점", "longitude": "127.03273324", "latitude": "37.745152934"}, {"name": "GS25가능타운점", "category": "shop", "outputcat": "마트/편의점", "longitude": "127.03470749", "latitude": "37.745260532"}, {"name": "GS25가능행복점", "category": "shop", "outputcat": "마트/편의점", "telephone": "02-2006-2118", "longitude": "127.03970915", "latitude": "37.741375957"}, {"name": "GS25경민대정문점", "category": "shop", "outputcat": "마트/편의점", "longitude": "127.02612973", "latitude": "37.744703943"}, {"name": "GS25경의초교점", "category": "shop", "outputcat": "마트/편의점", "longitude": "127.0518207", "latitude": "37.733235914"}, {"name": "GS25금오그린빌점", "category": "shop", "outputcat": "마트/편의점", "longitude": "127.07284862", "latitude": "37.752902181"}, {"name": "GS25금오브래뉴점", "category": "shop", "outputcat": "마트/편의점"}, {"name": "GS25금오종합점", "category": "shop", "outputcat": "마트/편의점", "telephone": "02-2006-2118", "longitude": "127.07221082", "latitude": "37.750370877"}, {"name": "GS25금오주공점", "category": "shop", "outputcat": "마트/편의점", "telephone": "02-2006-2118", "longitude": "127.07909727", "latitude": "37.749348547"}, {"name": "GS25금오행정타운점", "category": "shop", "outputcat": "마트/편의점", "longitude": "127.07137456", "latitude": "37.754065278"}, {"name": "GS25금오현대점", "category": "shop", "outputcat": "마트/편의점", "longitude": "127.06864857", "latitude": "37.751093681"}, {"name": "GS25녹양타운점", "category": "shop", "outputcat": "마트/편의점", "longitude": "127.03385118", "latitude": "37.759649"}, {"name": "GS25녹양행복점", "category": "shop", "outputcat": "마트/편의점", "longitude": "127.04162652", "latitude": "37.76312438"}, {"name": "GS25녹양힐스테이트점", "category": "shop", "outputcat": "마트/편의점", "longitude": "127.04129258", "latitude": "37.753790612"}, {"name": "GS25뉴녹양역점", "category": "shop", "outputcat": "마트/편의점", "longitude": "127.04095555", "latitude": "37.760403721"}, {"name": "GS25민락금강점", "category": "shop", "outputcat": "마트/편의점", "longitude": "127.09922753", "latitude": "37.750378921"}, {"name": "GS25민락뉴시티점", "category": "shop", "outputcat": "마트/편의점", "longitude": "127.10122889", "latitude": "37.745070644"}, {"name": "GS25민락대림점", "category": "shop", "outputcat": "마트/편의점", "longitude": "127.09375533", "latitude": "37.738598771"}, {"name": "GS25민락본점", "category": "shop", "outputcat": "마트/편의점", "telephone": "02-2006-2118", "longitude": "127.09068238", "latitude": "37.739907486"}, {"name": "GS25민락월드점", "category": "shop", "outputcat": "마트/편의점", "longitude": "127.0939233", "latitude": "37.746067563"}, {"name": "GS25민락호반점", "category": "shop", "outputcat": "마트/편의점", "longitude": "127.10706952", "latitude": "37.751345281"}, {"name": "GS25송산1단지점", "category": "shop", "outputcat": "마트/편의점", "longitude": "127.08178737", "latitude": "37.750238722"}, {"name": "GS25송산4단지점", "category": "shop", "outputcat": "마트/편의점"}, {"name": "GS25신곡그린빌점", "category": "shop", "outputcat": "마트/편의점", "longitude": "127.06079318", "latitude": "37.746818267"}, {"name": "GS25신곡본점", "category": "shop", "outputcat": "마트/편의점", "telephone": "031-829-7401"}, {"name": "GS25신곡으뜸점", "category": "shop", "outputcat": "마트/편의점", "longitude": "127.05546083", "latitude": "37.731324317"}, {"name": "GS25신곡은하수점", "category": "shop", "outputcat": "마트/편의점"}, {"name": "GS25신곡한일점", "category": "shop", "outputcat": "마트/편의점", "telephone": "02-2006-2485", "longitude": "127.06426709", "latitude": "37.735455454"}, {"name": "GS25신한대점", "category": "shop", "outputcat": "마트/편의점", "longitude": "127.04637205", "latitude": "37.707939115"}, {"name": "GS25용현베르우스점", "category": "shop", "outputcat": "마트/편의점", "longitude": "127.08636799", "latitude": "37.737045579"}, {"name": "GS25용현브래뉴점", "category": "shop", "outputcat": "마트/편의점", "longitude": "127.08400752", "latitude": "37.736344481"}, {"name": "GS25의정가능점", "category": "shop", "outputcat": "마트/편의점", "longitude": "127.0342095", "latitude": "37.748206789"}, {"name": "GS25의정가락점", "category": "shop", "outputcat": "마트/편의점", "longitude": "127.03607559", "latitude": "37.734601842"}, {"name": "GS25의정경찰서점", "category": "shop", "outputcat": "마트/편의점", "longitude": "127.04415759", "latitude": "37.743239462"}, {"name": "GS25의정고산점", "category": "shop", "outputcat": "마트/편의점", "longitude": "127.10026564", "latitude": "37.728628989"}, {"name": "GS25의정그랑빌점", "category": "shop", "outputcat": "마트/편의점", "longitude": "127.04840365", "latitude": "37.747760695"}, {"name": "GS25의정그린빌점", "category": "shop", "outputcat": "마트/편의점", "longitude": "127.06265662", "latitude": "37.750123841"}, {"name": "GS25의정녹양지점", "category": "shop", "outputcat": "마트/편의점", "telephone": "02-2006-2485", "longitude": "127.03434993", "latitude": "37.758288429"}, {"name": "GS25의정능곡점", "category": "shop", "outputcat": "마트/편의점", "longitude": "127.06157105", "latitude": "37.740457136"}, {"name": "GS25의정대로점", "category": "shop", "outputcat": "마트/편의점", "longitude": "127.04832252", "latitude": "37.707821254"}, {"name": "GS25의정대우점", "category": "shop", "outputcat": "마트/편의점"}, {"name": "GS25의정동부점", "category": "shop", "outputcat": "마트/편의점", "telephone": "031-848-0388", "longitude": "127.04856642", "latitude": "37.735678813"}, {"name": "GS25의정레쉬빌점", "category": "shop", "outputcat": "마트/편의점", "longitude": "127.04473297", "latitude": "37.737455121"}, {"name": "GS25의정리빙점", "category": "shop", "outputcat": "마트/편의점", "longitude": "127.04415277", "latitude": "37.734545235"}, {"name": "GS25의정문화점", "category": "shop", "outputcat": "마트/편의점", "longitude": "127.05701205", "latitude": "37.742927936"}, {"name": "GS25의정미도점", "category": "shop", "outputcat": "마트/편의점"}, {"name": "GS25의정반디점", "category": "shop", "outputcat": "마트/편의점", "longitude": "127.04148384", "latitude": "37.7506282"}, {"name": "GS25의정백석천점", "category": "shop", "outputcat": "마트/편의점", "longitude": "127.03845822", "latitude": "37.735240827"}, {"name": "GS25의정범골점", "category": "shop", "outputcat": "마트/편의점", "longitude": "127.03860164", "latitude": "37.726789801"}, {"name": "GS25의정부SK점", "category": "shop", "outputcat": "마트/편의점", "longitude": "127.03493642", "latitude": "37.749927417"}, {"name": "GS25의정부소영점", "category": "shop", "outputcat": "마트/편의점", "longitude": "127.06812771", "latitude": "37.752346297"}, {"name": "GS25의정부역점", "category": "shop", "outputcat": "마트/편의점", "telephone": "031-847-2285", "longitude": "127.04676587", "latitude": "37.741157312"}, {"name": "GS25의정부용현점", "category": "shop", "outputcat": "마트/편의점", "longitude": "127.08693112", "latitude": "37.733405314"}, {"name": "GS25의정부중앙역점", "category": "shop", "outputcat": "마트/편의점", "longitude": "127.05068178", "latitude": "37.743876676"}, {"name": "GS25의정부현대점", "category": "shop", "outputcat": "마트/편의점", "longitude": "127.03629881", "latitude": "37.751674891"}, {"name": "GS25의정북부역점", "category": "shop", "outputcat": "마트/편의점", "telephone": "02-2006-2118", "longitude": "127.04468228", "latitude": "37.748203541"}, {"name": "GS25의정사랑점", "category": "shop", "outputcat": "마트/편의점", "longitude": "127.09084959", "latitude": "37.737402703"}, {"name": "GS25의정산단점", "category": "shop", "outputcat": "마트/편의점", "telephone": "031-852-8452", "longitude": "127.084367", "latitude": "37.743461786"}, {"name": "GS25의정소망점", "category": "shop", "outputcat": "마트/편의점", "telephone": "02-2006-2485", "longitude": "127.04918014", "latitude": "37.737462468"}, {"name": "GS25의정송산점", "category": "shop", "outputcat": "마트/편의점", "longitude": "127.05159622", "latitude": "37.736902901"}, {"name": "GS25의정시민로점", "category": "shop", "outputcat": "마트/편의점", "longitude": "127.04279327", "latitude": "37.737960329"}, {"name": "GS25의정시티점", "category": "shop", "outputcat": "마트/편의점"}, {"name": "GS25의정신곡점", "category": "shop", "outputcat": "마트/편의점", "telephone": "02-2006-2485", "longitude": "127.05929443", "latitude": "37.730484655"}, {"name": "GS25의정신도드림점", "category": "shop", "outputcat": "마트/편의점"}, {"name": "GS25의정신세계점", "category": "shop", "outputcat": "마트/편의점", "longitude": "127.0698176", "latitude": "37.751426377"}, {"name": "GS25의정신흥로점", "category": "shop", "outputcat": "마트/편의점", "longitude": "127.04281702", "latitude": "37.739933415"}, {"name": "GS25의정우정점", "category": "shop", "outputcat": "마트/편의점", "longitude": "127.04162253", "latitude": "37.733708203"}, {"name": "GS25의정은빛점", "category": "shop", "outputcat": "마트/편의점", "longitude": "127.04723282", "latitude": "37.706100833"}, {"name": "GS25의정이편한점", "category": "shop", "outputcat": "마트/편의점"}, {"name": "GS25의정장암IC점", "category": "shop", "outputcat": "마트/편의점", "longitude": "127.05492966", "latitude": "37.701737033"}, {"name": "GS25의정중앙로점", "category": "shop", "outputcat": "마트/편의점", "longitude": "127.04868287", "latitude": "37.740543933"}, {"name": "GS25의정중앙초교점", "category": "shop", "outputcat": "마트/편의점", "longitude": "127.04623498", "latitude": "37.745175771"}, {"name": "GS25의정청사점", "category": "shop", "outputcat": "마트/편의점", "longitude": "127.0697931", "latitude": "37.749426271"}, {"name": "GS25의정캐슬1단지점", "category": "shop", "outputcat": "마트/편의점", "longitude": "127.03695793", "latitude": "37.72909674"}, {"name": "GS25의정캐슬2단지점", "category": "shop", "outputcat": "마트/편의점", "longitude": "127.03573379", "latitude": "37.731268396"}, {"name": "GS25의정캐슬점", "category": "shop", "outputcat": "마트/편의점", "longitude": "127.03695793", "latitude": "37.72909674"}, {"name": "GS25의정태평점", "category": "shop", "outputcat": "마트/편의점", "longitude": "127.04979116", "latitude": "37.734930538"}, {"name": "GS25의정파워점", "category": "shop", "outputcat": "마트/편의점", "telephone": "02-2006-2485", "longitude": "127.04148829", "latitude": "37.737348113"}, {"name": "GS25의정평화로점", "category": "shop", "outputcat": "마트/편의점"}, {"name": "GS25의정한도빌점", "category": "shop", "outputcat": "마트/편의점", "longitude": "127.04365695", "latitude": "37.740626864"}, {"name": "GS25의정한주점", "category": "shop", "outputcat": "마트/편의점", "longitude": "127.04939913", "latitude": "37.724821947"}, {"name": "GS25의정해궁점", "category": "shop", "outputcat": "마트/편의점", "longitude": "127.04321017", "latitude": "37.732680579"}, {"name": "GS25의정해태점", "category": "shop", "outputcat": "마트/편의점", "longitude": "127.04479071", "latitude": "37.739266023"}, {"name": "GS25의정행복점", "category": "shop", "outputcat": "마트/편의점", "telephone": "031-829-2766", "longitude": "127.04784422", "latitude": "37.742039842"}, {"name": "GS25의정휴먼시아점", "category": "shop", "outputcat": "마트/편의점", "longitude": "127.03821", "latitude": "37.761981243"}, {"name": "GS25의정희망점", "category": "shop", "outputcat": "마트/편의점", "longitude": "127.04782441", "latitude": "37.746814914"}, {"name": "GS25장암주공점", "category": "shop", "outputcat": "마트/편의점", "longitude": "127.06178673", "latitude": "37.726293981"}, {"name": "GS25장암현대점", "category": "shop", "outputcat": "마트/편의점", "telephone": "02-2006-2485", "longitude": "127.0554369", "latitude": "37.72956746"}, {"name": "GS25축석옹달샘점", "category": "shop", "outputcat": "마트/편의점", "longitude": "127.11344991", "latitude": "37.776512072"}, {"name": "GS25호원가나안점", "category": "shop", "outputcat": "마트/편의점", "longitude": "127.04776942", "latitude": "37.71210103"}, {"name": "GS25호원두산점", "category": "shop", "outputcat": "마트/편의점", "longitude": "127.04479662", "latitude": "37.72962578"}, {"name": "GS25호원풍림점", "category": "shop", "outputcat": "마트/편의점", "longitude": "127.04234675", "latitude": "37.730293334"}, {"name": "GS25회룡광장점", "category": "shop", "outputcat": "마트/편의점", "longitude": "127.04762944", "latitude": "37.724489277"}, {"name": "GS25회룡역점", "category": "shop", "outputcat": "마트/편의점", "longitude": "127.04584863", "latitude": "37.724516968"}, {"name": "GS스크린골프", "category": "other", "outputcat": "회원제형태", "telephone": "031-853-7962", "longitude": "127.08651641", "latitude": "37.737874354"}, {"name": "GS이불 보몽드", "category": "other", "outputcat": "직물"}, {"name": "GT호암도장", "category": "edu", "outputcat": "교육", "telephone": "031-872-9791", "longitude": "127.049014", "latitude": "37.707379515"}, {"name": "GUSIGI 거시기/(주)디에이치컴퍼니", "category": "other", "outputcat": "의류", "telephone": "031-848-1591", "longitude": "127.04931681", "latitude": "37.738318323"}, {"name": "GV전자담배(그린베이퍼)", "category": "other", "outputcat": "기타", "telephone": "031-872-0855", "longitude": "127.05363141", "latitude": "37.726847358"}, {"name": "GY 뷰티 아로마", "category": "med", "outputcat": "의료", "telephone": "031-876-8943", "longitude": "127.09658801", "latitude": "37.7447681"}, {"name": "GY비엔에이", "category": "med", "outputcat": "의료", "telephone": "031-876-8943", "longitude": "127.04307404", "latitude": "37.732680626"}, {"name": "GaGa헤어스토리", "category": "med", "outputcat": "의료", "telephone": "031-821-1982", "longitude": "127.06181666", "latitude": "37.735429676"}, {"name": "GnB영어뉴프라임학원", "category": "edu", "outputcat": "교육", "telephone": "031-853-7874", "longitude": "127.09234834", "latitude": "37.738428665"}, {"name": "Golfzon Park 금오해피스크린점", "category": "other", "outputcat": "레저업소", "telephone": "031-847-8025", "longitude": "127.07498534", "latitude": "37.756459662"}, {"name": "G테크", "category": "other", "outputcat": "사무통신", "telephone": "070-4123-0705", "longitude": "127.0796203", "latitude": "37.750402324"}, {"name": "HAIR by YUN", "category": "med", "outputcat": "의료", "telephone": "031-853-6397", "longitude": "127.06648942", "latitude": "37.747319866"}, {"name": "HELPCOM", "category": "other", "outputcat": "사무통신", "telephone": "031-877-2743", "longitude": "127.04304862", "latitude": "37.748627558"}, {"name": "HM상사", "category": "edu", "outputcat": "교육"}, {"name": "HOO CHOO 후추", "category": "food", "outputcat": "식품/음료", "telephone": "031-1111-1111", "longitude": "127.09904178", "latitude": "37.747126626"}, {"name": "HS", "category": "other", "outputcat": "회원제형태", "telephone": "031-846-4930", "longitude": "127.05882337", "latitude": "37.752711461"}, {"name": "HS bio (에이치에스바이오)", "category": "edu", "outputcat": "교육", "telephone": "070-4042-0551", "longitude": "127.0607047", "latitude": "37.735177959"}, {"name": "HS케미칼(HS chemical)", "category": "edu", "outputcat": "교육"}, {"name": "HS코퍼레이션", "category": "med", "outputcat": "의료", "telephone": "031-824-0650", "longitude": "127.08687729", "latitude": "37.735964069"}, {"name": "Hair Waver", "category": "med", "outputcat": "의료", "longitude": "127.08685021", "latitude": "37.742126629"}, {"name": "Hit Dance School", "category": "other", "outputcat": "회원제형태", "telephone": "070-8659-8982", "longitude": "127.0698176", "latitude": "37.751426377"}, {"name": "Hustler", "category": "other", "outputcat": "의류"}, {"name": "Hwi Cake House(휘케익하우스)", "category": "food", "outputcat": "식품/음료"}, {"name": "H스피닝 요가 필라테스", "category": "other", "outputcat": "레저업소", "telephone": "031-874-6733", "longitude": "127.04840132", "latitude": "37.706875215"}, {"name": "H점핑프로틴 다이어트", "category": "other", "outputcat": "회원제형태", "telephone": "031-853-2988", "longitude": "127.0924037", "latitude": "37.737293418"}, {"name": "H헤어", "category": "med", "outputcat": "의료", "telephone": "031-826-4172", "longitude": "127.05643112", "latitude": "37.723990081"}, {"name": "H헤어", "category": "med", "outputcat": "의료", "telephone": "031-837-2356", "longitude": "127.04865079", "latitude": "37.706848089"}, {"name": "I HATE MONDAY/삼원FA(일반)", "category": "other", "outputcat": "기타"}, {"name": "I-Sensation(아이센세이션)", "category": "other", "outputcat": "용역 서비스", "telephone": "031-853-9799", "longitude": "127.06845611", "latitude": "37.751598323"}, {"name": "I-WATER", "category": "other", "outputcat": "용역 서비스", "telephone": "02-432-5119", "longitude": "127.04524168", "latitude": "37.73429258"}, {"name": "I.P.S", "category": "other", "outputcat": "사무통신", "telephone": "031-853-0886", "longitude": "127.03487659", "latitude": "37.742737811"}, {"name": "IK", "category": "edu", "outputcat": "교육"}, {"name": "ING핫요가", "category": "other", "outputcat": "회원제형태", "telephone": "031-851-5922", "longitude": "127.08734414", "latitude": "37.737486352"}, {"name": "INPC", "category": "other", "outputcat": "전기제품", "telephone": "02-1566-3633", "longitude": "127.06453622", "latitude": "37.745347812"}, {"name": "IOT세상", "category": "other", "outputcat": "용역 서비스", "longitude": "127.08556149", "latitude": "37.736127172"}, {"name": "IT Network Co.", "category": "other", "outputcat": "사무통신", "telephone": "031-829-7974", "longitude": "127.0379839", "latitude": "37.7397908"}, {"name": "ITQ의정부센터", "category": "edu", "outputcat": "교육", "telephone": "031-853-9408", "longitude": "127.05701205", "latitude": "37.742927936"}, {"name": "IVY(아이비)", "category": "other", "outputcat": "의류", "telephone": "031-848-0321", "longitude": "127.05043073", "latitude": "37.741624388"}, {"name": "Icon PC", "category": "car", "outputcat": "자동차 정비/주유", "telephone": "031-829-7119", "longitude": "127.07221082", "latitude": "37.750370877"}, {"name": "I모텔", "category": "trip", "outputcat": "숙박업", "telephone": "031-844-5671", "longitude": "127.05332418", "latitude": "37.74215475"}, {"name": "J&K shop", "category": "other", "outputcat": "의류", "longitude": "127.04779498", "latitude": "37.735652081"}, {"name": "J&K즉석떡볶이카페", "category": "food", "outputcat": "식품/음료", "telephone": "070-8261-2661", "longitude": "127.0508465", "latitude": "37.73540762"}, {"name": "J(제이)헤어샵", "category": "med", "outputcat": "의료", "telephone": "031-821-7886", "longitude": "127.05531743", "latitude": "37.737099515"}, {"name": "J.K바이크", "category": "car", "outputcat": "자동차 정비/주유", "telephone": "070-7799-5282", "longitude": "127.05446365", "latitude": "37.749235765"}, {"name": "J.S기획", "category": "other", "outputcat": "전기제품"}, {"name": "J.S시스템", "category": "other", "outputcat": "사무통신", "telephone": "031-877-8110", "longitude": "127.03943544", "latitude": "37.738483972"}, {"name": "J.S유통", "category": "other", "outputcat": "의류", "longitude": "127.04870873", "latitude": "37.727290843"}, {"name": "J.Won라떼(제이원라떼)", "category": "food", "outputcat": "식품/음료", "telephone": "031-872-0108", "longitude": "127.0383463", "latitude": "37.738430248"}, {"name": "J.Y텔레콤", "category": "other", "outputcat": "사무통신", "telephone": "031-844-0100", "longitude": "127.04757096", "latitude": "37.740427235"}, {"name": "J2 Corp", "category": "other", "outputcat": "의류", "telephone": "031-851-2881", "longitude": "127.0879791", "latitude": "37.73717957"}, {"name": "JC Coffee(제이씨커피)/제이씨사회적협동조", "category": "food", "outputcat": "식품/음료", "telephone": "070-4818-2321", "longitude": "127.04765652", "latitude": "37.731796037"}, {"name": "JC제이클럽", "category": "other", "outputcat": "의류", "telephone": "031-844-0578", "longitude": "127.04820882", "latitude": "37.744571388"}, {"name": "JD뷰티샵", "category": "other", "outputcat": "의류", "telephone": "031-855-6756", "longitude": "127.06923732", "latitude": "37.749651824"}, {"name": "JH 인터네셔널", "category": "other", "outputcat": "레져용품", "telephone": "031-873-8243", "longitude": "127.04965494", "latitude": "37.734795448"}, {"name": "JH에어컨", "category": "other", "outputcat": "용역 서비스"}, {"name": "JJun Lighting/LEDS", "category": "other", "outputcat": "건축자재", "telephone": "031-848-1879", "longitude": "127.08450986", "latitude": "37.728902228"}, {"name": "JJ당구클럽", "category": "other", "outputcat": "레저업소", "telephone": "031-111-1111", "longitude": "127.03409699", "latitude": "37.750486234"}, {"name": "JK유통", "category": "food", "outputcat": "식품/음료", "telephone": "031-841-8436", "longitude": "127.10581413", "latitude": "37.721542744"}, {"name": "JK정보통신", "category": "other", "outputcat": "사무통신"}, {"name": "JM 뫼비우스", "category": "med", "outputcat": "의료", "longitude": "127.03246417", "latitude": "37.753288624"}, {"name": "JM인터내셔날", "category": "med", "outputcat": "의료", "telephone": "031-826-3595", "longitude": "127.05565342", "latitude": "37.730963848"}, {"name": "JM인테리어", "category": "other", "outputcat": "건축자재", "telephone": "031-846-5688", "longitude": "127.10161602", "latitude": "37.720465184"}, {"name": "JO(의류)", "category": "other", "outputcat": "의류"}, {"name": "JP I&C", "category": "other", "outputcat": "건축자재", "telephone": "070-8274-2292", "longitude": "127.02632246", "latitude": "37.744235408"}, {"name": "JP(모바일)", "category": "other", "outputcat": "사무통신", "telephone": "070-7420-7562", "longitude": "127.04501122", "latitude": "37.748014223"}, {"name": "JP스튜디오", "category": "other", "outputcat": "광학제품", "telephone": "070-8811-0043", "longitude": "127.04284761", "latitude": "37.733518593"}, {"name": "JSELL(제이셀)", "category": "other", "outputcat": "광학제품"}, {"name": "JSK개발 (커피니 의정부역점)", "category": "food", "outputcat": "식품/음료", "telephone": "070-4848-5276", "longitude": "127.04764976", "latitude": "37.739400115"}, {"name": "JS스크린골프연습장", "category": "other", "outputcat": "회원제형태", "telephone": "031-875-2700", "longitude": "127.0973491", "latitude": "37.745488257"}, {"name": "JS스크린골프연습장", "category": "food", "outputcat": "식품/음료", "telephone": "031-875-2700", "longitude": "127.0973491", "latitude": "37.745488257"}, {"name": "JS전기조명", "category": "other", "outputcat": "건축자재", "telephone": "031-000-0001", "longitude": "127.08378551", "latitude": "37.730407326"}, {"name": "JS케미칼", "category": "other", "outputcat": "신변잡화"}, {"name": "JS헤어", "category": "med", "outputcat": "의료", "telephone": "031-829-5334", "longitude": "127.03681731", "latitude": "37.744097711"}, {"name": "JS헤어스케치", "category": "med", "outputcat": "의료", "telephone": "031-845-0372", "longitude": "127.07845906", "latitude": "37.735429192"}, {"name": "JUN shop", "category": "med", "outputcat": "의료", "telephone": "070-7867-5505", "longitude": "127.04473297", "latitude": "37.737455121"}, {"name": "JUN21", "category": "other", "outputcat": "의류", "telephone": "031-855-3589", "longitude": "127.0505179", "latitude": "37.736011395"}, {"name": "JUNG텔레콤", "category": "other", "outputcat": "사무통신", "telephone": "031-885-6011"}, {"name": "Jang's뷰티", "category": "med", "outputcat": "의료", "longitude": "127.04354204", "latitude": "37.737960073"}, {"name": "JumPing송양태권스쿨", "category": "edu", "outputcat": "교육", "telephone": "031-851-2800", "longitude": "127.12386263", "latitude": "37.758095403"}, {"name": "J모터스", "category": "car", "outputcat": "자동차 정비/주유", "telephone": "031-827-6646", "longitude": "127.03413035", "latitude": "37.748846488"}, {"name": "J재희미용실", "category": "med", "outputcat": "의료", "telephone": "031-848-5110", "longitude": "127.08620495", "latitude": "37.743406444"}, {"name": "J코스메틱", "category": "med", "outputcat": "의료", "telephone": "031-861-6811", "longitude": "127.03454283", "latitude": "37.758261349"}, {"name": "J펌앤컷", "category": "med", "outputcat": "의료", "telephone": "031-822-6135", "longitude": "127.04089913", "latitude": "37.738843892"}, {"name": "J하우스", "category": "other", "outputcat": "의류", "telephone": "031-821-4318", "longitude": "127.05029283", "latitude": "37.738876527"}, {"name": "J헤어", "category": "med", "outputcat": "의료", "telephone": "031-872-3690", "longitude": "127.05568307", "latitude": "37.724792272"}, {"name": "J헤어", "category": "med", "outputcat": "의료", "telephone": "031-878-6152", "longitude": "127.05662959", "latitude": "37.731792288"}, {"name": "K CLUB", "category": "other", "outputcat": "신변잡화", "telephone": "031-874-9796"}, {"name": "K&J정보통신", "category": "other", "outputcat": "사무통신", "telephone": "031-751-5999", "longitude": "127.11637284", "latitude": "37.758012757"}, {"name": "K-3 당구장", "category": "other", "outputcat": "레저업소", "telephone": "031-852-7619", "longitude": "127.08095871", "latitude": "37.749905921"}, {"name": "K-레브호텔", "category": "trip", "outputcat": "숙박업", "telephone": "031-848-0024", "longitude": "127.05232492", "latitude": "37.740875815"}, {"name": "K-마트", "category": "shop", "outputcat": "마트/편의점", "telephone": "031-871-9922", "longitude": "127.04762944", "latitude": "37.724489277"}, {"name": "K-크린", "category": "other", "outputcat": "회원제형태"}, {"name": "K9노래연습장", "category": "other", "outputcat": "레저업소", "telephone": "031-865-8735", "longitude": "127.04531746", "latitude": "37.727931793"}, {"name": "KABO", "category": "other", "outputcat": "회원제형태", "telephone": "031-877-8633", "longitude": "127.03989643", "latitude": "37.752935152"}, {"name": "KB'S CrossFit&English", "category": "other", "outputcat": "회원제형태"}, {"name": "KING중앙주방", "category": "other", "outputcat": "전기제품", "telephone": "031-874-0700", "longitude": "127.04468517", "latitude": "37.733157573"}, {"name": "KMO가발", "category": "med", "outputcat": "의료", "telephone": "031-829-1199", "longitude": "127.04653953", "latitude": "37.742121419"}, {"name": "KNG디자인", "category": "other", "outputcat": "주방용구", "telephone": "031-874-8906", "longitude": "127.03837889", "latitude": "37.735403023"}, {"name": "KOCES_사랑카드", "category": "shop", "outputcat": "마트/편의점", "telephone": "02-1577-0016", "longitude": "127.06113029", "latitude": "37.510321619"}, {"name": "KOCES_사랑카드_A", "category": "shop", "outputcat": "마트/편의점", "telephone": "02-1577-0016", "longitude": "127.06113029", "latitude": "37.510321619"}, {"name": "KOCES_사랑카드_B", "category": "shop", "outputcat": "마트/편의점", "telephone": "02-1577-0016", "longitude": "127.06113029", "latitude": "37.510321619"}, {"name": "KOCES_사랑카드_C", "category": "shop", "outputcat": "마트/편의점", "telephone": "02-1577-0016", "longitude": "127.06113029", "latitude": "37.510321619"}, {"name": "KOCES_사랑카드_D", "category": "shop", "outputcat": "마트/편의점", "telephone": "02-1577-0016", "longitude": "127.06113029", "latitude": "37.510321619"}, {"name": "KS공조시스템", "category": "other", "outputcat": "용역 서비스"}, {"name": "KTF(선경정보통신)", "category": "other", "outputcat": "사무통신", "telephone": "031-840-0330", "longitude": "127.05773841", "latitude": "37.743260954"}, {"name": "Khmer 서비스", "category": "food", "outputcat": "식품/음료", "telephone": "031-875-7467", "longitude": "127.0505179", "latitude": "37.736011395"}, {"name": "Kim's헤어디자인", "category": "med", "outputcat": "의료", "telephone": "031-871-6252"}, {"name": "K당구장", "category": "other", "outputcat": "레저업소", "telephone": "031-111-1111", "longitude": "127.03459502", "latitude": "37.747594036"}, {"name": "K마트", "category": "food", "outputcat": "식품/음료", "telephone": "031-878-5429", "longitude": "127.03629881", "latitude": "37.751674891"}, {"name": "K복싱다이어트", "category": "other", "outputcat": "회원제형태", "telephone": "031-852-7772", "longitude": "127.06812771", "latitude": "37.752346297"}, {"name": "K아트 미술관", "longitude": "127.10050498", "latitude": "37.729484701"}, {"name": "K팝노래연습장", "category": "other", "outputcat": "레저업소", "telephone": "031-843-5006", "longitude": "127.0487968", "latitude": "37.741318711"}, {"name": "K헤어", "category": "med", "outputcat": "의료", "telephone": "031-879-5382", "longitude": "127.04465151", "latitude": "37.733824293"}, {"name": "L&BFlower", "telephone": "031-878-4882", "longitude": "127.04851549", "latitude": "37.708127507"}, {"name": "L-마트", "category": "shop", "outputcat": "마트/편의점", "telephone": "02-935-5151", "longitude": "11722"}, {"name": "LABELAB", "category": "other", "outputcat": "신변잡화", "telephone": "031-873-6717", "longitude": "127.04882327", "latitude": "37.710713145"}, {"name": "LA갈비찜닭 숯불고기냉면", "category": "food", "outputcat": "식품/음료", "telephone": "031-876-5987", "longitude": "127.04165636", "latitude": "37.73332078"}, {"name": "LED-STORY", "category": "other", "outputcat": "건축자재", "telephone": "031-821-6471", "longitude": "127.04501453", "latitude": "37.753843398"}, {"name": "LED월드 전기조명", "category": "other", "outputcat": "건축자재", "telephone": "031-821-9655", "longitude": "127.05051806", "latitude": "37.736263663"}, {"name": "LG가나인테리어", "category": "other", "outputcat": "직물", "telephone": "031-837-1817", "longitude": "127.03918101", "latitude": "37.728573522"}, {"name": "LG냉동", "category": "car", "outputcat": "자동차 정비/주유", "telephone": "031-829-3366", "longitude": "11675"}, {"name": "LG시스템에어컨.MS전기", "category": "other", "outputcat": "전기제품", "telephone": "070-8877-0828", "longitude": "127.05023345", "latitude": "37.734705122"}, {"name": "LG전자시스템설치센터", "category": "other", "outputcat": "전기제품", "telephone": "031-852-5526", "longitude": "127.08706568", "latitude": "37.732017744"}, {"name": "LH CNT 메모리아", "category": "other", "outputcat": "신변잡화", "telephone": "070-8210-4869", "longitude": "127.09781967", "latitude": "37.749704347"}, {"name": "LK커뮤니케이션", "category": "other", "outputcat": "사무통신", "telephone": "031-1661-4075", "longitude": "127.09351247", "latitude": "37.744121817"}, {"name": "LOUIS CASTEL 의정부중앙점", "category": "other", "outputcat": "레져용품", "telephone": "031-843-0007", "longitude": "127.04904614", "latitude": "37.740904173"}, {"name": "LOVE&양주", "category": "other", "outputcat": "용역 서비스", "telephone": "031-855-0578", "longitude": "127.03473381", "latitude": "37.753738509"}, {"name": "Lisian(리시안)", "category": "food", "outputcat": "식품/음료", "telephone": "070-8945-3313", "longitude": "127.04210084", "latitude": "37.737212767"}, {"name": "Love each other(러브이치아더)", "category": "food", "outputcat": "식품/음료", "telephone": "031-111-1111", "longitude": "127.05795685", "latitude": "37.731818704"}, {"name": "M.S (호원점)노래연습장", "category": "other", "outputcat": "레저업소", "telephone": "031-876-9507", "longitude": "127.04042802", "latitude": "37.727041502"}, {"name": "M.S(신곡점)노래연습장", "category": "other", "outputcat": "레저업소", "telephone": "031-821-3399", "longitude": "127.06006465", "latitude": "37.728988694"}, {"name": "M.S.이벤트", "category": "other", "outputcat": "회원제형태"}, {"name": "M2노래연습장", "category": "other", "outputcat": "레저업소", "telephone": "031-841-0652", "longitude": "127.06134753", "latitude": "37.744763815"}, {"name": "MAX스팀세차", "category": "car", "outputcat": "자동차 정비/주유", "telephone": "070-4332-9171", "longitude": "127.09686599", "latitude": "37.749263644"}, {"name": "MB마트", "category": "shop", "outputcat": "마트/편의점", "telephone": "031-872-5842", "longitude": "127.03684765", "latitude": "37.735989096"}, {"name": "MC헤어", "category": "med", "outputcat": "의료", "telephone": "070-8959-8282", "longitude": "127.04199228", "latitude": "37.746510669"}, {"name": "MIX(믹스)", "category": "food", "outputcat": "식품/음료", "telephone": "031-821-9104", "longitude": "127.04987263", "latitude": "37.738182959"}, {"name": "MJ상사", "category": "food", "outputcat": "식품/음료", "telephone": "031-851-0102", "longitude": "127.08309895", "latitude": "37.745931273"}, {"name": "MJ주얼리", "category": "other", "outputcat": "회원제형태"}, {"name": "MK유통", "category": "other", "outputcat": "회원제형태"}, {"name": "MK유통", "telephone": "070-4496-2720", "longitude": "127.04137112", "latitude": "37.752069764"}, {"name": "MK자동차외장관리", "category": "car", "outputcat": "자동차 정비/주유", "telephone": "031-841-1522", "longitude": "127.06770876", "latitude": "37.753373616"}, {"name": "MMA STORY", "category": "other", "outputcat": "회원제형태", "telephone": "031-844-0030", "longitude": "127.08881974", "latitude": "37.738151994"}, {"name": "MONO라이팅", "category": "other", "outputcat": "건축자재", "telephone": "031-877-3342", "longitude": "127.0475673", "latitude": "37.734345779"}, {"name": "MOON헤어", "category": "med", "outputcat": "의료", "telephone": "02-931-2025", "longitude": "127.04187972", "latitude": "37.74823153"}, {"name": "MS 종합상사", "category": "other", "outputcat": "주방용구", "telephone": "031-875-0341", "longitude": "127.02068276", "latitude": "37.740875829"}, {"name": "MS노래방(망원사점)", "category": "other", "outputcat": "레저업소", "telephone": "031-872-0708", "longitude": "127.04954683", "latitude": "37.707127036"}, {"name": "MS노래연습장", "category": "other", "outputcat": "레저업소", "telephone": "031-875-8555", "longitude": "127.03832173", "latitude": "37.734484064"}, {"name": "MS노래연습장", "category": "other", "outputcat": "레저업소", "telephone": "031-851-7702", "longitude": "127.06951108", "latitude": "37.751264378"}, {"name": "MS종합상사", "category": "other", "outputcat": "기타", "telephone": "031-875-0341", "longitude": "127.04861136", "latitude": "37.716506402"}, {"name": "MTA청도태권도", "category": "edu", "outputcat": "교육", "telephone": "031-875-7751", "longitude": "127.04095555", "latitude": "37.760403721"}, {"name": "MUL모텔", "category": "trip", "outputcat": "숙박업", "telephone": "031-875-6060", "longitude": "127.05004181", "latitude": "37.736624237"}, {"name": "MUSCLE GYM", "category": "other", "outputcat": "레저업소", "telephone": "031-876-0099", "longitude": "127.04068218", "latitude": "37.758430721"}, {"name": "MY골프클리닉", "category": "other", "outputcat": "레저업소", "telephone": "031-852-6877", "longitude": "127.09495464", "latitude": "37.745129769"}, {"name": "MinLak Pet", "telephone": "070-1478-1236", "longitude": "127.0983489", "latitude": "37.746541569"}, {"name": "Mini 헤어 #(미니 헤어샵)", "category": "med", "outputcat": "의료", "telephone": "031-877-1785", "longitude": "127.04278765", "latitude": "37.748627646"}, {"name": "Moden&Unique", "category": "other", "outputcat": "용역 서비스", "telephone": "02-742-8736", "longitude": "127.082403", "latitude": "37.742345942"}, {"name": "Moon 스킨케어", "category": "med", "outputcat": "의료", "telephone": "031-855-3608", "longitude": "127.04095566", "latitude": "37.760619949"}, {"name": "Morphine(몰핀)", "category": "other", "outputcat": "의류", "telephone": "031-847-3447", "longitude": "127.04901072", "latitude": "37.738678826"}, {"name": "Mr.쾌남 남자커트전문점", "category": "med", "outputcat": "의료", "telephone": "031-846-7822", "longitude": "127.03759567", "latitude": "37.734457252"}, {"name": "Muscle armed", "category": "other", "outputcat": "의류"}, {"name": "M헤어스토리", "category": "med", "outputcat": "의료", "telephone": "031-837-6235", "longitude": "127.04854437", "latitude": "37.736705912"}, {"name": "M호텔", "category": "trip", "outputcat": "숙박업", "telephone": "031-862-6045", "longitude": "127.0490655", "latitude": "37.735543475"}, {"name": "N.S.팬시문구", "category": "edu", "outputcat": "교육", "telephone": "031-873-7743", "longitude": "127.05623196", "latitude": "37.730963587"}, {"name": "NARA정보통신", "category": "other", "outputcat": "사무통신", "telephone": "031-852-5528", "longitude": "127.06087314", "latitude": "37.747511963"}, {"name": "NB-바이크", "category": "car", "outputcat": "자동차 정비/주유", "telephone": "031-837-8061", "longitude": "127.03804177", "latitude": "37.742205345"}, {"name": "NB®자연미", "category": "other", "outputcat": "회원제형태", "telephone": "031-872-5796", "longitude": "127.0369048", "latitude": "37.736935084"}, {"name": "NB휘트니스", "category": "other", "outputcat": "회원제형태", "telephone": "031-847-0696", "longitude": "127.06090383", "latitude": "37.728681958"}, {"name": "NSR의정부점", "category": "other", "outputcat": "레져용품", "telephone": "031-847-4568", "longitude": "127.0541543", "latitude": "37.744902306"}, {"name": "NW플랜", "category": "other", "outputcat": "용역 서비스", "telephone": "031-851-4161", "longitude": "127.08943123", "latitude": "37.737178513"}, {"name": "NZ트레이딩", "category": "other", "outputcat": "전기제품", "telephone": "031-848-7317", "longitude": "127.04412871", "latitude": "37.752537328"}, {"name": "Noting(낫띵)", "category": "food", "outputcat": "식품/음료", "longitude": "127.04829429", "latitude": "37.735904157"}, {"name": "O.K리스", "category": "other", "outputcat": "기타", "telephone": "031-848-3377", "longitude": "127.08384877", "latitude": "37.725992589"}, {"name": "O.K웰빙마트2호점", "category": "shop", "outputcat": "마트/편의점"}, {"name": "ODOPlay(오디오플레이)", "category": "other", "outputcat": "회원제형태", "telephone": "031-879-9255", "longitude": "127.03795767", "latitude": "37.732294847"}, {"name": "OFC모터스", "category": "car", "outputcat": "자동차 정비/주유", "telephone": "031-878-0895", "longitude": "127.04801029", "latitude": "37.735264587"}, {"name": "OK 노래연습장", "category": "other", "outputcat": "레저업소", "telephone": "031-872-2226", "longitude": "127.03768252", "latitude": "37.750350087"}, {"name": "OK네온", "category": "other", "outputcat": "건축자재", "telephone": "031-842-3761", "longitude": "127.05395642", "latitude": "37.737622668"}, {"name": "OK노래연습장", "category": "other", "outputcat": "레저업소", "telephone": "031-837-8830", "longitude": "127.0574344", "latitude": "37.730963037"}, {"name": "OK노래연습장", "category": "other", "outputcat": "레저업소", "telephone": "031-877-3447", "longitude": "127.04821178", "latitude": "37.73082279"}, {"name": "OK노래영상제작실", "category": "other", "outputcat": "용역 서비스", "telephone": "031-871-6192", "longitude": "127.04918413", "latitude": "37.725650913"}, {"name": "OK능이마을", "category": "food", "outputcat": "식품/음료", "telephone": "031-855-5239", "longitude": "127.04389928", "latitude": "37.727463796"}, {"name": "OK당구장", "category": "other", "outputcat": "레저업소", "telephone": "031-1111-1111", "longitude": "127.04368745", "latitude": "37.734185014"}, {"name": "OK메디텍", "category": "med", "outputcat": "의료", "telephone": "031-841-7482", "longitude": "127.07761848", "latitude": "37.756926517"}, {"name": "OK모터스", "category": "car", "outputcat": "자동차 정비/주유", "telephone": "031-847-5683", "longitude": "127.08353579", "latitude": "37.730263344"},